source_platform,source_venue_id,venue_name,venue_url,address,city,latitude,longitude,categories,price_tier,rating,rating_count,phone,website,opening_hours,has_menu,menu_url,extraction_status,retrieved_at,venue_type,target_classification,has_price,geocoding_confidence,all_names,nil_quartiere,name_source,source_provenance,opening_hours_source
osm,1645911082,Caffè del Borgo Bistrot,,"Via Antonio Zoccoli 13a, 40134, Bologna",Bologna,44.489785,11.317291,,,,,+39 3896982173,https://www.facebook.com/BorgoBistrotBologna/,Mo-Fr 07:00-20:00 Sa 07:00-13:00,False,,no_price,2026-06-02T10:13:47Z,bistro,TARGET,False,existing,Caffè del Borgo Bistrot,,osm_overpass,osm,osm
osm,3190973951,Le Radici Bistrot,,"Via Camillo Ranzani 13b, 40127, Bologna",Bologna,44.500698,11.358631,,,,,+39051 316 9385,https://www.leradicibistrot.it/,Mo-Su 08:00-21:30,False,,no_price,2026-06-02T10:13:47Z,bistro,TARGET,False,existing,Le Radici Bistrot,,osm_overpass,osm,osm
osm,9970891692,Lime Bistrot,,"Piazza San Martino 3/d, 40126, Bologna",Bologna,44.496703,11.346592,,,,,,,Mo-Su 12:00-00:00,False,,no_price,2026-06-02T10:13:47Z,bistro,TARGET,False,existing,Lime Bistrot,,osm_overpass,osm,typical_by_type
osm,3100479740,Noir Caffè Bistrot,,"Viale Carlo Berti Pichat 32, 40127, Bologna",Bologna,44.498844,11.356746,,,,,,,Mo-Su 12:00-00:00,False,,no_price,2026-06-02T10:13:47Z,bistro,TARGET,False,existing,Noir Caffè Bistrot,,osm_overpass,osm,typical_by_type
osm,12317969907,Officina Bistrot,,Bologna,Bologna,44.505206,11.327175,,,,,,,Mo 09:00-17:00; Tu-We 09:00-00:00; Th 09:00-00:30; Fr 09:00-02:00; Sa 10:00-02:00; Su 17:30-23:30,False,,no_price,2026-06-02T10:13:47Z,bistro,TARGET,False,existing,Officina Bistrot,,osm_overpass,osm,osm
osm,3646448112,Sette Chiese Bistrot,,"Piazza Santo Stefano 15, 40125, Bologna",Bologna,44.492147,11.348013,,,,,,,"Mo-Fr 11:00-01:00, Sa,Su 10:00-01:00",False,,no_price,2026-06-02T10:13:47Z,bistro,TARGET,False,existing,Sette Chiese Bistrot,,osm_overpass,osm,osm
osm,13875311939,Veg Bar & Bistro,,Bologna,Bologna,44.503684,11.345945,,,,,,,Mo-Su 12:00-00:00,False,,no_price,2026-06-02T10:13:47Z,bistro,TARGET,False,existing,Veg Bar & Bistro,,osm_overpass,osm,typical_by_type
osm,1704301677,Zem Bistrot,,"Via Mascarella 76a, 40126, Bologna",Bologna,44.500401,11.350907,,,,,+39 328 6668556,https://www.zembistrot.it,"Mo-Sa 11:30-15:00, 18:00-23:00; Su 11:30-15:30",False,,no_price,2026-06-02T10:13:47Z,bistro,TARGET,False,existing,Zem Bistrot,,osm_overpass,osm,osm
osm,315183043,10 Codivilla,,Bologna,Bologna,44.483090,11.343078,,,,,,,Mo-Su 07:00-20:00,False,,no_price,2026-06-02T10:13:47Z,cafe,TARGET,False,existing,10 Codivilla,,osm_overpass,osm,typical_by_type
osm,4050191156,12oz,,Bologna,Bologna,44.498532,11.343782,,,,,,,Mo-Su 07:00-20:00,False,,no_price,2026-06-02T10:13:47Z,cafe,TARGET,False,existing,12oz,,osm_overpass,osm,typical_by_type
osm,11591410934,12oz,,Bologna,Bologna,44.505400,11.343907,,,,,,,Mo-Su 07:00-20:00,False,,no_price,2026-06-02T10:13:47Z,cafe,TARGET,False,existing,12oz,,osm_overpass,osm,typical_by_type
osm,3538173467,2' M. M.,,Bologna,Bologna,44.504715,11.346476,,,,,,,Mo-Fr 05:00-19:30; Sa 07:00-19:30; Su 07:00-12:00,False,,no_price,2026-06-02T10:13:47Z,cafe,TARGET,False,existing,2' M. M.,,osm_overpass,osm,osm
osm,260886254,40139 - Garden Bar,,Bologna,Bologna,44.474658,11.377347,,,,,+39 339 504 1349,,We-Su 17:00-02:00,False,,no_price,2026-06-02T10:13:47Z,cafe,TARGET,False,existing,40139 - Garden Bar,,osm_overpass,osm,osm
osm,10604266699,7000 Caffè,,"Via Galliera 93h, 40121, Bologna",Bologna,44.503316,11.344475,,,,,+39 051 4126445,,Mo-Fr 06:40-20:00; Sa 07:30-12:00,False,,no_price,2026-06-02T10:13:47Z,cafe,TARGET,False,existing,7000 Caffè,,osm_overpass,osm,osm
osm,3637073745,84,,"Via del Borgo di San Pietro 65, 40126, Bologna",Bologna,44.500392,11.349402,,,,,,,Mo-Su 07:00-20:00,False,,no_price,2026-06-02T10:13:47Z,cafe,TARGET,False,existing,84,,osm_overpass,osm,typical_by_type
osm,4919336921,900,,Bologna,Bologna,44.443677,11.272795,,,,,,,Mo-Su 07:00-20:00,False,,no_price,2026-06-02T10:13:47Z,cafe,TARGET,False,existing,900,,osm_overpass,osm,typical_by_type
osm,4789626223,A2,,Bologna,Bologna,44.502001,11.318759,,,,,,,Mo-Su 07:00-20:00,False,,no_price,2026-06-02T10:13:47Z,cafe,TARGET,False,existing,A2,,osm_overpass,osm,typical_by_type
osm,4265119870,AB Bar,,"Viale Pietro Pietramellara 63c, Bologna",Bologna,44.504770,11.344107,,,,,,,Mo-Su 07:00-20:00,False,,no_price,2026-06-02T10:13:47Z,cafe,TARGET,False,existing,AB Bar,,osm_overpass,osm,typical_by_type
osm,5182827725,Acafè,,"Via del Triumvirato 84, 40132, Bologna",Bologna,44.529622,11.293247,,,,,,,Mo-Su 07:00-20:00,False,,no_price,2026-06-02T10:13:47Z,cafe,TARGET,False,existing,Acafè,,osm_overpass,osm,typical_by_type
osm,6902021518,Afroditachef,,"Via Rialto 1b, 40124, Bologna",Bologna,44.489949,11.350167,,,,,,https://www.afroditachef.it/,Mo 07:30-15:00; Tu-Th 07:30-21:00; Fr 07:30-22:00; Sa 08:00-22:00,False,,no_price,2026-06-02T10:13:47Z,cafe,TARGET,False,existing,Afroditachef,,osm_overpass,osm,osm
osm,4280372681,Agnese,,Bologna,Bologna,44.487690,11.361397,,,,,,,Mo-Su 07:00-20:00,False,,no_price,2026-06-02T10:13:47Z,cafe,TARGET,False,existing,Agnese,,osm_overpass,osm,typical_by_type
osm,4115020790,Al Bricco d'oro,,"Via Luigi Carlo Farini 6, 40124, Bologna",Bologna,44.491413,11.342608,,,,,+39 051 236231,,Mo-Th 07:00-22:00; Fr 07:00-23:00; Sa 08:30-23:00; Su 08:30-22:00,False,,no_price,2026-06-02T10:13:47Z,cafe,TARGET,False,existing,Al Bricco d'oro,,osm_overpass,osm,osm
osm,1939834940,Al Giardinetto,,Bologna,Bologna,44.462207,11.404014,,,,,+39 051 466028,,Mo-Su 07:00-20:00,False,,no_price,2026-06-02T10:13:47Z,cafe,TARGET,False,existing,Al Giardinetto,,osm_overpass,osm,typical_by_type
osm,9061621707,AlchemillaBio Bologna,,"Via Mascarella 76a, Bologna",Bologna,44.500372,11.350895,,,,,+39 051 991 2745,www.alchemillabio.it,Mo-We 11:00-16:00; Th-Sa 11:00-21:30,False,,no_price,2026-06-02T10:13:47Z,cafe,TARGET,False,existing,AlchemillaBio Bologna,,osm_overpass,osm,osm
osm,2941506891,Alchimia 13,,"Via Giuseppe Petroni 1/2b, 40126, Bologna",Bologna,44.494516,11.352115,,,,,,,Mo-Su 17:00-01:00,False,,no_price,2026-06-02T10:13:47Z,cafe,TARGET,False,existing,Alchimia 13,,osm_overpass,osm,osm
osm,3606710678,Alle Tuate,,"Via San Vitale 56, 40125, Bologna",Bologna,44.494241,11.351968,,,,,,,Mo-Su 07:00-20:00,False,,no_price,2026-06-02T10:13:47Z,cafe,TARGET,False,existing,Alle Tuate,,osm_overpass,osm,typical_by_type
osm,12785900301,Allegra,,Bologna,Bologna,44.497431,11.341972,,,,,,,Mo-Su 07:00-20:00,False,,no_price,2026-06-02T10:13:47Z,cafe,TARGET,False,existing,Allegra,,osm_overpass,osm,typical_by_type
osm,3645643530,Altotasso,,"Piazza San Francesco 6, 40122, Bologna",Bologna,44.495207,11.334510,,,,,,,Mo-Su 07:00-20:00,False,,no_price,2026-06-02T10:13:47Z,cafe,TARGET,False,existing,Altotasso,,osm_overpass,osm,typical_by_type
osm,2702618078,Altroverso,,"Piazza del Nettuno 3, 40124, Bologna",Bologna,44.494845,11.341836,,,,,,,Mo-Su 07:00-20:00,False,,no_price,2026-06-02T10:13:47Z,cafe,TARGET,False,existing,Altroverso,,osm_overpass,osm,typical_by_type
osm,3606710681,Amarilli Café,,"Via San Vitale 54e, 40125, Bologna",Bologna,44.494281,11.351579,,,,,,,Mo-Su 07:00-20:00,False,,no_price,2026-06-02T10:13:47Z,cafe,TARGET,False,existing,Amarilli Café,,osm_overpass,osm,typical_by_type
osm,4050191163,Ambasciata del gusto,,Bologna,Bologna,44.498262,11.343704,,,,,,,Mo-Su 07:00-20:00,False,,no_price,2026-06-02T10:13:47Z,cafe,TARGET,False,existing,Ambasciata del gusto,,osm_overpass,osm,typical_by_type
osm,13348752162,AngoloB,,"Via Giuseppe Garibaldi 7c, 40124, Bologna",Bologna,44.489253,11.343093,,,,,+39 333 538 8295,https://angolobologna.it,"Mo-Th 12:30-15:00,18:30-01:00; Fr 12:30-15:00,18:30-01:30; Sa 18:00-01:30; Su 12:30-01:00",False,,no_price,2026-06-02T10:13:47Z,cafe,TARGET,False,existing,AngoloB,,osm_overpass,osm,osm
osm,4050271333,AnticArenA,,"Via dell'Indipendenza 40b, 40121, Bologna",Bologna,44.498954,11.343625,,,,,,,Mo-Su 07:00-20:00,False,,no_price,2026-06-02T10:13:47Z,cafe,TARGET,False,existing,AnticArenA,,osm_overpass,osm,typical_by_type
osm,3645734972,Antico Caffe Scaletto,,"Via Ugo Bassi 3a, 40121, Bologna",Bologna,44.495315,11.341019,,,,,+39 0510568141,https://antico-caffe-scaletto.business.site,Mo-Fr 07:30-21:30; Sa-Su 08:30-22:00,False,,no_price,2026-06-02T10:13:47Z,cafe,TARGET,False,existing,Antico Caffe Scaletto,,osm_overpass,osm,osm
osm,1788481598,Antico Caffè Biondi,,"Via della Beverara 1a, 40133, Bologna",Bologna,44.509574,11.329235,,,,,,,Mo-Su 07:00-20:00,False,,no_price,2026-06-02T10:13:47Z,cafe,TARGET,False,existing,Antico Caffè Biondi,,osm_overpass,osm,typical_by_type
osm,4280397756,Antico Cafè Murri,,Bologna,Bologna,44.482980,11.358930,,,,,,,Mo-Fr 06:30-16:00; Sa 06:30-13:00,False,,no_price,2026-06-02T10:13:47Z,cafe,TARGET,False,existing,Antico Cafè Murri,,osm_overpass,osm,osm
osm,9502705476,Aperitivi Panini Tavola Fredda,,"Via Emilia Ponente 449, 40132, Bologna",Bologna,44.514193,11.284489,,,,,,,Mo-Su 07:00-20:00,False,,no_price,2026-06-02T10:13:47Z,cafe,AMBIGUOUS_TO_REVIEW,False,existing,Aperitivi Panini Tavola Fredda,,osm_overpass,osm,typical_by_type
osm,3816325992,Arena,,Bologna,Bologna,44.464408,11.371039,,,,,,,Mo-Su 07:00-20:00,False,,no_price,2026-06-02T10:13:47Z,cafe,TARGET,False,existing,Arena,,osm_overpass,osm,typical_by_type
osm,5190422050,Arida Caffè,,"Via Vittorio Veneto 17, 40131, Bologna",Bologna,44.499138,11.320110,,,,,,,Mo-Su 07:00-20:00,False,,no_price,2026-06-02T10:13:47Z,cafe,TARGET,False,existing,Arida Caffè | Arìd@ Caffé,,osm_overpass,osm,typical_by_type
osm,3606779801,Arisbar,,"Via San Vitale 2g, 40125, Bologna",Bologna,44.494517,11.347264,,,,,,,Mo-Su 07:00-20:00,False,,no_price,2026-06-02T10:13:47Z,cafe,TARGET,False,existing,Arisbar,,osm_overpass,osm,typical_by_type
osm,5600034423,Aroma Specialty Coffees,,"Via Porta Nova 12b, Bologna",Bologna,44.494202,11.337743,,,,,,https://www.ilpiaceredelcaffe.it,Mo-Su 07:00-20:00,False,,no_price,2026-06-02T10:13:47Z,cafe,TARGET,False,existing,Aroma Specialty Coffees,,osm_overpass,osm,typical_by_type
osm,4524791998,Arredissima,,Bologna,Bologna,44.497503,11.391949,,,,,,,Mo-Su 07:00-20:00,False,,no_price,2026-06-02T10:13:47Z,cafe,TARGET,False,existing,Arredissima,,osm_overpass,osm,typical_by_type
osm,4050191171,Arte del Gelato,,Bologna,Bologna,44.497211,11.343389,,,,,,,Mo-Su 07:00-20:00,False,,no_price,2026-06-02T10:13:47Z,cafe,TARGET,False,existing,Arte del Gelato,,osm_overpass,osm,typical_by_type
osm,6978106185,Astral Bar,,Bologna,Bologna,44.490878,11.346470,,,,,,,Mo-Su 07:00-20:00,False,,no_price,2026-06-02T10:13:47Z,cafe,TARGET,False,existing,Astral Bar,,osm_overpass,osm,typical_by_type
osm,4460445394,Atlantic,,"Via Aldo Moro 64, 40033, Bologna",Bologna,44.483592,11.270765,,,,,,,Mo-Su 07:00-20:00,False,,no_price,2026-06-02T10:13:47Z,cafe,TARGET,False,existing,Atlantic,,osm_overpass,osm,typical_by_type
osm,4523224601,Aurora,,"Via Paolo Bovi Campeggi 18a, Bologna",Bologna,44.505979,11.332440,,,,,+39 051 991 5033,,Mo-Fr 06:00-17:00; Sa-Su off,False,,no_price,2026-06-02T10:13:47Z,cafe,TARGET,False,existing,Aurora,,osm_overpass,osm,osm
osm,12804154149,AURUM,,Bologna,Bologna,44.492576,11.341145,,,,,,https://www.instagram.com/aurum_bologna/,Mo-Su 07:00-20:00,False,,no_price,2026-06-02T10:13:47Z,cafe,TARGET,False,existing,AURUM,,osm_overpass,osm,typical_by_type
osm,1233591970,Autogrill Café,,Bologna,Bologna,44.505939,11.343033,,,,,,,Mo-Su 07:00-20:00,False,,no_price,2026-06-02T10:13:47Z,cafe,TARGET,False,existing,Autogrill Café,,osm_overpass,osm,typical_by_type
osm,3682904752,Avala,,"Via Cavazzoni, Bologna",Bologna,44.470127,11.381703,,,,,,,Mo-Su 07:00-20:00,False,,no_price,2026-06-02T10:13:47Z,cafe,TARGET,False,existing,Avala,,osm_overpass,osm,typical_by_type
osm,7879572355,Awanagana,,Bologna,Bologna,44.500629,11.343287,,,,,,,Mo-Sa 12:00-23:00,False,,no_price,2026-06-02T10:13:47Z,cafe,TARGET,False,existing,Awanagana,,osm_overpass,osm,osm
osm,3606867948,Aziz Drinks,,"Via Giuseppe Petroni 25, 40126, Bologna",Bologna,44.495597,11.351125,,,,,,,Mo-Su 07:00-20:00,False,,no_price,2026-06-02T10:13:47Z,cafe,TARGET,False,existing,Aziz Drinks,,osm_overpass,osm,typical_by_type
osm,9969405841,Azzurra Cafè,,"Via Giacomo Matteotti 1, Bologna",Bologna,44.505153,11.345738,,,,,,,Mo-Su 07:00-20:00,False,,no_price,2026-06-02T10:13:47Z,cafe,TARGET,False,existing,Azzurra Cafè,,osm_overpass,osm,typical_by_type
osm,12581604394,Baladin,,"Via Clavature 12, 40124, Bologna",Bologna,44.493382,11.344778,,,,,+39 051 232919,,Mo-Su 07:00-20:00,False,,no_price,2026-06-02T10:13:47Z,cafe,TARGET,False,existing,Baladin,,osm_overpass,osm,typical_by_type
osm,2942639810,Bambi,,"Via San Vitale 126, 40125, Bologna",Bologna,44.494105,11.356420,,,,,,,Mo-Su 07:00-20:00,False,,no_price,2026-06-02T10:13:47Z,cafe,TARGET,False,existing,Bambi,,osm_overpass,osm,typical_by_type
osm,3197035181,Bamboo,,"Strada Maggiore 23c, 40125, Bologna",Bologna,44.493021,11.349234,,,,,,https://www.bamboobologna.info,Mo-Su 07:00-20:00,False,,no_price,2026-06-02T10:13:47Z,cafe,TARGET,False,existing,Bamboo,,osm_overpass,osm,typical_by_type
osm,9023307217,Bambu,,Bologna,Bologna,44.498297,11.347179,,,,,,,Mo-Su 07:00-20:00,False,,no_price,2026-06-02T10:13:47Z,cafe,TARGET,False,existing,Bambu,,osm_overpass,osm,typical_by_type
osm,271209685,Bar,,Bologna,Bologna,44.536366,11.301956,,,,,,,Mo-Su 07:00-20:00,False,,no_price,2026-06-02T10:13:47Z,cafe,TARGET,False,existing,,,placeholder,osm,typical_by_type
osm,1812414177,Bar,,Bologna,Bologna,44.481800,11.283488,,,,,,,Mo-Su 07:00-20:00,False,,no_price,2026-06-02T10:13:47Z,cafe,TARGET,False,existing,,,placeholder,osm,typical_by_type
osm,3100479736,Bar,,"Via Ilio Barontini 1/2c, 40138, Bologna",Bologna,44.499307,11.360311,,,,,,,Mo-Su 07:00-20:00,False,,no_price,2026-06-02T10:13:47Z,cafe,TARGET,False,existing,,,placeholder,osm,typical_by_type
osm,5078507925,Bar,,Bologna,Bologna,44.508964,11.295772,,,,,,,Mo-Su 07:00-20:00,False,,no_price,2026-06-02T10:13:47Z,cafe,TARGET,False,existing,,,placeholder,osm,typical_by_type
osm,10720931438,Bar 48,,"Via delle Belle Arti 48d, Bologna",Bologna,44.497871,11.352293,,,,,,,Mo-Su 07:00-20:00,False,,no_price,2026-06-02T10:13:47Z,cafe,TARGET,False,existing,Bar 48,,osm_overpass,osm,typical_by_type
osm,3190943575,Bar A22 Bistró,,Bologna,Bologna,44.501933,11.352354,,,,,,,Mo-Su 07:00-20:00,False,,no_price,2026-06-02T10:13:47Z,cafe,TARGET,False,existing,Bar A22 Bistró,,osm_overpass,osm,typical_by_type
osm,3380749944,Bar Agraria,,"Via Giuseppe Fanin, 40127, Bologna",Bologna,44.514115,11.407409,,,,,,,Mo-Su 07:00-20:00,False,,no_price,2026-06-02T10:13:47Z,cafe,TARGET,False,existing,Bar Agraria,,osm_overpass,osm,typical_by_type
osm,5948614202,Bar Al Ritrovo,,Bologna,Bologna,44.485059,11.370218,,,,,,,Mo-Sa 06:30-19:30,False,,no_price,2026-06-02T10:13:47Z,cafe,TARGET,False,existing,Bar Al Ritrovo,,osm_overpass,osm,osm
osm,1539352939,Bar Aldini,,Bologna,Bologna,44.521575,11.348396,,,,,,,Mo-Su 07:00-20:00,False,,no_price,2026-06-02T10:13:47Z,cafe,TARGET,False,existing,Bar Aldini,,osm_overpass,osm,typical_by_type
osm,1195852080,Bar Angolo,,Bologna,Bologna,44.494858,11.327926,,,,,,,Mo-Su 07:00-20:00,False,,no_price,2026-06-02T10:13:47Z,cafe,TARGET,False,existing,Bar Angolo,,osm_overpass,osm,typical_by_type
osm,13564417687,Bar Annalisa,,"Via Enrico De Nicola 1, 40132, Bologna",Bologna,44.503226,11.277904,,,,,,,Mo-Fr 06:30-20:00,False,,no_price,2026-06-02T10:13:47Z,cafe,TARGET,False,existing,Bar Annalisa,,osm_overpass,osm,osm
osm,1112926973,Bar Asso,,Bologna,Bologna,44.492505,11.325679,,,,,,,Mo-Su 07:00-20:00,False,,no_price,2026-06-02T10:13:47Z,cafe,TARGET,False,existing,Bar Asso,,osm_overpass,osm,typical_by_type
osm,3636954956,Bar Austria,,"Via Irnerio 35a, 40126, Bologna",Bologna,44.499537,11.350502,,,,,,,Mo-Su 07:00-20:00,False,,no_price,2026-06-02T10:13:47Z,cafe,TARGET,False,existing,Bar Austria,,osm_overpass,osm,typical_by_type
osm,5872409412,Bar Bellaria,,Bologna,Bologna,44.464517,11.389909,,,,,,,Mo-Su 07:00-20:00,False,,no_price,2026-06-02T10:13:47Z,cafe,TARGET,False,existing,Bar Bellaria,,osm_overpass,osm,typical_by_type
osm,13315327727,Bar Bello,,Bologna,Bologna,44.504029,11.328954,,,,,,,Mo-Su 07:00-20:00,False,,no_price,2026-06-02T10:13:47Z,cafe,TARGET,False,existing,Bar Bello,,osm_overpass,osm,typical_by_type
osm,1713457525,Bar Bianco,,"63a, Bologna",Bologna,44.504864,11.343811,,,,,,,Mo-Su 07:00-20:00,False,,no_price,2026-06-02T10:13:47Z,cafe,TARGET,False,existing,Bar Bianco,,osm_overpass,osm,typical_by_type
osm,6057481584,Bar Billi 1833,,"Via Pietro De Coubertin 1, 40134, Bologna",Bologna,44.490236,11.311276,,,,,+39 051 614 2225,,Mo-Su 07:00-20:00,False,,no_price,2026-06-02T10:13:47Z,cafe,TARGET,False,existing,Bar Billi 1833,,osm_overpass,osm,typical_by_type
osm,1652110050,Bar Blob,,Bologna,Bologna,44.488043,11.260151,,,,,,,Mo-Su 07:00-20:00,False,,no_price,2026-06-02T10:13:47Z,cafe,TARGET,False,existing,Bar Blob,,osm_overpass,osm,typical_by_type
osm,2353742992,Bar Bologna,,Bologna,Bologna,44.494443,11.329308,,,,,,,Mo-Su 07:00-20:00,False,,no_price,2026-06-02T10:13:47Z,cafe,TARGET,False,existing,Bar Bologna,,osm_overpass,osm,typical_by_type
osm,7204568947,Bar Brio,,Bologna,Bologna,44.481234,11.256009,,,,,,,Mo-Su 07:00-20:00,False,,no_price,2026-06-02T10:13:47Z,cafe,TARGET,False,existing,Bar Brio,,osm_overpass,osm,typical_by_type
osm,9116471760,Bar Caffè Guglielmo,,Bologna,Bologna,44.473732,11.368338,,,,,,,Mo-Su 07:00-20:00,False,,no_price,2026-06-02T10:13:47Z,cafe,TARGET,False,existing,Bar Caffè Guglielmo,,osm_overpass,osm,typical_by_type
osm,1114982576,Bar Carlo,,"Via Andrea Costa 37a, 40134, Bologna",Bologna,44.495046,11.326234,,,,,,,Mo-Su 07:00-20:00,False,,no_price,2026-06-02T10:13:47Z,cafe,TARGET,False,existing,Bar Carlo,,osm_overpass,osm,typical_by_type
osm,4053173287,Bar Carlo,,"Via Guglielmo Marconi 49, 40122, Bologna",Bologna,44.499795,11.339058,,,,,,,Mo-Su 07:00-20:00,False,,no_price,2026-06-02T10:13:47Z,cafe,TARGET,False,existing,Bar Carlo,,osm_overpass,osm,typical_by_type
osm,830646281,Bar Celeste,,Bologna,Bologna,44.495427,11.319839,,,,,,,Mo-Su 07:00-20:00,False,,no_price,2026-06-02T10:13:47Z,cafe,TARGET,False,existing,Bar Celeste,,osm_overpass,osm,typical_by_type
osm,10594788337,Bar Cesoia,,Bologna,Bologna,44.492853,11.362015,,,,,,,Mo-Su 07:00-20:00,False,,no_price,2026-06-02T10:13:47Z,cafe,TARGET,False,existing,Bar Cesoia,,osm_overpass,osm,typical_by_type
osm,4429522598,Bar Chichibo,,"Via Giacomo Matteotti 24a, 40129, Bologna",Bologna,44.508861,11.346499,,,,,+39 051 356655,https://chichibo.webnode.it/,Mo-Su 06:30-21:30,False,,no_price,2026-06-02T10:13:47Z,cafe,TARGET,False,existing,Bar Chichibo,,osm_overpass,osm,osm
osm,11874457675,Bar China,,Bologna,Bologna,44.500373,11.329334,,,,,,,Mo-Su 07:00-20:00,False,,no_price,2026-06-02T10:13:47Z,cafe,TARGET,False,existing,Bar China,,osm_overpass,osm,typical_by_type
osm,4782375142,Bar City,,"Via Edera 37, San Lazzaro di Savena",Bologna,44.457680,11.377586,,,,,,,Mo-Su 07:00-20:00,False,,no_price,2026-06-02T10:13:47Z,cafe,TARGET,False,existing,Bar City,,osm_overpass,osm,typical_by_type
osm,10086472484,Bar Colonna,,Bologna,Bologna,44.484139,11.372570,,,,,,,Mo-Su 07:00-20:00,False,,no_price,2026-06-02T10:13:47Z,cafe,TARGET,False,existing,Bar Colonna,,osm_overpass,osm,typical_by_type
osm,5948642861,Bar Crociali,,Bologna,Bologna,44.484944,11.370537,,,,,,,Mo-Su 06:00-03:00,False,,no_price,2026-06-02T10:13:47Z,cafe,TARGET,False,existing,Bar Crociali,,osm_overpass,osm,osm
osm,474385035,Bar Crystal,,Bologna,Bologna,44.498729,11.332211,,,,,,,Mo-Su 07:00-20:00,False,,no_price,2026-06-02T10:13:47Z,cafe,TARGET,False,existing,Bar Crystal,,osm_overpass,osm,typical_by_type
osm,4275201341,Bar da Jenny,,Bologna,Bologna,44.493541,11.352000,,,,,,,"Mo-Th 07:00-22:00; Fr, Sa 07:00-22:30; Su 07:00-19:00",False,,no_price,2026-06-02T10:13:47Z,cafe,TARGET,False,existing,Bar da Jenny,,osm_overpass,osm,osm
osm,3413648260,Bar daEnzo,,"Via Vittorio Veneto, 40131, Bologna",Bologna,44.497181,11.318817,,,,,,,Mo-Su 07:00-20:00,False,,no_price,2026-06-02T10:13:47Z,cafe,TARGET,False,existing,Bar daEnzo,,osm_overpass,osm,typical_by_type
osm,3606710676,Bar degli Illusi,,"Piazza Aldrovandi 19, 40125, Bologna",Bologna,44.493843,11.352118,,,,,,,Mo-Su 07:00-20:00,False,,no_price,2026-06-02T10:13:47Z,cafe,TARGET,False,existing,Bar degli Illusi,,osm_overpass,osm,typical_by_type
osm,13015754332,Bar Degustazione Caffè Mexico,,Bologna,Bologna,44.506338,11.296287,,,,,,,Mo-Su 07:00-20:00,False,,no_price,2026-06-02T10:13:47Z,cafe,TARGET,False,existing,Bar Degustazione Caffè Mexico,,osm_overpass,osm,typical_by_type
osm,13121881001,Bar dei ragazzi,,"Via del Lavoro 16, Bologna",Bologna,44.503894,11.360534,,,,,,,Mo-Su 07:00-20:00,False,,no_price,2026-06-02T10:13:47Z,cafe,TARGET,False,existing,Bar dei ragazzi,,osm_overpass,osm,typical_by_type
osm,9502705477,Bar Del Corso,,"Via Emilia Ponente 451/2, 40132, Bologna",Bologna,44.514136,11.284590,,,,,+393926355929,https://website-8172531310793876051139-espressobar.business.site/,Mo-Fr 06:30-20:00; Sa 06:30-17:00; Su 07:00-15:00,False,,no_price,2026-06-02T10:13:47Z,cafe,TARGET,False,existing,Bar Del Corso,,osm_overpass,osm,osm
osm,12542572273,Bar della Felicità,,"Via Donato Creti 71c, 40128, Bologna",Bologna,44.509794,11.354896,,,,,,,Mo-Su 07:00-20:00,False,,no_price,2026-06-02T10:13:47Z,cafe,TARGET,False,existing,Bar della Felicità,,osm_overpass,osm,typical_by_type
osm,13537367893,Bar della Grada,,Bologna,Bologna,44.497548,11.329062,,,,,,,Mo-Su 07:00-20:00,False,,no_price,2026-06-02T10:13:47Z,cafe,TARGET,False,existing,Bar della Grada,,osm_overpass,osm,typical_by_type
osm,5628796155,Bar Diamante,,Bologna,Bologna,44.466890,11.370517,,,,,,,Mo-Su 07:00-20:00,False,,no_price,2026-06-02T10:13:47Z,cafe,TARGET,False,existing,Bar Diamante,,osm_overpass,osm,typical_by_type
osm,13871574873,Bar Don Bosco,,Bologna,Bologna,44.507645,11.346114,,,,,,,Mo-Su 07:00-20:00,False,,no_price,2026-06-02T10:13:47Z,cafe,TARGET,False,existing,Bar Don Bosco,,osm_overpass,osm,typical_by_type
osm,13296962262,Bar Edison,,Bologna,Bologna,44.491358,11.319850,,,,,,,Mo-Su 07:00-20:00,False,,no_price,2026-06-02T10:13:47Z,cafe,TARGET,False,existing,Bar Edison,,osm_overpass,osm,typical_by_type
osm,12260919835,Bar Ex Otello,,"Via Cracovia 17b, Bologna",Bologna,44.472015,11.398302,,,,,,,Mo-Su 07:00-20:00,False,,no_price,2026-06-02T10:13:47Z,cafe,TARGET,False,existing,Bar Ex Otello,,osm_overpass,osm,typical_by_type
osm,11492172680,Bar Formula 1,,Bologna,Bologna,44.485889,11.369066,,,,,,,Mo-Su 07:00-20:00,False,,no_price,2026-06-02T10:13:47Z,cafe,TARGET,False,existing,Bar Formula 1,,osm_overpass,osm,typical_by_type
osm,5629477599,Bar Grandi,,"Via Ferrarese 65b, 40128, Bologna",Bologna,44.510950,11.348402,,,,,+39 051 368635,,Mo-Su 07:00-20:00,False,,no_price,2026-06-02T10:13:47Z,cafe,TARGET,False,existing,Bar Grandi,,osm_overpass,osm,typical_by_type
osm,4050191157,Bar Igea,,"Via dell'Indipendenza 36a, 40121, Bologna",Bologna,44.498509,11.343497,,,,,,,Mo-Su 07:00-20:00,False,,no_price,2026-06-02T10:13:47Z,cafe,TARGET,False,existing,Bar Igea,,osm_overpass,osm,typical_by_type
osm,13009048900,Bar Il Sole,,"Via Pasubio 92e, Bologna",Bologna,44.500319,11.311599,,,,,,,Mo-Su 07:00-20:00,False,,no_price,2026-06-02T10:13:47Z,cafe,TARGET,False,existing,Bar Il Sole,,osm_overpass,osm,typical_by_type
osm,9855244576,Bar Illy G.A.G.A.,,Bologna,Bologna,44.508290,11.378117,,,,,,,Mo-Su 07:00-20:00,False,,no_price,2026-06-02T10:13:47Z,cafe,TARGET,False,existing,Bar Illy G.A.G.A.,,osm_overpass,osm,typical_by_type
osm,2375778142,Bar Incontro,,Bologna,Bologna,44.521269,11.295094,,,,,,,Mo-Su 07:00-20:00,False,,no_price,2026-06-02T10:13:47Z,cafe,TARGET,False,existing,Bar Incontro,,osm_overpass,osm,typical_by_type
osm,4053203976,Bar International,,"Via Galliera 75, 40121, Bologna",Bologna,44.501603,11.343737,,,,,,,Mo-Su 07:00-20:00,False,,no_price,2026-06-02T10:13:47Z,cafe,TARGET,False,existing,Bar International,,osm_overpass,osm,typical_by_type
osm,776164983,Bar L'Angolo,,Bologna,Bologna,44.501366,11.369549,,,,,,,Mo-Su 07:00-20:00,False,,no_price,2026-06-02T10:13:47Z,cafe,TARGET,False,existing,Bar L'Angolo,,osm_overpass,osm,typical_by_type
osm,10086813677,Bar l'Aurora,,Bologna,Bologna,44.483905,11.369922,,,,,,,Mo-Su 07:00-20:00,False,,no_price,2026-06-02T10:13:47Z,cafe,TARGET,False,existing,Bar l'Aurora,,osm_overpass,osm,typical_by_type
osm,2129145257,Bar la Dolce,,Bologna,Bologna,44.499568,11.325946,,,,,,,Mo-Su 07:00-20:00,False,,no_price,2026-06-02T10:13:47Z,cafe,TARGET,False,existing,Bar la Dolce,,osm_overpass,osm,typical_by_type
osm,4289006917,Bar Latteria Fontana,,"Via Porrettana 148/2d, 40135, Bologna",Bologna,44.491176,11.303777,,,,,+39 051 434044,,"Mo-We,Sa 07:00-18:00; Th-Fr 07:00-20:00",False,,no_price,2026-06-02T10:13:47Z,cafe,TARGET,False,existing,Bar Latteria Fontana,,osm_overpass,osm,osm
osm,11607841990,Bar Latteria Giulia G.,,"Via Marco Emilio Lepido 61, 40132, Bologna",Bologna,44.517735,11.274689,,,,,+390510563710,,Mo-We 06:00-19:00; Th 06:00-14:00; Fr 06:00-19:00; Sa 07:00-15:00; Su 07:00-13:00,False,,no_price,2026-06-02T10:13:47Z,cafe,TARGET,False,existing,Bar Latteria Giulia G.,,osm_overpass,osm,osm
osm,13290811264,Bar Limone,,Bologna,Bologna,44.507479,11.346031,,,,,,,Mo-Su 07:00-20:00,False,,no_price,2026-06-02T10:13:47Z,cafe,TARGET,False,existing,Bar Limone,,osm_overpass,osm,typical_by_type
osm,4524299122,BAR Lunik,,Bologna,Bologna,44.500031,11.324302,,,,,,,Mo-Su 07:00-20:00,False,,no_price,2026-06-02T10:13:47Z,cafe,TARGET,False,existing,BAR Lunik,,osm_overpass,osm,typical_by_type
osm,1704696705,Bar Malpighi,,"Piazza Malpighi 3, 40123, Bologna",Bologna,44.495461,11.336630,,,,,,,Mo-Su 07:00-20:00,False,,no_price,2026-06-02T10:13:47Z,cafe,TARGET,False,existing,Bar Malpighi,,osm_overpass,osm,typical_by_type
osm,9533241132,Bar Manzoni,,"Via Giacinta Pezzana 8d, Bologna",Bologna,44.502501,11.359583,,,,,,,Tu-Su 07:00-22:30,False,,no_price,2026-06-02T10:13:47Z,cafe,TARGET,False,existing,Bar Manzoni,,osm_overpass,osm,osm
osm,11579171028,Bar Maxi,,"Via Aldo Pio Manuzio 7, 40132, Bologna",Bologna,44.517923,11.276784,,,,,+39 051 404 829,,"Mo-Sa 06:30-20:00; Su 08:00-13:00, 16:30-20:00",False,,no_price,2026-06-02T10:13:47Z,cafe,TARGET,False,existing,Bar Maxi,,osm_overpass,osm,osm
osm,6288333037,Bar Megarih,,Bologna,Bologna,44.481712,11.369464,,,,,,,Mo-Fr 06:00-18:00; Sa 06:00-13:00,False,,no_price,2026-06-02T10:13:47Z,cafe,TARGET,False,existing,Bar Megarih,,osm_overpass,osm,osm
osm,474410375,Bar Mello,,"Via Riva di Reno 52a, 40122, Bologna",Bologna,44.498770,11.333161,,,,,,https://www.facebook.com/pages/Bar-Mello/348542158498548,Mo-Su 07:00-20:00,False,,no_price,2026-06-02T10:13:47Z,cafe,TARGET,False,existing,Bar Mello,,osm_overpass,osm,typical_by_type
osm,3788659068,Bar Miki e Max,,"Via Orfeo 22, Bologna",Bologna,44.486786,11.349779,,,,,,,07:00-01:00,False,,no_price,2026-06-02T10:13:47Z,cafe,TARGET,False,existing,Bar Miki e Max,,osm_overpass,osm,osm
osm,13315327715,Bar Mirò,,"Viale Pietro Pietramellara 5e, Bologna",Bologna,44.503741,11.335996,,,,,+39 051 522408,,Mo-Su 07:00-20:00,False,,no_price,2026-06-02T10:13:47Z,cafe,TARGET,False,existing,Bar Mirò,,osm_overpass,osm,typical_by_type
osm,13070898062,Bar Miss Zhao,,Bologna,Bologna,44.533049,11.354555,,,,,,,Mo-Su 07:00-20:00,False,,no_price,2026-06-02T10:13:47Z,cafe,TARGET,False,existing,Bar Miss Zhao,,osm_overpass,osm,typical_by_type
osm,1704699374,Bar Moka 3,,"Via Francesco Zanardi 3, 40131, Bologna",Bologna,44.503086,11.333082,,,,,,,Mo-Su 07:00-20:00,False,,no_price,2026-06-02T10:13:47Z,cafe,TARGET,False,existing,Bar Moka 3,,osm_overpass,osm,typical_by_type
osm,3816296272,Bar Noi con Cucina,,Bologna,Bologna,44.509144,11.363697,,,,,,,Mo-Fr 07:00-16:00,False,,no_price,2026-06-02T10:13:47Z,cafe,TARGET,False,existing,Bar Noi con Cucina,,osm_overpass,osm,osm
osm,4776992110,Bar Note Di Caffè,,"Via Marco Emilio Lepido 66/5f, 40132, Bologna",Bologna,44.517921,11.273318,,,,,+39 051 403555,https://www.facebook.com/Bar-Note-di-Caff%C3%A8-683153371762786/,Mo-Fr 05:00-20:00; Sa 05:00-13:00,False,,no_price,2026-06-02T10:13:47Z,cafe,TARGET,False,existing,Bar Note Di Caffè,,osm_overpass,osm,osm
osm,7554172186,Bar Pallavicini,,"Via Marco Emilio Lepido 196, 40132, Bologna",Bologna,44.517809,11.251824,,,,,,,Mo-Su 07:00-20:00,False,,no_price,2026-06-02T10:13:47Z,cafe,TARGET,False,existing,Bar Pallavicini,,osm_overpass,osm,typical_by_type
osm,440948386,Bar Parco,,Bologna,Bologna,44.541085,11.355965,,,,,,,Mo-Su 07:00-20:00,False,,no_price,2026-06-02T10:13:47Z,cafe,TARGET,False,existing,Bar Parco,,osm_overpass,osm,typical_by_type
osm,12842954252,Bar Paride,,Bologna,Bologna,44.499077,11.337709,,,,,,,Mo-Su 07:00-20:00,False,,no_price,2026-06-02T10:13:47Z,cafe,TARGET,False,existing,Bar Paride,,osm_overpass,osm,typical_by_type
osm,10893292410,Bar Pasticceria Astorri,,"Via Lombardia, 40139, Bologna",Bologna,44.477094,11.383808,,,,,,,Mo-Su 07:00-20:00,False,,no_price,2026-06-02T10:13:47Z,cafe,TARGET,False,existing,Bar Pasticceria Astorri,,osm_overpass,osm,typical_by_type
osm,8461180463,Bar Pasticceria del Borgo,,"Via Marco Emilio Lepido 54, 40132, Bologna",Bologna,44.517223,11.275468,,,,,+39051401077,,03:00-20:00,False,,no_price,2026-06-02T10:13:47Z,cafe,TARGET,False,existing,Bar Pasticceria del Borgo,,osm_overpass,osm,osm
osm,10983543106,Bar Pasticceria Millevoglie,,"Via Ferrarese 48b, 40128, Bologna",Bologna,44.515280,11.353109,,,,,+39 051 352745,,Mo-Sa 06:30-20:00; Su 07:00-20:00,False,,no_price,2026-06-02T10:13:47Z,cafe,TARGET,False,existing,Bar Pasticceria Millevoglie,,osm_overpass,osm,osm
osm,7491775375,Bar Pasticceria Operà,,"Via della Foscherara 3c, 40141, Bologna",Bologna,44.468508,11.373038,,,,,+39 051 7165376,,Mo-Su 07:00-20:00,False,,no_price,2026-06-02T10:13:47Z,cafe,TARGET,False,existing,Bar Pasticceria Operà,,osm_overpass,osm,typical_by_type
osm,13255411572,Bar Pasticceria Samaroli,,Bologna,Bologna,44.503838,11.364542,,,,,,,Mo-Su 07:00-20:00,False,,no_price,2026-06-02T10:13:47Z,cafe,TARGET,False,existing,Bar Pasticceria Samaroli,,osm_overpass,osm,typical_by_type
osm,1338983295,Bar Pasticceria Venezia,,"Via Andrea Costa 68i, Bologna",Bologna,44.495315,11.321642,,,,,,,Mo-Su 07:00-20:00,False,,no_price,2026-06-02T10:13:47Z,cafe,TARGET,False,existing,Bar Pasticceria Venezia,,osm_overpass,osm,typical_by_type
osm,2938723716,Bar Peperly,,"Via Andrea Costa 43a, 40134, Bologna",Bologna,44.495152,11.325214,,,,,,,Mo-Su 06:00-19:00,False,,no_price,2026-06-02T10:13:47Z,cafe,TARGET,False,existing,Bar Peperly,,osm_overpass,osm,osm
osm,11653272704,Bar Piazza dei Martiri di Hong Jianmei,,Bologna,Bologna,44.502457,11.339326,,,,,,,Mo-Sa 07:00-18:00,False,,no_price,2026-06-02T10:13:47Z,cafe,TARGET,False,existing,Bar Piazza dei Martiri di Hong Jianmei,,osm_overpass,osm,osm
osm,11922665006,Bar Piratello,,"Via del Pratello 25/2a, Bologna",Bologna,44.495572,11.333327,,,,,,,Mo-Su 07:00-20:00,False,,no_price,2026-06-02T10:13:47Z,cafe,TARGET,False,existing,Bar Piratello,,osm_overpass,osm,typical_by_type
osm,4265181386,Bar Romano,,Bologna,Bologna,44.493386,11.342631,,,,,,,Mo-Su 07:00-20:00,False,,no_price,2026-06-02T10:13:47Z,cafe,TARGET,False,existing,Bar Romano,,osm_overpass,osm,typical_by_type
osm,5942636608,Bar Rosso Blu,,Bologna,Bologna,44.486606,11.367561,,,,,,,Mo-Su 07:00-20:00,False,,no_price,2026-06-02T10:13:47Z,cafe,TARGET,False,existing,Bar Rosso Blu,,osm_overpass,osm,typical_by_type
osm,3350882296,Bar Saffi,,Bologna,Bologna,44.500709,11.322669,,,,,,,Mo-Su 07:00-20:00,False,,no_price,2026-06-02T10:13:47Z,cafe,TARGET,False,existing,Bar Saffi,,osm_overpass,osm,typical_by_type
osm,4102969090,Bar Salomé,,"Via Federico Venturini 4a, Bologna",Bologna,44.499300,11.345422,,,,,,,Mo-Su 15:00-00:00,False,,no_price,2026-06-02T10:13:47Z,cafe,TARGET,False,existing,Bar Salomé,,osm_overpass,osm,osm
osm,2941511233,Bar Sant'Orsola,,"Via Giuseppe Massarenti 70c, 40138, Bologna",Bologna,44.493151,11.360760,,,,,,,Mo-Su 07:00-20:00,False,,no_price,2026-06-02T10:13:47Z,cafe,TARGET,False,existing,Bar Sant'Orsola,,osm_overpass,osm,typical_by_type
osm,5604634755,Bar Segafredo,,Bologna,Bologna,44.464575,11.374279,,,,,,,Mo-Su 07:00-20:00,False,,no_price,2026-06-02T10:13:47Z,cafe,TARGET,False,existing,Bar Segafredo,,osm_overpass,osm,typical_by_type
osm,3645707127,Bar Senza Nome,,"Via Belvedere 11b, 40121, Bologna",Bologna,44.496426,11.338382,,,,,+393472919346,,Su-Th 15:00-01:00; Fr-Sa 15:00-02:00,False,,no_price,2026-06-02T10:13:47Z,cafe,TARGET,False,existing,Bar Senza Nome,,osm_overpass,osm,osm
osm,4777074880,Bar Simona,,"Via Antonio Canaletto 5b, 40133, Bologna",Bologna,44.493210,11.296832,,,,,+39 051 6146385,,Mo-Su 07:00-20:00,False,,no_price,2026-06-02T10:13:47Z,cafe,TARGET,False,existing,Bar Simona,,osm_overpass,osm,typical_by_type
osm,8149364585,Bar Spiaggia,,"Via Panigale 8a, 40132, Bologna",Bologna,44.517420,11.280266,,,,,+39 324 835 0051,https://m.facebook.com/streghettainspiaggia,Mo-Fr 06:30-20:00; Sa 07:00-13:30,False,,no_price,2026-06-02T10:13:47Z,cafe,TARGET,False,existing,Bar Spiaggia,,osm_overpass,osm,osm
osm,13413539101,Bar Sport,,Bologna,Bologna,44.473953,11.272319,,,,,,,Mo-Su 07:00-20:00,False,,no_price,2026-06-02T10:13:47Z,cafe,TARGET,False,existing,Bar Sport,,osm_overpass,osm,typical_by_type
osm,4265119875,Bar Stazione,,"Via Giovanni Amendola 16b, 40121, Bologna",Bologna,44.505293,11.341240,,,,,,,Mo-Su 07:00-22:00,False,,no_price,2026-06-02T10:13:47Z,cafe,TARGET,False,existing,Bar Stazione,,osm_overpass,osm,osm
osm,5604591028,Bar Tabaccheria Toscana 26,,Bologna,Bologna,44.469887,11.371374,,,,,,,Mo-Su 07:00-20:00,False,,no_price,2026-06-02T10:13:47Z,cafe,TARGET,False,existing,Bar Tabaccheria Toscana 26,,osm_overpass,osm,typical_by_type
osm,2942610557,"Bar Tabacchi ""Dè Carracci""",,"Via de' Carracci 49, 40129, Bologna",Bologna,44.507589,11.341840,,,,,,,Mo-Su 07:00-20:00,False,,no_price,2026-06-02T10:13:47Z,cafe,TARGET,False,existing,"Bar Tabacchi ""Dè Carracci""",,osm_overpass,osm,typical_by_type
osm,9116514596,Bar Tabacchi da Giò,,"Via Augusto Murri 128a, 40137, Bologna",Bologna,44.475746,11.367388,,,,,+39051442584,https://www.bartabacchidagio.it/,Mo-Su 07:00-20:00,False,,no_price,2026-06-02T10:13:47Z,cafe,TARGET,False,existing,Bar Tabacchi da Giò,,osm_overpass,osm,typical_by_type
osm,5226760648,Bar Tabacchi da Lucy,,Bologna,Bologna,44.490922,11.354783,,,,,,,Mo-Su 07:00-20:00,False,,no_price,2026-06-02T10:13:47Z,cafe,TARGET,False,existing,Bar Tabacchi da Lucy,,osm_overpass,osm,typical_by_type
osm,5950956357,Bar Tavola Fredda,,Bologna,Bologna,44.491354,11.346856,,,,,,,Mo-Su 07:00-20:00,False,,no_price,2026-06-02T10:13:47Z,cafe,TARGET,False,existing,Bar Tavola Fredda,,osm_overpass,osm,typical_by_type
osm,12741260091,Bar Texas,,Bologna,Bologna,44.500475,11.371031,,,,,,,Mo-Su 07:00-20:00,False,,no_price,2026-06-02T10:13:47Z,cafe,TARGET,False,existing,Bar Texas,,osm_overpass,osm,typical_by_type
osm,8461371044,Bar Tiffany,,"Via Marco Emilio Lepido 54/5b, 40132, Bologna",Bologna,44.516962,11.276017,,,,,+39051404720,,Mo-Fr 05:00-20:00; Sa 05:00-14:00,False,,no_price,2026-06-02T10:13:47Z,cafe,TARGET,False,existing,Bar Tiffany,,osm_overpass,osm,osm
osm,13409753301,Bar Tipo,,Bologna,Bologna,44.474517,11.270467,,,,,,,Mo-Su 07:00-20:00,False,,no_price,2026-06-02T10:13:47Z,cafe,TARGET,False,existing,Bar Tipo,,osm_overpass,osm,typical_by_type
osm,10960976266,Bar Unità,,"Via di Corticella, Bologna",Bologna,44.512223,11.347141,,,,,,,Mo-Su 07:00-24:00; Tu 17:00-24:00,False,,no_price,2026-06-02T10:13:47Z,cafe,TARGET,False,existing,Bar Unità,,osm_overpass,osm,osm
osm,3180986111,Bar Veneto,,"Via Pasubio, Bologna",Bologna,44.498130,11.319434,,,,,,,Mo-Su 07:00-20:00,False,,no_price,2026-06-02T10:13:47Z,cafe,TARGET,False,existing,Bar Veneto,,osm_overpass,osm,typical_by_type
osm,535370612,Bar Zhenjie,,"Via Nicolò dall'Arca, Bologna",Bologna,44.513691,11.343521,,,,,,,Mo-Su 07:00-20:00,False,,no_price,2026-06-02T10:13:47Z,cafe,TARGET,False,existing,Bar Zhenjie,,osm_overpass,osm,typical_by_type
osm,1576785437,Bar-pasticceria Dolce Vita,,"Via Marco Emilio Lepido 128, 40132, Bologna",Bologna,44.518753,11.270966,,,,,+39 051 401433,,Mo-Su 08:00-20:00,False,,no_price,2026-06-02T10:13:47Z,cafe,TARGET,False,existing,Bar-pasticceria Dolce Vita,,osm_overpass,osm,osm
osm,4268793991,Barattolo,,Bologna,Bologna,44.499185,11.348354,,,,,,,"Tu-Th, Su 17:00-01:00; Fr, Sa 18:00-02:00",False,,no_price,2026-06-02T10:13:47Z,cafe,TARGET,False,existing,Barattolo,,osm_overpass,osm,osm
osm,8299913317,Barazzo,,"Via del Pratello 66/c, Bologna",Bologna,44.495421,11.331128,,,,,+393287967313,https://www.barazzo.it/,Tu-Su 18:00-03:00,False,,no_price,2026-06-02T10:13:47Z,cafe,TARGET,False,existing,Barazzo,,osm_overpass,osm,osm
osm,4265181381,Baretto,,Bologna,Bologna,44.493730,11.344334,,,,,,,Mo-Su 07:00-20:00,False,,no_price,2026-06-02T10:13:47Z,cafe,TARGET,False,existing,Baretto,,osm_overpass,osm,typical_by_type
osm,4280334103,Barfly,,Bologna,Bologna,44.488862,11.360846,,,,,,,Mo-Su 07:00-20:00,False,,no_price,2026-06-02T10:13:47Z,cafe,TARGET,False,existing,Barfly,,osm_overpass,osm,typical_by_type
osm,5175031121,Barlume,,"via Caduti di Cefalonia 4, Bologna",Bologna,44.495000,11.344138,,,,,+39 051233976,,Mo-Su 07:00-20:00,False,,no_price,2026-06-02T10:13:47Z,cafe,TARGET,False,existing,Barlume,,osm_overpass,osm,typical_by_type
osm,2551244195,Barnaut,,Bologna,Bologna,44.510095,11.347357,,,,,,,Sa 09:00-23:30; Mo-Fr 08:00-23:30; Su off,False,,no_price,2026-06-02T10:13:47Z,cafe,TARGET,False,existing,Barnaut,,osm_overpass,osm,osm
osm,5974483785,Baschieri Claudio,,"Via Cleto Tomba 29, 40127, Bologna",Bologna,44.505750,11.360701,,,,,+39 051500840,,Mo-Sa 07:00-20:00,False,,no_price,2026-06-02T10:13:47Z,cafe,TARGET,False,existing,Baschieri Claudio,,osm_overpass,osm,osm
osm,4274713981,Basilico Food,,Bologna,Bologna,44.493156,11.361335,,,,,,,Mo-Su 07:00-20:00,False,,no_price,2026-06-02T10:13:47Z,cafe,TARGET,False,existing,Basilico Food,,osm_overpass,osm,typical_by_type
osm,2396864376,Bat Taglio,,Bologna,Bologna,44.519154,11.293840,,,,,,,Mo-Sa 06:30-21:00; Su 07:00-14:00,False,,no_price,2026-06-02T10:13:47Z,cafe,TARGET,False,existing,Bat Taglio,,osm_overpass,osm,osm
osm,6978103386,Beer 4 Bunnies,,Bologna,Bologna,44.495532,11.335799,,,,,,,Mo-Su 07:00-20:00,False,,no_price,2026-06-02T10:13:47Z,cafe,TARGET,False,existing,Beer 4 Bunnies,,osm_overpass,osm,typical_by_type
osm,4563036191,Beercode,,"Via del Triumvirato 84, 40132, Bologna",Bologna,44.529486,11.292427,,,,,,,Mo-Su 07:00-20:00,False,,no_price,2026-06-02T10:13:47Z,cafe,TARGET,False,existing,Beercode,,osm_overpass,osm,typical_by_type
osm,4265181385,Bella Vita,,Bologna,Bologna,44.493702,11.344040,,,,,,,Mo-Su 07:00-20:00,False,,no_price,2026-06-02T10:13:47Z,cafe,TARGET,False,existing,Bella Vita,,osm_overpass,osm,typical_by_type
osm,4708260289,Bellini,,Bologna,Bologna,44.503571,11.340428,,,,,,,Mo-Su 07:00-20:00,False,,no_price,2026-06-02T10:13:47Z,cafe,TARGET,False,existing,Bellini,,osm_overpass,osm,typical_by_type
osm,4053203978,Biancolatte,,"Via dei Mille 4a, 40121, Bologna",Bologna,44.501244,11.343651,,,,,+39 051246881,https://www.biancolatte.it/,Mo-Sa 06:30-20:00,False,,no_price,2026-06-02T10:13:47Z,cafe,TARGET,False,existing,Biancolatte,,osm_overpass,osm,osm
osm,3247425709,Bidibo,,"Piazza Maggiore 2d, 40124, Bologna",Bologna,44.493955,11.343919,,,,,,,Mo-Su 07:00-20:00,False,,no_price,2026-06-02T10:13:47Z,cafe,TARGET,False,existing,Bidibo,,osm_overpass,osm,typical_by_type
osm,4696854790,Bios,,Bologna,Bologna,44.493243,11.340518,,,,,,,Mo-Su 07:00-20:00,False,,no_price,2026-06-02T10:13:47Z,cafe,TARGET,False,existing,Bios,,osm_overpass,osm,typical_by_type
osm,3247425704,Birrina,,"Via Pescherie Vecchie 2, 40124, Bologna",Bologna,44.493712,11.344182,,,,,,,Mo-Su 07:00-20:00,False,,no_price,2026-06-02T10:13:47Z,cafe,TARGET,False,existing,Birrina,,osm_overpass,osm,typical_by_type
osm,6978212685,Birrotecca,,Bologna,Bologna,44.495486,11.330236,,,,,,,Mo-Su 07:00-20:00,False,,no_price,2026-06-02T10:13:47Z,cafe,TARGET,False,existing,Birrotecca,,osm_overpass,osm,typical_by_type
osm,9935663791,Black & White,,"Via Caldarese 2, 40125, Bologna",Bologna,44.493974,11.348125,,,,,,,"17:00-02:00; Fr,Sa 17:00-03:00",False,,no_price,2026-06-02T10:13:47Z,cafe,TARGET,False,existing,Black & White,,osm_overpass,osm,osm
osm,3190973938,Blue Lou Bar,,"Via Sante Vincenzi 22c, 40138, Bologna",Bologna,44.496249,11.365310,,,,,+39 3474307887,,Tu-Su 17:30-23:30,False,,no_price,2026-06-02T10:13:47Z,cafe,TARGET,False,existing,Blue Lou Bar,,osm_overpass,osm,osm
osm,440938879,Blues Café,,Bologna,Bologna,44.548335,11.357101,,,,,,,Mo-Su 07:00-20:00,False,,no_price,2026-06-02T10:13:47Z,cafe,TARGET,False,existing,Blues Café,,osm_overpass,osm,typical_by_type
osm,4280372669,Blumen,,Bologna,Bologna,44.488065,11.362339,,,,,,,Mo-Sa 06:30-23:00; Su 07:00-23:00,False,,no_price,2026-06-02T10:13:47Z,cafe,TARGET,False,existing,Blumen,,osm_overpass,osm,osm
osm,7394187697,Body,,Bologna,Bologna,44.485093,11.366750,,,,,,,"Mo-Fr 07:00-20:30; Sa, Su 08:00-13:00",False,,no_price,2026-06-02T10:13:47Z,cafe,TARGET,False,existing,Body,,osm_overpass,osm,osm
osm,13893872987,Boma Café,,Bologna,Bologna,44.493491,11.348124,,,,,,,Mo-Su 07:00-20:00,False,,no_price,2026-06-02T10:13:47Z,cafe,TARGET,False,existing,Boma Café,,osm_overpass,osm,typical_by_type
osm,4696804689,Bon Bon Cafe',,Bologna,Bologna,44.509014,11.296909,,,,,,,Mo-Su 07:00-20:00,False,,no_price,2026-06-02T10:13:47Z,cafe,TARGET,False,existing,Bon Bon Cafe',,osm_overpass,osm,typical_by_type
osm,9855244577,Bonjour Café,,Bologna,Bologna,44.508617,11.377985,,,,,,,Mo-Su 07:00-20:00,False,,no_price,2026-06-02T10:13:47Z,cafe,TARGET,False,existing,Bonjour Café,,osm_overpass,osm,typical_by_type
osm,312288649,Bononia Club,,Bologna,Bologna,44.497563,11.313007,,,,,,,Mo-Su 07:00-20:00,False,,no_price,2026-06-02T10:13:47Z,cafe,TARGET,False,existing,Bononia Club,,osm_overpass,osm,typical_by_type
osm,10019906287,Borgo Mameli,,"Piazza di Porta San Felice 3, 40122, Bologna",Bologna,44.499136,11.326688,,,,,+393701512014,https://borgomameli.it/,Mo-Su 07:00-20:00,False,,no_price,2026-06-02T10:13:47Z,cafe,TARGET,False,existing,Borgo Mameli,,osm_overpass,osm,typical_by_type
osm,2942654347,Boteco,,"Via San Vitale 17b, 40125, Bologna",Bologna,44.494354,11.349538,,,,,,,Mo-Su 07:00-20:00,False,,no_price,2026-06-02T10:13:47Z,cafe,TARGET,False,existing,Boteco,,osm_overpass,osm,typical_by_type
osm,12151194432,Bottega del Caffè,,Bologna,Bologna,44.495710,11.338227,,,,,,,Mo-Su 07:00-20:00,False,,no_price,2026-06-02T10:13:47Z,cafe,TARGET,False,existing,Bottega del Caffè,,osm_overpass,osm,typical_by_type
osm,3183130857,Bottega Moline,,"Via delle Moline 20c, 40126, Bologna",Bologna,44.498390,11.346714,,,,,,,Mo-Su 07:00-20:00,False,,no_price,2026-06-02T10:13:47Z,cafe,TARGET,False,existing,Bottega Moline,,osm_overpass,osm,typical_by_type
osm,13871589543,Bottega Sacro Cuore,,"Via Giacomo Matteotti 29, Bologna",Bologna,44.508400,11.346666,,,,,,,Mo-Su 07:00-20:00,False,,no_price,2026-06-02T10:13:47Z,cafe,TARGET,False,existing,Bottega Sacro Cuore,,osm_overpass,osm,typical_by_type
osm,3982181497,Boulevard Café,,"Viale Quirico Filopanti 4, 40126, Bologna",Bologna,44.496981,11.356987,,,,,+39 051 243135,,Mo-Fr 06:00-20:00,False,,no_price,2026-06-02T10:13:47Z,cafe,TARGET,False,existing,Boulevard Café,,osm_overpass,osm,osm
osm,4734547322,Bravo Caffè,,"Via Mascarella 1, 40126, Bologna",Bologna,44.497850,11.349220,,,,,+39 051 266112,https://www.chipslab.net/page_1/index.php,Mo-Su 07:00-20:00,False,,no_price,2026-06-02T10:13:47Z,cafe,TARGET,False,existing,Bravo Caffè,,osm_overpass,osm,typical_by_type
osm,7883935787,Breccia,,"Via del Maccabreccia 2a, 40012, Bologna",Bologna,44.542496,11.299745,,,,,+39 051 6466353,,Mo-Su 07:00-20:00,False,,no_price,2026-06-02T10:13:47Z,cafe,TARGET,False,existing,Breccia,,osm_overpass,osm,typical_by_type
osm,3190943576,Brio,,"Via Stalingrado 15/10, 40128, Bologna",Bologna,44.507012,11.355363,,,,,,,Mo-Su 07:00-20:00,False,,no_price,2026-06-02T10:13:47Z,cafe,TARGET,False,existing,Brio,,osm_overpass,osm,typical_by_type
osm,7590462861,Brio caffè,,"Via Caduti della Via Fani 19b, 40127, Bologna",Bologna,44.506520,11.362270,,,,,+39 051 4855843,,Mo-Su 07:00-20:00,False,,no_price,2026-06-02T10:13:47Z,cafe,TARGET,False,existing,Brio caffè,,osm_overpass,osm,typical_by_type
osm,5501644124,Buona Pausa,,Bologna,Bologna,44.514769,11.329650,,,,,,,Mo-Su 07:00-20:00,False,,no_price,2026-06-02T10:13:47Z,cafe,TARGET,False,existing,Buona Pausa,,osm_overpass,osm,typical_by_type
osm,2912495201,C House,,"Piazza degli Etruschi 40, 40033, Bologna",Bologna,44.482701,11.270475,,,,,,,Mo-Su 07:00-20:00,False,,no_price,2026-06-02T10:13:47Z,cafe,TARGET,False,existing,C House,,osm_overpass,osm,typical_by_type
osm,4524470890,C House Coffee Shop,,"Via Cristoforo Colombo 7, 40131, Bologna",Bologna,44.530206,11.336905,,,,,+39 0510141087,https://www.chouseitalia.com/,Mo-Su 08:00-21:00,False,,no_price,2026-06-02T10:13:47Z,cafe,TARGET,False,existing,C House Coffee Shop,,osm_overpass,osm,osm
osm,4265093132,Ca' Piadina,,"Viale Giuseppe Fanin, Bologna",Bologna,44.514807,11.400708,,,,,,,Mo-Su 07:00-20:00,False,,no_price,2026-06-02T10:13:47Z,cafe,AMBIGUOUS_TO_REVIEW,False,existing,Ca' Piadina,,osm_overpass,osm,typical_by_type
osm,4280372670,Ca.fé Mazzini,,Bologna,Bologna,44.487972,11.362499,,,,,,,Mo-Sa 06:00-21:30; Su 07:00-14:30,False,,no_price,2026-06-02T10:13:47Z,cafe,TARGET,False,existing,Ca.fé Mazzini,,osm_overpass,osm,osm
osm,3759553761,Cabala cafe,,"Strada Maggiore, Bologna",Bologna,44.493813,11.347580,,,,,,,Mo-Su 07:00-20:00,False,,no_price,2026-06-02T10:13:47Z,cafe,TARGET,False,existing,Cabala cafe,,osm_overpass,osm,typical_by_type
osm,5493312995,Cafe del Poggiale,,Bologna,Bologna,44.497056,11.339477,,,,,,,Mo-Su 07:00-20:00,False,,no_price,2026-06-02T10:13:47Z,cafe,TARGET,False,existing,Cafe del Poggiale,,osm_overpass,osm,typical_by_type
osm,11262477418,Cafe Masini,,Bologna,Bologna,44.496570,11.337586,,,,,,,Mo-Su 07:00-20:00,False,,no_price,2026-06-02T10:13:47Z,cafe,TARGET,False,existing,Cafe Masini,,osm_overpass,osm,typical_by_type
osm,4793726118,Cafe Menil,,"Via Andrea Costa 91c, Bologna",Bologna,44.495503,11.320595,,,,,,,Mo-Su 07:00-20:00,False,,no_price,2026-06-02T10:13:47Z,cafe,TARGET,False,existing,Cafe Menil,,osm_overpass,osm,typical_by_type
osm,12749814935,Cafetteria Del Centro,,Bologna,Bologna,44.546140,11.359350,,,,,,,Mo-Su 07:00-20:00,False,,no_price,2026-06-02T10:13:47Z,cafe,TARGET,False,existing,Cafetteria Del Centro,,osm_overpass,osm,typical_by_type
osm,9158651017,Caffe Almetti,,Bologna,Bologna,44.497405,11.332075,,,,,,,Mo-Fr 06:00-24:00; Sa 07:00-24:00; Su 07:00-14:30,False,,no_price,2026-06-02T10:13:47Z,cafe,TARGET,False,existing,Caffe Almetti,,osm_overpass,osm,osm
osm,4697002195,Caffe dalla Lù,,Bologna,Bologna,44.515993,11.278849,,,,,,,Mo-Su 07:00-20:00,False,,no_price,2026-06-02T10:13:47Z,cafe,TARGET,False,existing,Caffe dalla Lù,,osm_overpass,osm,typical_by_type
osm,13125474078,Caffe Margherita,,"Via Porrettana 235, Bologna",Bologna,44.478067,11.277702,,,,,,,Mo-Su 07:00-20:00,False,,no_price,2026-06-02T10:13:47Z,cafe,TARGET,False,existing,Caffe Margherita,,osm_overpass,osm,typical_by_type
osm,1704744459,Caffelatte bar,,"Via Francesco Zanardi 6g, 40131, Bologna",Bologna,44.503284,11.332604,,,,,,,Mo-Su 07:00-20:00,False,,no_price,2026-06-02T10:13:47Z,cafe,TARGET,False,existing,Caffelatte bar,,osm_overpass,osm,typical_by_type
osm,4319222544,Caffeteria Carducci,,Bologna,Bologna,44.487134,11.353028,,,,,,,Mo-Su 07:00-20:00,False,,no_price,2026-06-02T10:13:47Z,cafe,TARGET,False,existing,Caffeteria Carducci,,osm_overpass,osm,typical_by_type
osm,4499854391,Caffetteria Alexander,,"Via Porrettana 66, Sasso Marconi",Bologna,44.444123,11.271318,,,,,+39 051 845896,,Mo-Su 07:00-20:00,False,,no_price,2026-06-02T10:13:47Z,cafe,TARGET,False,existing,Caffetteria Alexander,,osm_overpass,osm,typical_by_type
osm,5204804422,Caffetteria Ambaradam,,"Via Stalingrado 22e, 40128, Bologna",Bologna,44.508860,11.355740,,,,,,,Mo-Sa 07:00-18:00,False,,no_price,2026-06-02T10:13:47Z,cafe,TARGET,False,existing,Caffetteria Ambaradam,,osm_overpass,osm,osm
osm,5604604129,Caffetteria Belle Epoque,,Bologna,Bologna,44.469160,11.371282,,,,,,,Mo-Su 07:00-20:00,False,,no_price,2026-06-02T10:13:47Z,cafe,TARGET,False,existing,Caffetteria Belle Epoque,,osm_overpass,osm,typical_by_type
osm,4793772585,Caffetteria Bologna,,"Via San Felice 28a, Bologna",Bologna,44.496760,11.333959,,,,,,,Mo-Su 07:00-20:00,False,,no_price,2026-06-02T10:13:47Z,cafe,TARGET,False,existing,Caffetteria Bologna,,osm_overpass,osm,typical_by_type
osm,3939481756,Caffetteria Bolognese,,"Via Toscana 10, 40141, Bologna",Bologna,44.471333,11.370704,,,,,,,Mo-Su 07:00-20:00,False,,no_price,2026-06-02T10:13:47Z,cafe,TARGET,False,existing,Caffetteria Bolognese,,osm_overpass,osm,typical_by_type
osm,5599085945,Caffetteria Ca' dei Fiori,,"Via di Corticella 29b, 40128, Bologna",Bologna,44.514176,11.347557,,,,,,,Mo-Su 06:30-21:00,False,,no_price,2026-06-02T10:13:47Z,cafe,TARGET,False,existing,Caffetteria Ca' dei Fiori,,osm_overpass,osm,osm
osm,4729216191,Caffetteria Chiesanuova,,"Via Augusto Murri, Bologna",Bologna,44.473967,11.368056,,,,,,,Mo-Su 07:00-20:00,False,,no_price,2026-06-02T10:13:47Z,cafe,TARGET,False,existing,Caffetteria Chiesanuova,,osm_overpass,osm,typical_by_type
osm,5859143552,Caffetteria del Portico,,"Via Eleonora Duse 5/a, 40127, Bologna",Bologna,44.501189,11.370052,,,,,,,Mo-Su 07:00-20:00,False,,no_price,2026-06-02T10:13:47Z,cafe,TARGET,False,existing,Caffetteria del Portico,,osm_overpass,osm,typical_by_type
osm,13295324448,Caffetteria delle Lame,,Bologna,Bologna,44.497065,11.336838,,,,,,,Mo-Su 07:00-20:00,False,,no_price,2026-06-02T10:13:47Z,cafe,TARGET,False,existing,Caffetteria delle Lame,,osm_overpass,osm,typical_by_type
osm,2129136716,Caffetteria Family,,"Via Aurelio Saffi, Bologna",Bologna,44.500239,11.324813,,,,,,,Mo-Su 07:00-20:00,False,,no_price,2026-06-02T10:13:47Z,cafe,TARGET,False,existing,Caffetteria Family,,osm_overpass,osm,typical_by_type
osm,13503715558,Caffetteria I Mauri,,Bologna,Bologna,44.489408,11.366335,,,,,,,Mo-Su 07:00-20:00,False,,no_price,2026-06-02T10:13:47Z,cafe,TARGET,False,existing,Caffetteria I Mauri,,osm_overpass,osm,typical_by_type
osm,4623282598,Caffetteria Lilu,,"Via Benedetto XIV 1c, Bologna",Bologna,44.494774,11.349340,,,,,,,Mo-Fr 08:30-17:00; Sa 09:00-16:00,False,,no_price,2026-06-02T10:13:47Z,cafe,TARGET,False,existing,Caffetteria Lilu,,osm_overpass,osm,osm
osm,4289006914,Caffetteria San Luca,,"Via Porrettana 55d, 40135, Bologna",Bologna,44.490447,11.308842,,,,,+39 051 431109,,Mo-Su 07:00-20:00,False,,no_price,2026-06-02T10:13:47Z,cafe,TARGET,False,existing,Caffetteria San Luca,,osm_overpass,osm,typical_by_type
osm,12542044947,Caffetteria Senza Filtro,,"Via Donato Creti 75a, 40128, Bologna",Bologna,44.509693,11.355490,,,,,,,Mo-Sa 06:00-20:30; Su 06:00-17:00,False,,no_price,2026-06-02T10:13:47Z,cafe,TARGET,False,existing,Caffetteria Senza Filtro,,osm_overpass,osm,osm
osm,3982222404,Caffè & Cigarettes,,Bologna,Bologna,44.497749,11.350291,,,,,,,Mo-Su 07:00-20:00,False,,no_price,2026-06-02T10:13:47Z,cafe,TARGET,False,existing,Caffè & Cigarettes,,osm_overpass,osm,typical_by_type
osm,4688764689,Caffè & Tortellini,,"Via Giovanni Amendola, Bologna",Bologna,44.505225,11.341520,,,,,,,Mo-Sa 07:00-22:00; Su 08:30-22:00,False,,no_price,2026-06-02T10:13:47Z,cafe,TARGET,False,existing,Caffè & Tortellini,,osm_overpass,osm,osm
osm,7590508889,Caffè 14 luglio,,"Via Arno 22, 40139, Bologna",Bologna,44.474775,11.388879,,,,,+39 051 6270498,,Mo-Su 07:00-20:00,False,,no_price,2026-06-02T10:13:47Z,cafe,TARGET,False,existing,Caffè 14 luglio,,osm_overpass,osm,typical_by_type
osm,13315144887,Caffè Almetti,,Bologna,Bologna,44.487887,11.370436,,,,,,,Mo-Su 07:00-20:00,False,,no_price,2026-06-02T10:13:47Z,cafe,TARGET,False,existing,Caffè Almetti,,osm_overpass,osm,typical_by_type
osm,3538173468,Caffè Attibassi,,Bologna,Bologna,44.503957,11.349088,,,,,,,Mo-Su 07:00-20:00,False,,no_price,2026-06-02T10:13:47Z,cafe,TARGET,False,existing,Caffè Attibassi,,osm_overpass,osm,typical_by_type
osm,4180800958,Caffè Centrale,,"Via Guglielmo Marconi, Bologna",Bologna,44.475916,11.276677,,,,,,,Mo-Su 07:00-20:00,False,,no_price,2026-06-02T10:13:47Z,cafe,TARGET,False,existing,Caffè Centrale,,osm_overpass,osm,typical_by_type
osm,4119096195,Caffè degli Artisti,,"Via Castiglione 47/2, Bologna",Bologna,44.488203,11.347720,,,,,,,Mo-Th 07:00-21:00; Fr 07:00-03:00; Sa 07:00-01:00; Su 10:00-20:00,False,,no_price,2026-06-02T10:13:47Z,cafe,TARGET,False,existing,Caffè degli Artisti,,osm_overpass,osm,osm
osm,3099728513,Caffè degli Orefici,,"Via degli Orefici 6f, 40124, Bologna",Bologna,44.493997,11.345042,,,,,,,Mo-Su 07:00-20:00,False,,no_price,2026-06-02T10:13:47Z,cafe,TARGET,False,existing,Caffè degli Orefici,,osm_overpass,osm,typical_by_type
osm,4319222543,Caffè dei Portici,,Bologna,Bologna,44.487207,11.353206,,,,,,,Mo-Su 07:00-20:00,False,,no_price,2026-06-02T10:13:47Z,cafe,TARGET,False,existing,Caffè dei Portici,,osm_overpass,osm,typical_by_type
osm,5493297268,Caffè dei Servi,,"Strada Maggiore 62a, 40125, Bologna",Bologna,44.491440,11.353780,,,,,,,Mo-Su 07:00-20:00,False,,no_price,2026-06-02T10:13:47Z,cafe,TARGET,False,existing,Caffè dei Servi,,osm_overpass,osm,typical_by_type
osm,4319231405,Caffè del Baraccano,,Bologna,Bologna,44.485586,11.355040,,,,,,,Mo-Su 07:00-20:00,False,,no_price,2026-06-02T10:13:47Z,cafe,TARGET,False,existing,Caffè del Baraccano,,osm_overpass,osm,typical_by_type
osm,3645888442,Caffè del Mercato,,Bologna,Bologna,44.493729,11.344090,,,,,,,Mo-Su 07:00-20:00,False,,no_price,2026-06-02T10:13:47Z,cafe,TARGET,False,existing,Caffè del Mercato,,osm_overpass,osm,typical_by_type
osm,4800866223,Caffè del Tribunale,,Bologna,Bologna,44.487918,11.342441,,,,,,,Mo-Su 07:00-20:00,False,,no_price,2026-06-02T10:13:47Z,cafe,TARGET,False,existing,Caffè del Tribunale,,osm_overpass,osm,typical_by_type
osm,3878480284,Caffè del Velodromo,,Bologna,Bologna,44.500934,11.313481,,,,,,,Mo-Su 07:00-20:00,False,,no_price,2026-06-02T10:13:47Z,cafe,TARGET,False,existing,Caffè del Velodromo,,osm_overpass,osm,typical_by_type
osm,4118513989,Caffè dell'Accademia,,"Via Guerrazzi 14, Bologna",Bologna,44.491302,11.351399,,,,,,,Mo-Sa 06:00-19:00,False,,no_price,2026-06-02T10:13:47Z,cafe,TARGET,False,existing,Caffè dell'Accademia,,osm_overpass,osm,osm
osm,3645643529,Caffè della Piazza,,"Piazza San Francesco 4, 40122, Bologna",Bologna,44.495034,11.334474,,,,,,,Mo-Su 07:00-20:00,False,,no_price,2026-06-02T10:13:47Z,cafe,TARGET,False,existing,Caffè della Piazza,,osm_overpass,osm,typical_by_type
osm,4053203979,Caffè Galliera,,Bologna,Bologna,44.501551,11.343442,,,,,,,Mo-Su 07:00-20:00,False,,no_price,2026-06-02T10:13:47Z,cafe,TARGET,False,existing,Caffè Galliera,,osm_overpass,osm,typical_by_type
osm,13315135312,Caffè Grand'Italia,,Bologna,Bologna,44.473568,11.388063,,,,,,,Mo-Su 07:00-20:00,False,,no_price,2026-06-02T10:13:47Z,cafe,TARGET,False,existing,Caffè Grand'Italia,,osm_overpass,osm,typical_by_type
osm,4792155935,Caffè Incontro,,"Via Lombardia 21/2c, Bologna",Bologna,44.476852,11.383192,,,,,,,"Mo-Fr 07:00-20:00; Sa 07:00-12:00,15:00-20:00",False,,no_price,2026-06-02T10:13:47Z,cafe,TARGET,False,existing,Caffè Incontro,,osm_overpass,osm,osm
osm,3184723327,Caffè La Giunchiglia,,"Via San Donato 30a, 40127, Bologna",Bologna,44.499270,11.358180,,,,,,,Mo-Su 07:00-20:00,False,,no_price,2026-06-02T10:13:47Z,cafe,TARGET,False,existing,Caffè La Giunchiglia,,osm_overpass,osm,typical_by_type
osm,11258034032,Caffè La Punta,,Bologna,Bologna,44.486826,11.365505,,,,,,,Mo-Su 07:00-20:00,False,,no_price,2026-06-02T10:13:47Z,cafe,TARGET,False,existing,Caffè La Punta,,osm_overpass,osm,typical_by_type
osm,6316076604,Caffè le fate,,Bologna,Bologna,44.521091,11.272308,,,,,,,Mo-Su 07:00-20:00,False,,no_price,2026-06-02T10:13:47Z,cafe,TARGET,False,existing,Caffè le fate,,osm_overpass,osm,typical_by_type
osm,3646417559,Caffè Masini,,"Via Caprarie 5, 40124, Bologna",Bologna,44.493684,11.345931,,,,,,,Mo-Su 07:00-20:00,False,,no_price,2026-06-02T10:13:47Z,cafe,TARGET,False,existing,Caffè Masini,,osm_overpass,osm,typical_by_type
osm,2923423012,Caffè Mauro,,"Via Libia 20, 40138, Bologna",Bologna,44.494640,11.365613,,,,,+39051 588 0567,,Mo-Fr 07:00-20:00; Sa 07:00-14:00,False,,no_price,2026-06-02T10:13:47Z,cafe,TARGET,False,existing,Caffè Mauro,,osm_overpass,osm,osm
osm,3247425710,Caffè Nettuno,,"Via Francesco Rizzoli 1, 40124, Bologna",Bologna,44.494576,11.343125,,,,,,,Mo-Su 07:00-20:00,False,,no_price,2026-06-02T10:13:47Z,cafe,TARGET,False,existing,Caffè Nettuno,,osm_overpass,osm,typical_by_type
osm,12357619314,Caffè Pathé,,"Piazza Re Enzo 1, 40125, Bologna",Bologna,44.494473,11.343974,,,,,+39 051 0069296,https://www.goodvibes.cloud/caff%C3%A8path%C3%A9,Mo-Fr 15:00-23:00; Sa-Su 09:30-23:00,False,,no_price,2026-06-02T10:13:47Z,cafe,TARGET,False,existing,Caffè Pathé,,osm_overpass,osm,osm
osm,3099600411,Caffè Petroni,,"Via Giuseppe Petroni 27d, 40126, Bologna",Bologna,44.495680,11.351044,,,,,,,Mo-Su 07:00-20:00,False,,no_price,2026-06-02T10:13:47Z,cafe,TARGET,False,existing,Caffè Petroni,,osm_overpass,osm,typical_by_type
osm,3614829604,Caffè Rinaldi,,"Vicolo Barbazzi 1, 40124, Bologna",Bologna,44.490407,11.343465,,,,,,,Mo-Sa 07:00-18:00,False,,no_price,2026-06-02T10:13:47Z,cafe,TARGET,False,existing,Caffè Rinaldi,,osm_overpass,osm,osm
osm,4275204551,Caffè Rosetta,,Bologna,Bologna,44.493400,11.355597,,,,,,,Mo-Su 07:00-20:00,False,,no_price,2026-06-02T10:13:47Z,cafe,TARGET,False,existing,Caffè Rosetta,,osm_overpass,osm,typical_by_type
osm,5628796158,Caffè Tabacchi La Chicchera,,"Via Toscana 41, 40141, Bologna",Bologna,44.467152,11.370560,,,,,,,Mo-Su 07:00-20:00,False,,no_price,2026-06-02T10:13:47Z,cafe,TARGET,False,existing,Caffè Tabacchi La Chicchera,,osm_overpass,osm,typical_by_type
osm,1704240470,Caffè Terzi,,"Via Guglielmo Oberdan 10d, 40126, Bologna",Bologna,44.495312,11.345590,,,,,+39 051 0344819,http://www.caffeterzibologna.com,Mo-Su 07:00-20:00,False,,no_price,2026-06-02T10:13:47Z,cafe,TARGET,False,existing,Caffè Terzi,,osm_overpass,osm,typical_by_type
osm,5226760645,Caffè Terzi,,Bologna,Bologna,44.490836,11.354989,,,,,,,Mo-Su 07:30-18:00,False,,no_price,2026-06-02T10:13:47Z,cafe,TARGET,False,existing,Caffè Terzi,,osm_overpass,osm,osm
osm,13315052044,Caffè Terzi Farini,,Bologna,Bologna,44.491342,11.347254,,,,,,,Mo-Su 07:30-18:00,False,,no_price,2026-06-02T10:13:47Z,cafe,TARGET,False,existing,Caffè Terzi Farini,,osm_overpass,osm,osm
osm,1704290920,Caffè Zamboni,,"Via dei Giudei 6c, 40126, Bologna",Bologna,44.494886,11.347079,,,,,,,Mo-Su 07:00-20:00,False,,no_price,2026-06-02T10:13:47Z,cafe,TARGET,False,existing,Caffè Zamboni,,osm_overpass,osm,typical_by_type
osm,4852115416,Caffé,,Bologna,Bologna,44.468973,11.406636,,,,,,,Mo-Su 07:00-20:00,False,,no_price,2026-06-02T10:13:47Z,cafe,TARGET,False,existing,Caffé,,osm_overpass,osm,typical_by_type
osm,3586451113,Cafè,,"Viale della Repubblica 21b, 40127, Bologna",Bologna,44.505539,11.362340,,,,,+39 051 501771,,Mo-Su 07:00-20:00,False,,no_price,2026-06-02T10:13:47Z,cafe,TARGET,False,existing,Cafè,,osm_overpass,osm,typical_by_type
osm,882558092,Cafè Belmeloro,,"Via Belmeloro 1c, 40126, Bologna",Bologna,44.495621,11.353224,,,,,+39 051 6951473,,Mo-Su 07:00-20:00,False,,no_price,2026-06-02T10:13:47Z,cafe,TARGET,False,existing,Cafè Belmeloro,,osm_overpass,osm,typical_by_type
osm,13304784027,Cafè dei musici,,Bologna,Bologna,44.490596,11.356075,,,,,,,Mo-Su 07:00-20:00,False,,no_price,2026-06-02T10:13:47Z,cafe,TARGET,False,existing,Cafè dei musici,,osm_overpass,osm,typical_by_type
osm,1934138844,Cafè Floriano,,"Via Zamboni 70, 40126, Bologna",Bologna,44.497633,11.353805,,,,,,,Mo-Fr 07:00-19:00; Sa 07:00-12:00,False,,no_price,2026-06-02T10:13:47Z,cafe,TARGET,False,existing,Cafè Floriano,,osm_overpass,osm,osm
osm,10855907774,Cafè Krifi,,Bologna,Bologna,44.511622,11.343369,,,,,,,Mo-Su 07:00-20:00,False,,no_price,2026-06-02T10:13:47Z,cafe,TARGET,False,existing,Cafè Krifi,,osm_overpass,osm,typical_by_type
osm,3099600410,Cafè Paris,,"Via Giuseppe Petroni 23c, 40126, Bologna",Bologna,44.495551,11.351175,,,,,,,Mo-Su 07:00-20:00,False,,no_price,2026-06-02T10:13:47Z,cafe,TARGET,False,existing,Cafè Paris,,osm_overpass,osm,typical_by_type
osm,4280334092,Café Amazonia,,"Via Giuseppe Mazzini 11, 40137, Bologna",Bologna,44.489282,11.359001,,,,,,,Mo-Su 07:00-20:00,False,,no_price,2026-06-02T10:13:47Z,cafe,TARGET,False,existing,Café Amazonia,,osm_overpass,osm,typical_by_type
osm,5525081167,Café de Paris,,Bologna,Bologna,44.492205,11.345934,,,,,,,Mo-Su 07:00-20:00,False,,no_price,2026-06-02T10:13:47Z,cafe,TARGET,False,existing,Café de Paris,,osm_overpass,osm,typical_by_type
osm,3615364699,Café Goldy's,,"Via Giuseppe Bentivogli 5b, 40138, Bologna",Bologna,44.492661,11.364963,,,,,,,Mo-Su 07:00-20:00,False,,no_price,2026-06-02T10:13:47Z,cafe,TARGET,False,existing,Café Goldy's,,osm_overpass,osm,typical_by_type
osm,6288771784,Café Kalè,,"Via Carlo Sigonio 10c, 40137, Bologna",Bologna,44.483194,11.372109,,,,,,,Mo-Su 07:00-20:00,False,,no_price,2026-06-02T10:13:47Z,cafe,TARGET,False,existing,Café Kalè,,osm_overpass,osm,typical_by_type
osm,11259311591,Café la Piazzetta,,Bologna,Bologna,44.494892,11.352271,,,,,,,Mo-Su 07:00-20:00,False,,no_price,2026-06-02T10:13:47Z,cafe,TARGET,False,existing,Café la Piazzetta,,osm_overpass,osm,typical_by_type
osm,2941104705,Café Maxim,,"Piazza della Mercanzia 6, 40125, Bologna",Bologna,44.493820,11.346367,,,,,,,Mo-Su 07:00-20:00,False,,no_price,2026-06-02T10:13:47Z,cafe,TARGET,False,existing,Café Maxim,,osm_overpass,osm,typical_by_type
osm,3182766152,Café Università,,"Via Zamboni 92, 40126, Bologna",Bologna,44.497859,11.354817,,,,,,,Mo-Su 07:00-20:00,False,,no_price,2026-06-02T10:13:47Z,cafe,TARGET,False,existing,Café Università,,osm_overpass,osm,typical_by_type
osm,5109392724,Camelia,,Bologna,Bologna,44.473156,11.277619,,,,,,,Mo-Su 07:00-20:00,False,,no_price,2026-06-02T10:13:47Z,cafe,TARGET,False,existing,Camelia,,osm_overpass,osm,typical_by_type
osm,4394858390,Camera a Sud,,"Vicolo Luretta 1a, Bologna",Bologna,44.496338,11.347178,,,,,+39 051 26742,https://www.cameraasud.net/,Tu-Sa 12:00-01:00; Mo 12:00-00:00,False,,no_price,2026-06-02T10:13:47Z,cafe,TARGET,False,existing,Camera a Sud,,osm_overpass,osm,osm
osm,4810013827,Camst Cafe',,Bologna,Bologna,44.513921,11.329031,,,,,,,Mo-Su 07:00-20:00,False,,no_price,2026-06-02T10:13:47Z,cafe,TARGET,False,existing,Camst Cafe',,osm_overpass,osm,typical_by_type
osm,2923458014,Canasta,,"Via Francesco Zanardi 21, 40131, Bologna",Bologna,44.504613,11.332121,,,,,,,Mo-Su 07:00-20:00,False,,no_price,2026-06-02T10:13:47Z,cafe,TARGET,False,existing,Canasta,,osm_overpass,osm,typical_by_type
osm,4280425369,Canasta,,Bologna,Bologna,44.485763,11.359376,,,,,,,"Tu-Sa 12:00-15:00,18:00-23:00",False,,no_price,2026-06-02T10:13:47Z,cafe,TARGET,False,existing,Canasta,,osm_overpass,osm,osm
osm,4777113563,Canoa,,"Via Emilia Ponente 18b, Bologna",Bologna,44.503835,11.313850,,,,,,,Mo-Su 07:00-20:00,False,,no_price,2026-06-02T10:13:47Z,cafe,TARGET,False,existing,Canoa,,osm_overpass,osm,typical_by_type
osm,3645848562,Canton De' Fiori,,"Via dell'Indipendenza 1c, 40121, Bologna",Bologna,44.495032,11.342789,,,,,,,Mo-Su 07:00-20:00,False,,no_price,2026-06-02T10:13:47Z,cafe,TARGET,False,existing,Canton De' Fiori,,osm_overpass,osm,typical_by_type
osm,1259590329,Capo Nord Caffè Ristò,,"Via Augusto Murri 49b, 40137, Bologna",Bologna,44.482009,11.359948,,,,,+39 051 347536,,Mo-Su 07:00-20:00,False,,no_price,2026-06-02T10:13:47Z,cafe,TARGET,False,existing,Capo Nord Caffè Ristò,,osm_overpass,osm,typical_by_type
osm,7484364208,Cardo,,"Via Santo Stefano 70b, Bologna",Bologna,44.488166,11.352220,,,,,+39 051 227045,,Mo-Su 07:00-20:00,False,,no_price,2026-06-02T10:13:47Z,cafe,TARGET,False,existing,Cardo,,osm_overpass,osm,typical_by_type
osm,5915642903,Casa di Quartiere San Rafel,,"Via Amilcare Ponchielli 21, 40141, Bologna",Bologna,44.463577,11.375158,,,,,+39 331 461 4204,https://www.senzailbanco.it/case-di-quartiere/casa-di-quartiere-sanrafel.html,Tu-Sa 15:00-20:00; Su 15:00-23:00,False,,no_price,2026-06-02T10:13:47Z,cafe,TARGET,False,existing,Casa di Quartiere San Rafel,,osm_overpass,osm,osm
osm,629734333,Casa Gialla,,Bologna,Bologna,44.520688,11.327042,,,,,,,Mo-Su 07:00-20:00,False,,no_price,2026-06-02T10:13:47Z,cafe,TARGET,False,existing,Casa Gialla,,osm_overpass,osm,typical_by_type
osm,4872225722,Centro Natura,,"Via degli Albari 4/a, 40126, Bologna",Bologna,44.495632,11.345033,,,,,,,Mo-Su 07:00-20:00,False,,no_price,2026-06-02T10:13:47Z,cafe,TARGET,False,existing,Centro Natura,,osm_overpass,osm,typical_by_type
osm,4415648772,Centro Sportivo Pontelungo,,"Via Agucchi, 40133, Bologna",Bologna,44.512278,11.300474,,,,,,,Mo-Su 07:00-20:00,False,,no_price,2026-06-02T10:13:47Z,cafe,TARGET,False,existing,Centro Sportivo Pontelungo,,osm_overpass,osm,typical_by_type
osm,9910666147,Ceylon Tea,,Bologna,Bologna,44.506135,11.373400,,,,,,,Mo-Su 07:00-20:00,False,,no_price,2026-06-02T10:13:47Z,cafe,TARGET,False,existing,Ceylon Tea,,osm_overpass,osm,typical_by_type
osm,687861253,Chalet dei Giardini Margherita,,"Viale Massimo Meliconi 1, Bologna",Bologna,44.483485,11.353832,,,,,+39 051 9913789,http://www.chaletdeigardinimargherita.it,Mo-Su 08:00-20:00,False,,no_price,2026-06-02T10:13:47Z,cafe,TARGET,False,existing,Chalet dei Giardini Margherita,,osm_overpass,osm,osm
osm,11726698814,Chef Express,,Bologna,Bologna,44.506833,11.344591,,,,,,,Mo-Su 07:00-20:00,False,,no_price,2026-06-02T10:13:47Z,cafe,TARGET,False,existing,Chef Express,,osm_overpass,osm,typical_by_type
osm,13304756543,Cherry Bar,,Bologna,Bologna,44.486164,11.367950,,,,,,,Mo-Su 07:00-20:00,False,,no_price,2026-06-02T10:13:47Z,cafe,TARGET,False,existing,Cherry Bar,,osm_overpass,osm,typical_by_type
osm,3615364701,Chicco di Caffe,,"Via Giuseppe Massarenti 108, 40138, Bologna",Bologna,44.492413,11.365178,,,,,,,Mo-Su 06:00-19:00,False,,no_price,2026-06-02T10:13:47Z,cafe,TARGET,False,existing,Chicco di Caffe,,osm_overpass,osm,osm
osm,10773721504,Chupa Chupa Bar,,"Via Ferrarese, Bologna",Bologna,44.518706,11.356707,,,,,,,Mo-Su 07:00-20:00,False,,no_price,2026-06-02T10:13:47Z,cafe,TARGET,False,existing,Chupa Chupa Bar,,osm_overpass,osm,typical_by_type
osm,4268817390,Ci-Va,,Bologna,Bologna,44.498849,11.348112,,,,,,,Mo-Sa 07:00-01:00,False,,no_price,2026-06-02T10:13:47Z,cafe,TARGET,False,existing,Ci-Va,,osm_overpass,osm,osm
osm,5629477608,Ciao Bar,,"Via Ferrarese 55c, Bologna",Bologna,44.510400,11.347938,,,,,,,Mo-Su 07:00-20:00,False,,no_price,2026-06-02T10:13:47Z,cafe,TARGET,False,existing,Ciao Bar,,osm_overpass,osm,typical_by_type
osm,1812414178,Cibò,,"Via Porrettana 275, 40011, Casalecchio di Reno",Bologna,44.478889,11.271479,,,,,+39 051 6130200,,Mo-Su 07:00-20:00,False,,no_price,2026-06-02T10:13:47Z,cafe,TARGET,False,existing,Cibò,,osm_overpass,osm,typical_by_type
osm,3730790095,Cicileo,,"Via Parigi 11c, 40121, Bologna",Bologna,44.496815,11.340151,,,,,,,Mo-Su 07:00-20:00,False,,no_price,2026-06-02T10:13:47Z,cafe,TARGET,False,existing,Cicileo,,osm_overpass,osm,typical_by_type
osm,3614811902,Cin Cin,,"Via Romolo Amaseo 1, 40127, Bologna",Bologna,44.502146,11.362706,,,,,,,Mo-Su 07:00-20:00,False,,no_price,2026-06-02T10:13:47Z,cafe,TARGET,False,existing,Cin Cin,,osm_overpass,osm,typical_by_type
osm,8417657116,Circolo Arci,,Bologna,Bologna,44.464997,11.401035,,,,,+39051451200,https://www.arcisanlazzaro.it/,Mo-Su 07:00-00:15,False,,no_price,2026-06-02T10:13:47Z,cafe,TARGET,False,existing,Circolo Arci,,osm_overpass,osm,osm
osm,8074026584,Ciuffo,,Bologna,Bologna,44.486164,11.346217,,,,,,,Mo-Su 07:00-20:00,False,,no_price,2026-06-02T10:13:47Z,cafe,TARGET,False,existing,Ciuffo,,osm_overpass,osm,typical_by_type
osm,10048676175,Civico 22 Caffè,,Bologna,Bologna,44.490939,11.365886,,,,,,,Mo-Su 05:30-22:00,False,,no_price,2026-06-02T10:13:47Z,cafe,TARGET,False,existing,Civico 22 Caffè,,osm_overpass,osm,osm
osm,11987874062,Cocco Caffè,,Bologna,Bologna,44.479582,11.364033,,,,,,,Mo-Su 07:00-20:00,False,,no_price,2026-06-02T10:13:47Z,cafe,TARGET,False,existing,Cocco Caffè,,osm_overpass,osm,typical_by_type
osm,3982222406,CoCo Fresh Tea & Juice,,"Via delle Belle Arti 14b, 40126, Bologna",Bologna,44.497726,11.349874,,,,,,,Mo-Su 07:00-20:00,False,,no_price,2026-06-02T10:13:47Z,cafe,TARGET,False,existing,CoCo Fresh Tea & Juice,,osm_overpass,osm,typical_by_type
osm,4933663721,CoCo Fresh Tea & Juice,,Bologna,Bologna,44.490335,11.350848,,,,,,,Mo-Su 07:00-20:00,False,,no_price,2026-06-02T10:13:47Z,cafe,TARGET,False,existing,CoCo Fresh Tea & Juice,,osm_overpass,osm,typical_by_type
osm,880719056,Coffee Break,,"Via Pietro Micca 32, Casalecchio di Reno",Bologna,44.455104,11.279976,,,,,+39 051 573223,,Mo-Su 07:00-20:00,False,,no_price,2026-06-02T10:13:47Z,cafe,TARGET,False,existing,Coffee Break,,osm_overpass,osm,typical_by_type
osm,4050479851,Coffee2Glo,,"Via Riva di Reno 118, 40121, Bologna",Bologna,44.498832,11.341226,,,,,,,Mo-Su 07:00-20:00,False,,no_price,2026-06-02T10:13:47Z,cafe,TARGET,False,existing,Coffee2Glo,,osm_overpass,osm,typical_by_type
osm,3982222409,Comix Café,,"Via delle Belle Arti 12a, 40126, Bologna",Bologna,44.497743,11.349450,,,,,,,Mo-Su 07:00-20:00,False,,no_price,2026-06-02T10:13:47Z,cafe,TARGET,False,existing,Comix Café,,osm_overpass,osm,typical_by_type
osm,11238756160,Corner Bar,,"Via Saragozza 37a, Bologna",Bologna,44.490096,11.334351,,,,,+393888186606,https://cornerbarbologna.it/,"Mo-Th, Su 07:30-00:00; Fr, Sa 07:30-01:00",False,,no_price,2026-06-02T10:13:47Z,cafe,TARGET,False,existing,Corner Bar,,osm_overpass,osm,osm
osm,1166235653,Corso,,Bologna,Bologna,44.504311,11.372781,,,,,,,Mo-Su 07:00-20:00,False,,no_price,2026-06-02T10:13:47Z,cafe,TARGET,False,existing,Corso,,osm_overpass,osm,typical_by_type
osm,12843090672,CostArena,,"Via Azzo Gardino 48, 40122, Bologna",Bologna,44.501663,11.335296,,,,,,,Mo-Su 07:00-20:00,False,,no_price,2026-06-02T10:13:47Z,cafe,TARGET,False,existing,CostArena,,osm_overpass,osm,typical_by_type
osm,6611434486,Crema di Caffè,,"Via Giuseppe Dagnini 30/g, 40137, Bologna",Bologna,44.480219,11.369914,,,,,,,"Mo-Sa 06:00-20:00, Su 07:00-01:00",False,,no_price,2026-06-02T10:13:47Z,cafe,TARGET,False,existing,Crema di Caffè,,osm_overpass,osm,osm
osm,5849859238,Crema e Gusto,,Bologna,Bologna,44.533796,11.347481,,,,,,,Mo-Su 07:00-20:00,False,,no_price,2026-06-02T10:13:47Z,cafe,TARGET,False,existing,Crema e Gusto,,osm_overpass,osm,typical_by_type
osm,6836371686,Cris,,Bologna,Bologna,44.506033,11.358984,,,,,,,Mo-Su 07:00-20:00,False,,no_price,2026-06-02T10:13:47Z,cafe,TARGET,False,existing,Cris,,osm_overpass,osm,typical_by_type
osm,12536074016,Crunchy,,Bologna,Bologna,44.489035,11.354767,,,,,,,Mo-Su 07:00-20:00,False,,no_price,2026-06-02T10:13:47Z,cafe,TARGET,False,existing,Crunchy,,osm_overpass,osm,typical_by_type
osm,3813847709,Cuore,,"Via dell'Indipendenza 21, 40121, Bologna",Bologna,44.497117,11.343358,,,,,,,Mo-Su 07:00-20:00,False,,no_price,2026-06-02T10:13:47Z,cafe,TARGET,False,existing,Cuore,,osm_overpass,osm,typical_by_type
osm,150411493,Cà Rossa,,Bologna,Bologna,44.489590,11.388028,,,,,,,"Tu-Th 08:00-24:00, Fr 08:00-01:00, Sa 09:00-01:00, Su 09:00-24:00, Mo 16:00-24:00",False,,no_price,2026-06-02T10:13:47Z,cafe,TARGET,False,existing,Cà Rossa,,osm_overpass,osm,osm
osm,9681217417,Cà Shin,,Bologna,Bologna,44.444023,11.303207,,,,,,,Mo-Su 07:00-20:00,False,,no_price,2026-06-02T10:13:47Z,cafe,TARGET,False,existing,Cà Shin,,osm_overpass,osm,typical_by_type
osm,12804767401,da Giù - coffee and bakery,,Bologna,Bologna,44.508476,11.340590,,,,,,,Mo-Su 07:00-20:00,False,,no_price,2026-06-02T10:13:47Z,cafe,AMBIGUOUS_TO_REVIEW,False,existing,da Giù - coffee and bakery,,osm_overpass,osm,typical_by_type
osm,6405123300,da un altra' parte Latteria,,"Via Laura Bassi Veratti 28, Bologna",Bologna,44.481660,11.366727,,,,,,,Mo-Su 07:00-20:00,False,,no_price,2026-06-02T10:13:47Z,cafe,TARGET,False,existing,da un altra' parte Latteria,,osm_overpass,osm,typical_by_type
osm,564719145,Dagnini,,Bologna,Bologna,44.480027,11.369767,,,,,,,Mo-Su 07:00-20:00,False,,no_price,2026-06-02T10:13:47Z,cafe,TARGET,False,existing,Dagnini,,osm_overpass,osm,typical_by_type
osm,4708340989,Dal Sarto,,Bologna,Bologna,44.499106,11.344977,,,,,,,Mo-Su 07:00-20:00,False,,no_price,2026-06-02T10:13:47Z,cafe,TARGET,False,existing,Dal Sarto,,osm_overpass,osm,typical_by_type
osm,12639118697,Dandy caffè letterario,,"Via della Grada 4e, 40122, Bologna",Bologna,44.497411,11.330106,,,,,+39 349 350 0495,,Mo-Su 07:00-20:00,False,,no_price,2026-06-02T10:13:47Z,cafe,TARGET,False,existing,Dandy caffè letterario,,osm_overpass,osm,typical_by_type
osm,4319224113,Dante,,Bologna,Bologna,44.486831,11.353856,,,,,,,Mo-Su 07:00-20:00,False,,no_price,2026-06-02T10:13:47Z,cafe,TARGET,False,existing,Dante,,osm_overpass,osm,typical_by_type
osm,5569024809,Dark Diamond Cafè,,"Via Toscana, 40141, Bologna",Bologna,44.471231,11.370385,,,,,,,Mo-Su 07:00-20:00,False,,no_price,2026-06-02T10:13:47Z,cafe,TARGET,False,existing,Dark Diamond Cafè,,osm_overpass,osm,typical_by_type
osm,4319442174,David,,Bologna,Bologna,44.483944,11.357522,,,,,,,Mo-Fr 07:00-18:00; Sa 07:00-14:00; Su 08:00-13:00,False,,no_price,2026-06-02T10:13:47Z,cafe,TARGET,False,existing,David,,osm_overpass,osm,osm
osm,3645643528,De Marchi,,"Piazza San Francesco 4, 40122, Bologna",Bologna,44.494850,11.334444,,,,,,,Mo-Su 07:00-20:00,False,,no_price,2026-06-02T10:13:47Z,cafe,TARGET,False,existing,De Marchi,,osm_overpass,osm,typical_by_type
osm,13297038351,Dinto's Bar,,Bologna,Bologna,44.491405,11.319599,,,,,,,Mo-Su 07:00-20:00,False,,no_price,2026-06-02T10:13:47Z,cafe,TARGET,False,existing,Dinto's Bar,,osm_overpass,osm,typical_by_type
osm,11795731569,Dodici B Cafe,,Bologna,Bologna,44.494242,11.337320,,,,,,,Mo-Su 07:00-20:00,False,,no_price,2026-06-02T10:13:47Z,cafe,TARGET,False,existing,Dodici B Cafe,,osm_overpass,osm,typical_by_type
osm,4783285122,Dolce Brivido,,Bologna,Bologna,44.499665,11.295919,,,,,,,Mo-Su 07:00-20:00,False,,no_price,2026-06-02T10:13:47Z,cafe,TARGET,False,existing,Dolce Brivido,,osm_overpass,osm,typical_by_type
osm,1704678288,Dolce Gattone,,"Via Francesco Zanardi 23b, 40131, Bologna",Bologna,44.504961,11.331930,,,,,,,Mo-Su 07:00-20:00,False,,no_price,2026-06-02T10:13:47Z,cafe,TARGET,False,existing,Dolce Gattone,,osm_overpass,osm,typical_by_type
osm,3982333859,Don Michele,,"Via Alessandrini 5, 40126, Bologna",Bologna,44.498852,11.346615,,,,,,,Mo-Su 07:00-20:00,False,,no_price,2026-06-02T10:13:47Z,cafe,TARGET,False,existing,Don Michele,,osm_overpass,osm,typical_by_type
osm,4777077296,Doppio Civico - Coffee & Bakery,,"Via Don Luigi Sturzo 30b, 40135, Bologna",Bologna,44.488748,11.298214,,,,,+39 3277922705,https://www.doppiocivico.it,Mo-Su 07:00-20:00,False,,no_price,2026-06-02T10:13:47Z,cafe,AMBIGUOUS_TO_REVIEW,False,existing,Doppio Civico - Coffee & Bakery,,osm_overpass,osm,typical_by_type
osm,10041233967,Dory Bar,,Bologna,Bologna,44.501308,11.320598,,,,,,,Mo-Su 07:00-20:00,False,,no_price,2026-06-02T10:13:47Z,cafe,TARGET,False,existing,Dory Bar,,osm_overpass,osm,typical_by_type
osm,3645888440,Drappeli,,Bologna,Bologna,44.493349,11.345214,,,,,,,Mo-Su 07:00-20:00,False,,no_price,2026-06-02T10:13:47Z,cafe,TARGET,False,existing,Drappeli,,osm_overpass,osm,typical_by_type
osm,10873960305,Drink Now,,"Via del Pratello 19a, Bologna",Bologna,44.495591,11.335039,,,,,,https://www.drinknow.shop/,Mo-Su 07:00-20:00,False,,no_price,2026-06-02T10:13:47Z,cafe,TARGET,False,existing,Drink Now,,osm_overpass,osm,typical_by_type
osm,4409670201,Drogheria,,"Via Augusto Righi 28a, Bologna",Bologna,44.498887,11.345785,,,,,,,Mo-Su 07:00-20:00,False,,no_price,2026-06-02T10:13:47Z,cafe,TARGET,False,existing,Drogheria,,osm_overpass,osm,typical_by_type
osm,6978203985,Drogheria 53,,Bologna,Bologna,44.496416,11.331377,,,,,,,Mo-Su 07:00-20:00,False,,no_price,2026-06-02T10:13:47Z,cafe,TARGET,False,existing,Drogheria 53,,osm_overpass,osm,typical_by_type
osm,11799989869,Drogheria degli Elefanti,,Bologna,Bologna,44.486868,11.349435,,,,,,,Mo-Su 07:00-20:00,False,,no_price,2026-06-02T10:13:47Z,cafe,TARGET,False,existing,Drogheria degli Elefanti,,osm_overpass,osm,typical_by_type
osm,5005059121,DueTerzi,,"Via Porrettana 253, Bologna",Bologna,44.478157,11.277174,,,,,,,Mo-Su 07:00-20:00,False,,no_price,2026-06-02T10:13:47Z,cafe,TARGET,False,existing,DueTerzi,,osm_overpass,osm,typical_by_type
osm,588478635,Dulcis In Fundo,,Bologna,Bologna,44.482116,11.359804,,,,,,,Mo-Su 07:00-20:00,False,,no_price,2026-06-02T10:13:47Z,cafe,TARGET,False,existing,Dulcis In Fundo,,osm_overpass,osm,typical_by_type
osm,13017881266,Dyva,,Bologna,Bologna,44.493063,11.303654,,,,,,,Mo-Su 07:00-20:00,False,,no_price,2026-06-02T10:13:47Z,cafe,TARGET,False,existing,Dyva,,osm_overpass,osm,typical_by_type
osm,3636980666,Ecco,,"Via Irnerio 5a, 40126, Bologna",Bologna,44.500611,11.346257,,,,,,,Mo-Su 07:00-20:00,False,,no_price,2026-06-02T10:13:47Z,cafe,TARGET,False,existing,Ecco,,osm_overpass,osm,typical_by_type
osm,3190973946,Edera,,"Via Massenzio Masìa 14, 40138, Bologna",Bologna,44.497268,11.362765,,,,,+39051391993,,Mo-Su 07:00-20:00,False,,no_price,2026-06-02T10:13:47Z,cafe,TARGET,False,existing,Edera,,osm_overpass,osm,typical_by_type
osm,4776993280,Edera,,Bologna,Bologna,44.522481,11.263756,,,,,,,Mo-Su 07:00-20:00,False,,no_price,2026-06-02T10:13:47Z,cafe,TARGET,False,existing,Edera,,osm_overpass,osm,typical_by_type
osm,4708391496,El Loco,,Bologna,Bologna,44.499317,11.350056,,,,,,,Mo-Su 07:00-20:00,False,,no_price,2026-06-02T10:13:47Z,cafe,TARGET,False,existing,El Loco,,osm_overpass,osm,typical_by_type
osm,3636954962,Elements,,"Via Irnerio 21f, 40126, Bologna",Bologna,44.499952,11.348858,,,,,+39 051 246418,,Th-Tu 06:30-21:30; We 06:30-15:00,False,,no_price,2026-06-02T10:13:47Z,cafe,TARGET,False,existing,Elements,,osm_overpass,osm,osm
osm,6288794385,Eleven Café,,Bologna,Bologna,44.483335,11.374580,,,,,,,Mo-Su 07:00-20:00,False,,no_price,2026-06-02T10:13:47Z,cafe,TARGET,False,existing,Eleven Café,,osm_overpass,osm,typical_by_type
osm,3646448115,Eltsi Natural Bar,,"Strada Maggiore 25, 40125, Bologna",Bologna,44.492764,11.349885,,,,,,,Mo-Su 07:00-20:00,False,,no_price,2026-06-02T10:13:47Z,cafe,TARGET,False,existing,Eltsi Natural Bar,,osm_overpass,osm,typical_by_type
osm,4732179089,Emporio 1920,,"Via de' Castagnoli 2d, 40126, Bologna",Bologna,44.496940,11.349146,,,,,+39 345 957 4806,,Mo-Sa 08:00-02:00,False,,no_price,2026-06-02T10:13:47Z,cafe,TARGET,False,existing,Emporio 1920,,osm_overpass,osm,osm
osm,12739298014,Eni Cafè,,Bologna,Bologna,44.537263,11.369081,,,,,+39 051 326018,,Mo-Su 07:00-20:00,False,,no_price,2026-06-02T10:13:47Z,cafe,TARGET,False,existing,Eni Cafè,,osm_overpass,osm,typical_by_type
osm,4050479848,Essse Caffè Store,,"Via Galliera 18b, 40121, Bologna",Bologna,44.499154,11.342285,,,,,,,Mo-Su 07:00-20:00,False,,no_price,2026-06-02T10:13:47Z,cafe,TARGET,False,existing,Essse Caffè Store,,osm_overpass,osm,typical_by_type
osm,7473744767,Estravagario cucina biologica,,"Via Mascarella 81h, 40126, Bologna",Bologna,44.501490,11.352190,,,,,+39 051 4210582,https://www.estravagario.org/,Mo-Su 07:00-20:00,False,,no_price,2026-06-02T10:13:47Z,cafe,TARGET,False,existing,Estravagario cucina biologica,,osm_overpass,osm,typical_by_type
osm,13627074414,Etna Spritz,,Bologna,Bologna,44.517406,11.410145,,,,,,,Mo-Su 07:00-20:00,False,,no_price,2026-06-02T10:13:47Z,cafe,TARGET,False,existing,Etna Spritz,,osm_overpass,osm,typical_by_type
osm,4708341190,Fabrik in Righi,,"Via Augusto Righi 32e, 40126, Bologna",Bologna,44.498723,11.346272,,,,,+39 051 485 6394,,Mo-Th 10:00-02:00; Fr-Sa 10:00-03:00; Su 10:00-02:00,False,,no_price,2026-06-02T10:13:47Z,cafe,TARGET,False,existing,Fabrik in Righi,,osm_overpass,osm,osm
osm,3296862969,Factory Cafe,,"Via Guglielmo Oberdan 31, 40126, Bologna",Bologna,44.497816,11.346304,,,,,,,Mo-Su 07:00-20:00,False,,no_price,2026-06-02T10:13:47Z,cafe,TARGET,False,existing,Factory Cafe,,osm_overpass,osm,typical_by_type
osm,10844476041,Fai a Modo,,"Via Massimo D'Azeglio 51/c, 40123, Bologna",Bologna,44.488911,11.340213,,,,,,,Mo-Su 07:00-20:00,False,,no_price,2026-06-02T10:13:47Z,cafe,TARGET,False,existing,Fai a Modo,,osm_overpass,osm,typical_by_type
osm,4540596795,Famiglia Chiari,,"Via del Triumvirato 84, 40132, Bologna",Bologna,44.529620,11.292661,,,,,,,Mo-Su 07:00-20:00,False,,no_price,2026-06-02T10:13:47Z,cafe,TARGET,False,existing,Famiglia Chiari,,osm_overpass,osm,typical_by_type
osm,4523262993,Fashion,,"Rotonda Augusto Baroni 13, 40127, Bologna",Bologna,44.514803,11.398566,,,,,,,Mo-Sa 09:00-21:00; Su 10:00-20:00,False,,no_price,2026-06-02T10:13:47Z,cafe,TARGET,False,existing,Fashion,,osm_overpass,osm,osm
osm,11733939269,Fermento,,"Via Luigi Serra 11 c, Bologna",Bologna,44.509727,11.345491,,,,,,,Mo-Su 07:00-20:00,False,,no_price,2026-06-02T10:13:47Z,cafe,TARGET,False,existing,Fermento,,osm_overpass,osm,typical_by_type
osm,4265181384,Ferri,,Bologna,Bologna,44.493615,11.344686,,,,,,,Mo-Su 07:00-20:00,False,,no_price,2026-06-02T10:13:47Z,cafe,TARGET,False,existing,Ferri,,osm_overpass,osm,typical_by_type
osm,13256073194,Fish 'n Roll,,"Via Santa Croce 16, 40126, Bologna",Bologna,44.496875,11.329357,,,,,,,Mo-Su 07:00-20:00,False,,no_price,2026-06-02T10:13:47Z,cafe,TARGET,False,existing,Fish 'n Roll,,osm_overpass,osm,typical_by_type
osm,1704732555,Fiò Cafè,,"Via San Felice 43, 40122, Bologna",Bologna,44.496965,11.334033,,,,,,,Mo-Su 07:00-20:00,False,,no_price,2026-06-02T10:13:47Z,cafe,TARGET,False,existing,Fiò Cafè,,osm_overpass,osm,typical_by_type
osm,3788342026,Fluart,,Bologna,Bologna,44.495729,11.341065,,,,,,,Mo-Su 07:00-20:00,False,,no_price,2026-06-02T10:13:47Z,cafe,TARGET,False,existing,Fluart,,osm_overpass,osm,typical_by_type
osm,4275226905,Flut,,"Via Santo Stefano 46d, Bologna",Bologna,44.489545,11.350881,,,,,+39 340 5963540,,Mo-Su 07:00-20:00,False,,no_price,2026-06-02T10:13:47Z,cafe,TARGET,False,existing,Flut,,osm_overpass,osm,typical_by_type
osm,10086698075,Forno Brisa,,Bologna,Bologna,44.482318,11.366742,,,,,,,Mo-Sa 07:30-21:30; Su 09:00-14:30,False,,no_price,2026-06-02T10:13:47Z,cafe,AMBIGUOUS_TO_REVIEW,False,existing,Forno Brisa,,osm_overpass,osm,osm
osm,10865331805,Forno Brisa,,"Via Nicolò dall'Arca 16, 40129, Bologna",Bologna,44.509273,11.342382,,,,,+39 051 021 7086,https://www.fornobrisa.it,Mo-Th 08:00-19:30; Fr-Sa 08:00-20:30; Su 09:00-14:30,False,,no_price,2026-06-02T10:13:47Z,cafe,AMBIGUOUS_TO_REVIEW,False,existing,Forno Brisa,,osm_overpass,osm,osm
osm,1704575202,Forno Brisa Castiglione,,"Via Castiglione 43, 40124, Bologna",Bologna,44.488623,11.347509,,,,,+39 051 224 621,https://www.fornobrisa.it/,Mo-Su 07:00-20:00,False,,no_price,2026-06-02T10:13:47Z,cafe,AMBIGUOUS_TO_REVIEW,False,existing,Forno Brisa Castiglione,,osm_overpass,osm,typical_by_type
osm,1704556229,Fram Café,,"Via Rialto 22, 40124, Bologna",Bologna,44.488435,11.349250,,,,,+34515877514,,"Mo, Tu, Th 09:00-20:00; We, Fr, Sa 09:00-22:00",False,,no_price,2026-06-02T10:13:47Z,cafe,TARGET,False,existing,Fram Café,,osm_overpass,osm,osm
osm,1704843247,Fratelli Asta,,"Via Battindarno 55, 40133, Bologna",Bologna,44.504776,11.300627,,,,,+39 051 380265,,Mo-Su 07:00-20:00,False,,no_price,2026-06-02T10:13:47Z,cafe,TARGET,False,existing,Fratelli Asta,,osm_overpass,osm,typical_by_type
osm,10723020237,Fratelli La Bufala,,Bologna,Bologna,44.498234,11.332174,,,,,,,Mo-Su 07:00-20:00,False,,no_price,2026-06-02T10:13:47Z,cafe,TARGET,False,existing,Fratelli La Bufala,,osm_overpass,osm,typical_by_type
osm,12985473707,Fresk'o,,Bologna,Bologna,44.470612,11.402354,,,,,,,Mo-Su 07:00-20:00,False,,no_price,2026-06-02T10:13:47Z,cafe,TARGET,False,existing,Fresk'o,,osm_overpass,osm,typical_by_type
osm,3100479743,Freud e Cantoncino,,"Piazza Giuseppe Verdi 4, 40126, Bologna",Bologna,44.495921,11.350447,,,,,,,Mo-Su 07:00-20:00,False,,no_price,2026-06-02T10:13:47Z,cafe,TARGET,False,existing,Freud e Cantoncino,,osm_overpass,osm,typical_by_type
osm,8959873117,Frida nel parco,,Bologna,Bologna,44.502006,11.347492,,,,,+39 051 021 8143,,Mo-Su 08:30-01:00,False,,no_price,2026-06-02T10:13:47Z,cafe,TARGET,False,existing,Frida nel parco,,osm_overpass,osm,osm
osm,11261258862,fun cool Oh!,,Bologna,Bologna,44.496280,11.338933,,,,,,,Mo-Su 07:00-20:00,False,,no_price,2026-06-02T10:13:47Z,cafe,TARGET,False,existing,fun cool Oh!,,osm_overpass,osm,typical_by_type
osm,13516336966,Funtanir,,Bologna,Bologna,44.498548,11.336758,,,,,,,Mo-Su 07:00-20:00,False,,no_price,2026-06-02T10:13:47Z,cafe,TARGET,False,existing,Funtanir,,osm_overpass,osm,typical_by_type
osm,3645707117,Gamberini,,"Via Ugo Bassi 12, 40121, Bologna",Bologna,44.495505,11.337832,,,,,,,Mo-Su 07:00-20:00,False,,no_price,2026-06-02T10:13:47Z,cafe,TARGET,False,existing,Gamberini,,osm_overpass,osm,typical_by_type
osm,4689077491,Gamberini,,Bologna,Bologna,44.506133,11.341938,,,,,,,"Mo-Su,PH 06:00-20:30",False,,no_price,2026-06-02T10:13:47Z,cafe,TARGET,False,existing,Gamberini,,osm_overpass,osm,osm
osm,2942582373,Garden,,"Via Giuseppe Massarenti 48, 40138, Bologna",Bologna,44.493539,11.359469,,,,,,,"Mo-Fr 06:30-20:00; Sa 07:00-20:00; PH,Su off",False,,no_price,2026-06-02T10:13:47Z,cafe,TARGET,False,existing,Garden,,osm_overpass,osm,osm
osm,629734824,Gelateria,,Bologna,Bologna,44.519866,11.330820,,,,,,,Mo-Su 07:00-20:00,False,,no_price,2026-06-02T10:13:47Z,cafe,AMBIGUOUS_TO_REVIEW,False,existing,Gelateria,,osm_overpass,osm,typical_by_type
osm,3473328777,Gelateria Alaska,,Bologna,Bologna,44.479302,11.371956,,,,,,,Mo-Su 07:00-20:00,False,,no_price,2026-06-02T10:13:47Z,cafe,AMBIGUOUS_TO_REVIEW,False,existing,Gelateria Alaska,,osm_overpass,osm,typical_by_type
osm,588478636,Gelateria Capo Nord,,"Via Augusto Murri 39d, 40137, Bologna",Bologna,44.482095,11.359847,,,,,+39 051 18899921,,Mo-Su 07:00-20:00,False,,no_price,2026-06-02T10:13:47Z,cafe,AMBIGUOUS_TO_REVIEW,False,existing,Gelateria Capo Nord,,osm_overpass,osm,typical_by_type
osm,4319441343,Gelateria Santo Stefano,,Bologna,Bologna,44.484965,11.355994,,,,,+39 345 110 4175,,Mo-Su 07:00-20:00,False,,no_price,2026-06-02T10:13:47Z,cafe,AMBIGUOUS_TO_REVIEW,False,existing,Gelateria Santo Stefano,,osm_overpass,osm,typical_by_type
osm,4810043921,Gelatobuono,,Bologna,Bologna,44.514442,11.329202,,,,,,,Mo-Su 07:00-20:00,False,,no_price,2026-06-02T10:13:47Z,cafe,TARGET,False,existing,Gelatobuono,,osm_overpass,osm,typical_by_type
osm,12877234421,Gianni Vini,,Bologna,Bologna,44.489640,11.350772,,,,,,,Mo-Su 07:00-20:00,False,,no_price,2026-06-02T10:13:47Z,cafe,TARGET,False,existing,Gianni Vini,,osm_overpass,osm,typical_by_type
osm,11724909972,Gilbert,,Bologna,Bologna,44.497055,11.346389,,,,,,,Mo-Su 07:00-20:00,False,,no_price,2026-06-02T10:13:47Z,cafe,TARGET,False,existing,Gilbert,,osm_overpass,osm,typical_by_type
osm,11987532874,ginepro,,Bologna,Bologna,44.490100,11.373482,,,,,,,Mo-Su 07:00-20:00,False,,no_price,2026-06-02T10:13:47Z,cafe,TARGET,False,existing,ginepro,,osm_overpass,osm,typical_by_type
osm,564719143,Giovanna,,Bologna,Bologna,44.480143,11.368834,,,,,,,Mo-Su 07:00-20:00,False,,no_price,2026-06-02T10:13:47Z,cafe,TARGET,False,existing,Giovanna,,osm_overpass,osm,typical_by_type
osm,5102541922,Girasole,,Bologna,Bologna,44.507303,11.357113,,,,,,,Mo-Su 07:00-20:00,False,,no_price,2026-06-02T10:13:47Z,cafe,TARGET,False,existing,Girasole,,osm_overpass,osm,typical_by_type
osm,10961373205,Glamour Cafè,,Bologna,Bologna,44.504585,11.339984,,,,,,,Mo-Su 07:00-20:00,False,,no_price,2026-06-02T10:13:47Z,cafe,TARGET,False,existing,Glamour Cafè,,osm_overpass,osm,typical_by_type
osm,2879674029,Golden,,"Via dell'Indipendenza 74, 40121, Bologna",Bologna,44.502916,11.344775,,,,,,,Mo-Su 07:00-20:00,False,,no_price,2026-06-02T10:13:47Z,cafe,TARGET,False,existing,Golden,,osm_overpass,osm,typical_by_type
osm,12530301892,Gommalaccacafé,,Bologna,Bologna,44.501945,11.330545,,,,,,,Mo-Su 07:00-20:00,False,,no_price,2026-06-02T10:13:47Z,cafe,TARGET,False,existing,Gommalaccacafé,,osm_overpass,osm,typical_by_type
osm,4274713975,Gozzadini,,Bologna,Bologna,44.492708,11.362575,,,,,,,Mo-Su 07:00-20:00,False,,no_price,2026-06-02T10:13:47Z,cafe,TARGET,False,existing,Gozzadini,,osm_overpass,osm,typical_by_type
osm,4275242139,Gran Bar,,"Via Massimo D'Azeglio 8a, Bologna",Bologna,44.493094,11.342219,,,,,,,Mo-Su 07:00-20:00,False,,no_price,2026-06-02T10:13:47Z,cafe,TARGET,False,existing,Gran Bar,,osm_overpass,osm,typical_by_type
osm,12589868201,Grigo’s Caffetteria di Ma Liyong,,"Via Ferruccio Garavaglia 2h, 40127, Bologna",Bologna,44.505081,11.366311,,,,,+39 338 657 8602,,Mo-Sa 06:00-20:00; Su 06:00-14:00,False,,no_price,2026-06-02T10:13:47Z,cafe,TARGET,False,existing,Grigo’s Caffetteria di Ma Liyong,,osm_overpass,osm,osm
osm,3637073742,Guapo Cafè,,"Via Irnerio 14b, 40126, Bologna",Bologna,44.500188,11.348984,,,,,+390510218208,https://guapocafe.it,Tu-Su 06:00-21:00,False,,no_price,2026-06-02T10:13:47Z,cafe,TARGET,False,existing,Guapo Cafè,,osm_overpass,osm,osm
osm,3183130849,Habanero,,"Via de' Castagnoli 2b, 40126, Bologna",Bologna,44.496885,11.349233,,,,,,,Mo-Su 07:00-20:00,False,,no_price,2026-06-02T10:13:47Z,cafe,TARGET,False,existing,Habanero,,osm_overpass,osm,typical_by_type
osm,4696999390,Happy,,Bologna,Bologna,44.506896,11.304429,,,,,,,Mo-Su 07:00-20:00,False,,no_price,2026-06-02T10:13:47Z,cafe,TARGET,False,existing,Happy,,osm_overpass,osm,typical_by_type
osm,5952002627,Harris,,Bologna,Bologna,44.494676,11.338701,,,,,,,Mo-Su 07:00-20:00,False,,no_price,2026-06-02T10:13:47Z,cafe,TARGET,False,existing,Harris,,osm_overpass,osm,typical_by_type
osm,12976833124,Hush,,"Via San Rocco 5, Bologna",Bologna,44.496604,11.330204,,,,,+390510330249,,Mo-Su 07:00-20:00,False,,no_price,2026-06-02T10:13:47Z,cafe,TARGET,False,existing,Hush,,osm_overpass,osm,typical_by_type
osm,3645643534,Il Bar Della Trattoria,,"Via del Pratello 3, 40122, Bologna",Bologna,44.495652,11.336296,,,,,,,Mo-Su 07:00-20:00,False,,no_price,2026-06-02T10:13:47Z,cafe,TARGET,False,existing,Il Bar Della Trattoria,,osm_overpass,osm,typical_by_type
osm,4487664806,Il Bettolino della Stazione,,Bologna,Bologna,44.474215,11.276387,,,,,,,Mo-Fr 07:00-23:00; Sa 09:00-23:00,False,,no_price,2026-06-02T10:13:47Z,cafe,TARGET,False,existing,Il Bettolino della Stazione,,osm_overpass,osm,osm
osm,12228091272,Il Caffeone,,"Via Saragozza 101a, Bologna",Bologna,44.490415,11.325973,,,,,,,Mo-Su 07:00-20:00,False,,no_price,2026-06-02T10:13:47Z,cafe,TARGET,False,existing,Il Caffeone,,osm_overpass,osm,typical_by_type
osm,13315060028,Il calice,,Bologna,Bologna,44.493096,11.345178,,,,,,,Mo-Su 07:00-20:00,False,,no_price,2026-06-02T10:13:47Z,cafe,TARGET,False,existing,Il calice,,osm_overpass,osm,typical_by_type
osm,4792156138,Il dolce divino,,"Via Bellaria 1c, Bologna",Bologna,44.479797,11.383442,,,,,,http://www.ildolcedivino.it/,Mo-Su 07:00-20:00,False,,no_price,2026-06-02T10:13:47Z,cafe,TARGET,False,existing,Il dolce divino,,osm_overpass,osm,typical_by_type
osm,13893603454,Il Gatto e la Volpe,,Bologna,Bologna,44.498944,11.340176,,,,,,,Mo-Su 07:00-20:00,False,,no_price,2026-06-02T10:13:47Z,cafe,TARGET,False,existing,Il Gatto e la Volpe,,osm_overpass,osm,typical_by_type
osm,4524778589,Il Gelato,,"Via Arturo Gazzoni 1, Bologna",Bologna,44.497483,11.392366,,,,,+39 051535574,,Mo-Su 07:00-20:00,False,,no_price,2026-06-02T10:13:47Z,cafe,TARGET,False,existing,Il Gelato,,osm_overpass,osm,typical_by_type
osm,9847827052,Il Kroffo,,Bologna,Bologna,44.500503,11.373562,,,,,,,Mo-Su 07:00-20:00,False,,no_price,2026-06-02T10:13:47Z,cafe,TARGET,False,existing,Il Kroffo,,osm_overpass,osm,typical_by_type
osm,10731684731,Il Mistico,,"Via San Giorgio 11e, 40121, Bologna",Bologna,44.497419,11.339562,,,,,+39 3384321422,https://www.ilmistico.it,Mo-Su 07:00-20:00,False,,no_price,2026-06-02T10:13:47Z,cafe,TARGET,False,existing,Il Mistico,,osm_overpass,osm,typical_by_type
osm,5226760640,Il Portico,,Bologna,Bologna,44.490691,11.355368,,,,,,,Mo-Su 07:00-20:00,False,,no_price,2026-06-02T10:13:47Z,cafe,TARGET,False,existing,Il Portico,,osm_overpass,osm,typical_by_type
osm,1704731884,Il Santo Bevitore,,"Via Galliera 42, 40121, Bologna",Bologna,44.500799,11.343131,,,,,,,Mo-Su 07:00-20:00,False,,no_price,2026-06-02T10:13:47Z,cafe,TARGET,False,existing,Il Santo Bevitore,,osm_overpass,osm,typical_by_type
osm,4807081124,Il Valentino,,"Via Quattro Novembre 16d, 40123, Bologna",Bologna,44.493727,11.341153,,,,,+39 0510391553,https://ilvalentino-loungebar-bologna.jimdo.com,Mo-Th 07:00-21:00; Fr 07:00-22:00; Sa 08:00-22:00; Su 08:00-21:00,False,,no_price,2026-06-02T10:13:47Z,cafe,TARGET,False,existing,Il Valentino,,osm_overpass,osm,osm
osm,2977194933,ilham caffè,,Bologna,Bologna,44.499668,11.329111,,,,,,,Mo-Su 07:00-20:00,False,,no_price,2026-06-02T10:13:47Z,cafe,TARGET,False,existing,ilham caffè,,osm_overpass,osm,typical_by_type
osm,4680339718,Illy,,"Via Marco Polo, Bologna",Bologna,44.514825,11.328955,,,,,,,Mo-Su 07:00-20:00,False,,no_price,2026-06-02T10:13:47Z,cafe,TARGET,False,existing,Illy,,osm_overpass,osm,typical_by_type
osm,2879547101,Impero,,"Via dell'Indipendenza 39a, Bologna",Bologna,44.498747,11.343969,,,,,+39 051 232337,,Mo-Su 07:00-20:00,False,,no_price,2026-06-02T10:13:47Z,cafe,TARGET,False,existing,Impero,,osm_overpass,osm,typical_by_type
osm,1583736314,In Bar,,"Via Ercole Nani 2/e, 40132, Bologna",Bologna,44.518011,11.279315,,,,,,,Mo-Th 07:00-20:00; Fr-Sa 07:00-00:00; Su 13:00-20:00,False,,no_price,2026-06-02T10:13:47Z,cafe,TARGET,False,existing,In Bar,,osm_overpass,osm,osm
osm,12441885495,InContri,,Bologna,Bologna,44.495196,11.299994,,,,,,,Mo-Su 07:00-20:00,False,,no_price,2026-06-02T10:13:47Z,cafe,TARGET,False,existing,InContri,,osm_overpass,osm,typical_by_type
osm,9116514600,Infinity Cafè,,Bologna,Bologna,44.477160,11.366611,,,,,+393396887385,https://www.facebook.com/InfinityCafeViaMurri114/,Mo-Su 07:00-20:00,False,,no_price,2026-06-02T10:13:47Z,cafe,TARGET,False,existing,Infinity Cafè,,osm_overpass,osm,typical_by_type
osm,13893606420,Ing,,Bologna,Bologna,44.498006,11.339606,,,,,,,Mo-Su 07:00-20:00,False,,no_price,2026-06-02T10:13:47Z,cafe,TARGET,False,existing,Ing,,osm_overpass,osm,typical_by_type
osm,4696963094,Insomnia,,Bologna,Bologna,44.511649,11.288634,,,,,,,Mo-Su 07:00-20:00,False,,no_price,2026-06-02T10:13:47Z,cafe,TARGET,False,existing,Insomnia,,osm_overpass,osm,typical_by_type
osm,3269219634,Jakarta Coffee Shop,,"Via Eleonora Duse 8/2, 40033, Casalecchio di Reno",Bologna,44.460900,11.271981,,,,,+39 051 593958,,Mo-Su 07:00-20:00,False,,no_price,2026-06-02T10:13:47Z,cafe,TARGET,False,existing,Jakarta Coffee Shop,,osm_overpass,osm,typical_by_type
osm,9968650609,Jiani's,,"Via del Pratello 56a, Bologna",Bologna,44.495439,11.331764,,,,,,,Mo-Su 07:00-20:00,False,,no_price,2026-06-02T10:13:47Z,cafe,TARGET,False,existing,Jiani's,,osm_overpass,osm,typical_by_type
osm,4696804491,Jimmy,,Bologna,Bologna,44.506332,11.307559,,,,,,,Mo-Su 07:00-20:00,False,,no_price,2026-06-02T10:13:47Z,cafe,TARGET,False,existing,Jimmy,,osm_overpass,osm,typical_by_type
osm,3190973939,Jimmy One,,"Via Libia 50/2, 40138, Bologna",Bologna,44.496927,11.365450,,,,,,,Mo-Su 07:00-21:00,False,,no_price,2026-06-02T10:13:47Z,cafe,TARGET,False,existing,Jimmy One,,osm_overpass,osm,osm
osm,2923434559,Jolly,,"Via Giuseppe Bentivogli 32, 40138, Bologna",Bologna,44.495305,11.364183,,,,,,,Mo-Su 07:00-20:00,False,,no_price,2026-06-02T10:13:47Z,cafe,TARGET,False,existing,Jolly,,osm_overpass,osm,typical_by_type
osm,4268817189,Jukebox Cafe,,"Via Mentana 3b, Bologna",Bologna,44.497236,11.347547,,,,,,,Mo-Su 07:00-20:00,False,,no_price,2026-06-02T10:13:47Z,cafe,TARGET,False,existing,Jukebox Cafe,,osm_overpass,osm,typical_by_type
osm,1196822463,Kaffeina,,Bologna,Bologna,44.478679,11.366450,,,,,,,Mo-Su 07:00-20:00,False,,no_price,2026-06-02T10:13:47Z,cafe,TARGET,False,existing,Kaffeina,,osm_overpass,osm,typical_by_type
osm,1704268497,Kaffeina,,"Via dei Bibiena 3, 40126, Bologna",Bologna,44.495872,11.351205,,,,,+39 327 166 3508,,Mo-Su 07:00-20:00,False,,no_price,2026-06-02T10:13:47Z,cafe,TARGET,False,existing,Kaffeina,,osm_overpass,osm,typical_by_type
osm,4510758398,Kennedy,,Bologna,Bologna,44.466620,11.412649,,,,,,,Mo-Su 07:00-20:00,False,,no_price,2026-06-02T10:13:47Z,cafe,TARGET,False,existing,Kennedy,,osm_overpass,osm,typical_by_type
osm,5952315885,Kicco Bar,,"Via Nicolò dall'Arca 3e, Bologna",Bologna,44.508594,11.342522,,,,,+39 051 361884,,Mo-Su 07:00-20:00,False,,no_price,2026-06-02T10:13:47Z,cafe,TARGET,False,existing,Kicco Bar,,osm_overpass,osm,typical_by_type
osm,3614799602,Kik Bar,,"Via San Donato 66/14, 40127, Bologna",Bologna,44.503917,11.364679,,,,,,,Mo-Su 07:00-20:00,False,,no_price,2026-06-02T10:13:47Z,cafe,TARGET,False,existing,Kik Bar,,osm_overpass,osm,typical_by_type
osm,5569180462,Kinotto,,"Via Sebastiano Serlio 25/2, 40128, Bologna",Bologna,44.507374,11.352973,,,,,+39 051 0226000,,Tu-Su 08:30-24:00,False,,no_price,2026-06-02T10:13:47Z,cafe,TARGET,False,existing,Kinotto,,osm_overpass,osm,osm
osm,3809743963,l'altro spazio,,"Via Nazario Sauro 24/f, Bologna",Bologna,44.497730,11.339480,,,,,,https://www.laltrospazio.com/,Mo-Su 07:00-20:00,False,,no_price,2026-06-02T10:13:47Z,cafe,TARGET,False,existing,l'altro spazio,,osm_overpass,osm,typical_by_type
osm,612926926,L'altro spazio,,Bologna,Bologna,44.499801,11.336661,,,,,,https://www.altrospazio.org/,Mo-Su 07:00-20:00,False,,no_price,2026-06-02T10:13:47Z,cafe,TARGET,False,existing,L'altro spazio,,osm_overpass,osm,typical_by_type
osm,4807318521,L'antico salumiere,,"Via Massimo D'Azeglio 22d, Bologna",Bologna,44.492264,11.341972,,,,,,,Mo-Su 07:00-20:00,False,,no_price,2026-06-02T10:13:47Z,cafe,TARGET,False,existing,L'antico salumiere,,osm_overpass,osm,typical_by_type
osm,4680374727,L'arte del Caffe,,Bologna,Bologna,44.514890,11.329442,,,,,,,Mo-Su 07:00-20:00,False,,no_price,2026-06-02T10:13:47Z,cafe,TARGET,False,existing,L'arte del Caffe,,osm_overpass,osm,typical_by_type
osm,1667099845,L'Insolito,,Bologna,Bologna,44.547772,11.356548,,,,,,,Mo-Su 07:00-20:00,False,,no_price,2026-06-02T10:13:47Z,cafe,TARGET,False,existing,L'Insolito,,osm_overpass,osm,typical_by_type
osm,8073967615,L'Élite Café,,Bologna,Bologna,44.489686,11.343227,,,,,,,Mo-Fr 06:00-21:00,False,,no_price,2026-06-02T10:13:47Z,cafe,TARGET,False,existing,L'Élite Café,,osm_overpass,osm,osm
osm,5633611769,La Borbonica,,"Via Riva di Reno 110b, Bologna",Bologna,44.498916,11.340315,,,,,+39 03686121207,,Mo-Su 07:00-20:00,False,,no_price,2026-06-02T10:13:47Z,cafe,TARGET,False,existing,La Borbonica,,osm_overpass,osm,typical_by_type
osm,2942610556,La Bottega,,"Via de' Carracci 15, 40129, Bologna",Bologna,44.507274,11.344184,,,,,,,Mo-Su 07:00-20:00,False,,no_price,2026-06-02T10:13:47Z,cafe,TARGET,False,existing,La Bottega,,osm_overpass,osm,typical_by_type
osm,4786546422,La Bottega,,"Via de' Carracci 33c, Bologna",Bologna,44.507521,11.342260,,,,,+39 051 18898961,,Mo-Su 07:00-20:00,False,,no_price,2026-06-02T10:13:47Z,cafe,TARGET,False,existing,La Bottega,,osm_overpass,osm,osm
osm,13537360763,La caffetteria,,Bologna,Bologna,44.490386,11.372558,,,,,,,Mo-Su 07:00-20:00,False,,no_price,2026-06-02T10:13:47Z,cafe,TARGET,False,existing,La caffetteria,,osm_overpass,osm,typical_by_type
osm,1576756711,La Caffetteria del Parco,,Bologna,Bologna,44.519714,11.274299,,,,,,,Mo-Su 07:00-20:00,False,,no_price,2026-06-02T10:13:47Z,cafe,TARGET,False,existing,La Caffetteria del Parco,,osm_overpass,osm,typical_by_type
osm,1576785450,La Crem,,"Via Emilia Ponente 341, Bologna",Bologna,44.512683,11.287170,,,,,+39 0516198949,,Mo-Su 07:00-20:00,False,,no_price,2026-06-02T10:13:47Z,cafe,TARGET,False,existing,La Crem,,osm_overpass,osm,typical_by_type
