source_platform,source_venue_id,venue_name,venue_url,address,city,province,region,postal_code,latitude,longitude,categories,barber_category,price_tier,rating,rating_count,phone,website,booking_provider,extraction_status,retrieved_at,vertical
treatwell,claudia-mapelli-osteopata-milano,Claudia Mapelli Osteopata - Milano,https://www.treatwell.it/salone/claudia-mapelli-osteopata-milano/,,,,,,45.4844163,9.224117,,unisex,,0,1042,,,treatwell,ok,2026-06-02T10:05:37Z,barber
treatwell,desi-di-milano,Desi Di Milano,https://www.treatwell.it/salone/desi-di-milano/,,,,,,45.453022,9.2027784,,unisex,,4.8,4,,,treatwell,ok,2026-06-02T10:05:37Z,barber
treatwell,bellissima-hair-beauty-milano,Bellissima Hair & Beauty - Milano,https://www.treatwell.it/salone/bellissima-hair-beauty-milano/,,,,,,45.501789,9.164284,,unisex,,1565,1565,,,treatwell,ok_no_prices,2026-06-02T10:05:37Z,barber
treatwell,hangar-hair-milano,Hangar Hair Milano,https://www.treatwell.it/salone/hangar-hair-milano/,,,,,,45.4718846,9.207118,,unisex,,2225,2225,,,treatwell,ok_no_prices,2026-06-02T10:05:37Z,barber
treatwell,prima-donna-milano,Prima Donna Milano,https://www.treatwell.it/salone/prima-donna-milano/,,,,,,45.4689335,9.1335958,,salon_donna,,4.8,4,,,treatwell,ok,2026-06-02T10:05:37Z,barber
treatwell,cohiba-barber-shop-borgo-milano,Cohiba Barber Shop Borgo Milano,https://www.treatwell.it/salone/cohiba-barber-shop-borgo-milano/,,,,,,45.44019000000001,10.97309,,barber,,260,260,,,treatwell,ok_no_prices,2026-06-02T10:05:37Z,barber
treatwell,elmira-beauty-milano,Elmira Beauty Milano,https://www.treatwell.it/salone/elmira-beauty-milano/,,,,,,45.4725821,9.1476791,,unisex,,4.1,4,,,treatwell,ok,2026-06-02T10:05:37Z,barber
treatwell,bellezza-piu-milano,Bellezza più Milano,https://www.treatwell.it/salone/bellezza-piu-milano/,,,,,,45.5683577,8.9607109,,unisex,,5.0,5,,,treatwell,ok,2026-06-02T10:05:37Z,barber
treatwell,l-adori-milano,L'Adori - Milano,https://www.treatwell.it/salone/l-adori-milano/,,,,,,45.4614401,9.1732752,,unisex,,4.8,4,,,treatwell,ok,2026-06-02T10:05:37Z,barber
treatwell,seta-beauty-clinic-milano-washington,Seta Beauty Clinic - Milano Washington,https://www.treatwell.it/salone/seta-beauty-clinic-milano-washington/,,,,,,45.4573667,9.1529814,,unisex,,4.8,4,,,treatwell,ok,2026-06-02T10:05:37Z,barber
treatwell,hair-relax-milano,Hair & Relax Milano,https://www.treatwell.it/salone/hair-relax-milano/,,,,,,45.4323574,9.2017893,,unisex,,4.9,4,,,treatwell,ok,2026-06-02T10:05:37Z,barber
treatwell,amati-milano,Amati - Milano,https://www.treatwell.it/salone/amati-milano/,,,,,,45.50883109999999,9.2462325,,unisex,,4.9,4,,,treatwell,ok,2026-06-02T10:05:37Z,barber
treatwell,arte-e-follia-milano,Arte e Follia Milano,https://www.treatwell.it/salone/arte-e-follia-milano/,,,,,,45.4411629,9.1788732,,unisex,,4.9,4,,,treatwell,ok,2026-06-02T10:05:37Z,barber
treatwell,dna-milano-1,Dna Milano,https://www.treatwell.it/salone/dna-milano-1/,,,,,,45.5168045,9.2262247,,unisex,,4.0,4,,,treatwell,ok,2026-06-02T10:05:37Z,barber
treatwell,emme-parrucchieri-eiden-saloon-milano,Emme Parrucchieri Eiden Saloon Milano,https://www.treatwell.it/salone/emme-parrucchieri-eiden-saloon-milano/,,,,,,45.4514206,9.2127,,unisex,,5.0,5,,,treatwell,ok,2026-06-02T10:05:37Z,barber
treatwell,my-sunny-milano-centro-estetico-e-benessere,My Sunny Milano Centro Estetico e Benessere,https://www.treatwell.it/salone/my-sunny-milano-centro-estetico-e-benessere/,,,,,,45.4597809,9.1810092,,unisex,,4.9,4,,,treatwell,ok,2026-06-02T10:05:37Z,barber
treatwell,nails-lashes-milano,Nails & Lashes Milano,https://www.treatwell.it/salone/nails-lashes-milano/,,,,,,45.4729257,9.1567601,,unisex,,5.0,5,,,treatwell,ok,2026-06-02T10:05:37Z,barber
treatwell,barberist-milano,Barberist Milano,https://www.treatwell.it/salone/barberist-milano/,,,,,,45.4194734,9.2617424,,barber,,4.9,4,,,treatwell,ok,2026-06-02T10:05:37Z,barber
treatwell,shampoo-milano,Shampoo Milano,https://www.treatwell.it/salone/shampoo-milano/,,,,,,45.451474,9.170964,,unisex,,5.0,5,,,treatwell,ok,2026-06-02T10:05:37Z,barber
treatwell,barber-shop-copenhagen-milano,Barber Shop Copenhagen Milano,https://www.treatwell.it/salone/barber-shop-copenhagen-milano/,,,,,,45.4760924,9.2039528,,barber,,2225,2225,,,treatwell,ok_no_prices,2026-06-02T10:05:37Z,barber
treatwell,libella-milano,Libella Milano,https://www.treatwell.it/salone/libella-milano/,,,,,,45.46578028,9.17366049,,unisex,,5.0,5,,,treatwell,ok,2026-06-02T10:05:37Z,barber
treatwell,teste-matte-milano,Teste Matte - Milano,https://www.treatwell.it/salone/teste-matte-milano/,,,,,,45.4862766,9.2147301,,unisex,,4.6,4,,,treatwell,ok,2026-06-02T10:05:37Z,barber
treatwell,mancini-milano-parrucchieri,Mancini Milano Parrucchieri,https://www.treatwell.it/salone/mancini-milano-parrucchieri/,,,,,,45.4424418,9.0982196,,unisex,,4.6,4,,,treatwell,ok,2026-06-02T10:05:37Z,barber
treatwell,skin-elysees-milano,Skin Elysées Milano,https://www.treatwell.it/salone/skin-elysees-milano/,,,,,,45.4793713,9.2051762,,unisex,,4.9,4,,,treatwell,ok,2026-06-02T10:05:37Z,barber
treatwell,mave-milano,Mave Milano,https://www.treatwell.it/salone/mave-milano/,,,,,,45.6543494,13.7716162,,unisex,,4.9,4,,,treatwell,ok,2026-06-02T10:05:37Z,barber
treatwell,atelier-della-bellezza-milano,Atelier della Bellezza - Milano,https://www.treatwell.it/salone/atelier-della-bellezza-milano/,,,,,,45.4963691,9.1184622,,unisex,,4.8,4,,,treatwell,ok,2026-06-02T10:05:37Z,barber
treatwell,armano-milano,Armano Milano,https://www.treatwell.it/salone/armano-milano/,,,,,,45.4653311,9.2055851,,unisex,,5.0,5,,,treatwell,ok,2026-06-02T10:05:37Z,barber
treatwell,terraggio23-milano,Terraggio23 Milano,https://www.treatwell.it/salone/terraggio23-milano/,,,,,,45.464591,9.175496299999999,,unisex,,4.8,4,,,treatwell,ok,2026-06-02T10:05:37Z,barber
treatwell,seta-beauty-clinic-milano-porta-romana,Seta Beauty Clinic - Milano Porta Romana,https://www.treatwell.it/salone/seta-beauty-clinic-milano-porta-romana/,,,,,,45.4537005,9.2001983,,unisex,,4.8,4,,,treatwell,ok,2026-06-02T10:05:37Z,barber
treatwell,federico-puglia-fisioterapista-e-osteopata-milano,Federico Puglia Fisioterapista e Osteopata - Milano,https://www.treatwell.it/salone/federico-puglia-fisioterapista-e-osteopata-milano/,,,,,,45.4549012,9.1660104,,unisex,,0,,,,treatwell,ok,2026-06-02T10:05:37Z,barber
treatwell,j-beauty-milano,J Beauty - Milano,https://www.treatwell.it/salone/j-beauty-milano/,,,,,,45.4304857,9.1091727,,unisex,,4.6,4,,,treatwell,ok,2026-06-02T10:05:37Z,barber
treatwell,di-luca-milano-natural-healing-spa,Di Luca Milano Natural Healing SPA,https://www.treatwell.it/salone/di-luca-milano-natural-healing-spa/,,,,,,45.4789551,9.1795742,,unisex,,4.7,4,,,treatwell,ok,2026-06-02T10:05:37Z,barber
treatwell,seta-beauty-clinic-milano-colonne,Seta Beauty Clinic - Milano Colonne,https://www.treatwell.it/salone/seta-beauty-clinic-milano-colonne/,,,,,,45.4595341,9.1796993,,unisex,,4.9,4,,,treatwell,ok,2026-06-02T10:05:37Z,barber
treatwell,seta-beauty-clinic-milano-lambrate,Seta Beauty Clinic - Milano Lambrate,https://www.treatwell.it/salone/seta-beauty-clinic-milano-lambrate/,,,,,,45.4828444,9.2303572,,unisex,,4.9,4,,,treatwell,ok,2026-06-02T10:05:37Z,barber
treatwell,madica-milano,Madica Milano,https://www.treatwell.it/salone/madica-milano/,,,,,,45.4805102,9.208276,,unisex,,4.7,4,,,treatwell,ok,2026-06-02T10:05:37Z,barber
treatwell,route-70-barbershop-milano-de-angeli,Route 70 BarberShop - Milano De Angeli,https://www.treatwell.it/salone/route-70-barbershop-milano-de-angeli/,,,,,,45.4670593,9.1480812,,barber,,4.7,4,,,treatwell,ok,2026-06-02T10:05:37Z,barber
treatwell,polvere-di-stelle-hair-beauty-nature-milano,Polvere di Stelle Hair - Beauty - Nature / Milano,https://www.treatwell.it/salone/polvere-di-stelle-hair-beauty-nature-milano/,,,,,,45.4584883,9.1770919,,unisex,,4.9,4,,,treatwell,ok,2026-06-02T10:05:37Z,barber
treatwell,cory-nails-and-beauty-milano-galleria,Cory Nails and Beauty Milano Galleria,https://www.treatwell.it/salone/cory-nails-and-beauty-milano-galleria/,,,,,,45.4653316,9.18898671,,unisex,,4.9,4,,,treatwell,ok,2026-06-02T10:05:37Z,barber
treatwell,the-hairdresser-milano,The Hairdresser Milano,https://www.treatwell.it/salone/the-hairdresser-milano/,,,,,,45.476461,9.1502621,,unisex,,4.8,4,,,treatwell,ok,2026-06-02T10:05:37Z,barber
treatwell,thebulletgym-milano,ThebulletGym - Milano,https://www.treatwell.it/salone/thebulletgym-milano/,,,,,,45.4637251,9.1861308,,unisex,,0,27,,,treatwell,ok,2026-06-02T10:05:37Z,barber
treatwell,butterfly-milano,Butterfly - Milano,https://www.treatwell.it/salone/butterfly-milano/,,,,,,45.4510343,9.1984736,,unisex,,4.6,4,,,treatwell,ok,2026-06-02T10:05:37Z,barber
treatwell,oir-barber-shop-milano-moscova,Oir Barber shop Milano Moscova,https://www.treatwell.it/salone/oir-barber-shop-milano-moscova/,,,,,,45.4795156,9.1839174,,barber,,4.9,4,,,treatwell,ok,2026-06-02T10:05:37Z,barber
treatwell,quei-bravi-ragazzi-milano,Quei Bravi Ragazzi Milano,https://www.treatwell.it/salone/quei-bravi-ragazzi-milano/,,,,,,45.4520436,9.2085945,,unisex,,4.8,4,,,treatwell,ok,2026-06-02T10:05:37Z,barber
treatwell,soleluna-milano,Soleluna - Milano,https://www.treatwell.it/salone/soleluna-milano/,,,,,,45.5259836,9.208957700000001,,unisex,,4.9,4,,,treatwell,ok,2026-06-02T10:05:37Z,barber
treatwell,legnone-19-parrucchieri-milano,Legnone 19 Parrucchieri Milano,https://www.treatwell.it/salone/legnone-19-parrucchieri-milano/,,,,,,45.4989364,9.1813626,,unisex,,4.7,4,,,treatwell,ok,2026-06-02T10:05:37Z,barber
treatwell,room17-hair-milano,Room17 Hair Milano,https://www.treatwell.it/salone/room17-hair-milano/,,,,,,45.4692855,9.1429371,,unisex,,229,229,,,treatwell,ok_no_prices,2026-06-02T10:05:37Z,barber
treatwell,roberto-bellandi-hair-beauty-milano,Roberto Bellandi Hair Beauty Milano,https://www.treatwell.it/salone/roberto-bellandi-hair-beauty-milano/,,,,,,45.4672106,9.194186,,unisex,,4.9,4,,,treatwell,ok,2026-06-02T10:05:37Z,barber
treatwell,comfort-zone-space-milano-fiera,Comfort Zone Space Milano Fiera,https://www.treatwell.it/salone/comfort-zone-space-milano-fiera/,,,,,,45.4764998,9.147567,,unisex,,4.8,4,,,treatwell,ok,2026-06-02T10:05:37Z,barber
treatwell,etienne-milano,Etienne Milano,https://www.treatwell.it/salone/etienne-milano/,,,,,,45.4574041,9.189567499999999,,unisex,,4.9,4,,,treatwell,ok,2026-06-02T10:05:37Z,barber
treatwell,kronocare-milano-hair-lab-beauty-hall,Kronocare Milano Hair Lab Beauty Hall,https://www.treatwell.it/salone/kronocare-milano-hair-lab-beauty-hall/,,,,,,45.4821119,9.1881346,,unisex,,4.9,4,,,treatwell,ok,2026-06-02T10:05:37Z,barber
treatwell,leccia-hair-beauty-salon-baranzate-via-milano,Leccia Hair & Beauty Salon - Baranzate Via Milano,https://www.treatwell.it/salone/leccia-hair-beauty-salon-baranzate-via-milano/,,,,,,45.5233239,9.1158898,,unisex,,4.8,4,,,treatwell,ok,2026-06-02T10:05:37Z,barber
treatwell,milano-hair-team-capelli-e-bellezza,Milano Hair Team Capelli e Bellezza,https://www.treatwell.it/salone/milano-hair-team-capelli-e-bellezza/,,,,,,45.44476969999999,10.9631306,,unisex,,273,273,,,treatwell,ok_no_prices,2026-06-02T10:05:37Z,barber
treatwell,daniele-marin-osteopata-milano,Daniele Marin Osteopata - Milano,https://www.treatwell.it/salone/daniele-marin-osteopata-milano/,,,,,,45.4550047,9.1971646,,unisex,,0,23,,,treatwell,ok,2026-06-02T10:05:37Z,barber
treatwell,grace-beauty-milano-1,Grace & Beauty Milano,https://www.treatwell.it/salone/grace-beauty-milano-1/,,,,,,45.4620731,9.1984091,,unisex,,4.4,4,,,treatwell,ok,2026-06-02T10:05:37Z,barber
treatwell,nara-milano,NARA  Milano,https://www.treatwell.it/salone/nara-milano/,,,,,,45.4578543,9.1934176,,unisex,,5.0,5,,,treatwell,ok,2026-06-02T10:05:37Z,barber
treatwell,j-b-saloon-products-milano,J&B Saloon & Products - Milano,https://www.treatwell.it/salone/j-b-saloon-products-milano/,,,,,,45.5025613,9.2245923,,unisex,,4.9,4,,,treatwell,ok,2026-06-02T10:05:37Z,barber
treatwell,eka-beauty-centro-estetico-milano-centro-master-extension-ciglia,Eka Beauty Centro Estetico Milano Centro / Master Extension Ciglia,https://www.treatwell.it/salone/eka-beauty-centro-estetico-milano-centro-master-extension-ciglia/,,,,,,45.4947049,9.2198738,,unisex,,5.0,5,,,treatwell,ok,2026-06-02T10:05:37Z,barber
treatwell,shade-hair-salon-milano,Shade Hair Salon Milano,https://www.treatwell.it/salone/shade-hair-salon-milano/,,,,,,45.4577278,9.2036523,,unisex,,5.0,5,,,treatwell,ok,2026-06-02T10:05:37Z,barber
treatwell,estetica-clinica-milano,Estetica Clinica Milano,https://www.treatwell.it/salone/estetica-clinica-milano/,,,,,,45.4901638,9.164806,,unisex,,4.9,4,,,treatwell,ok,2026-06-02T10:05:37Z,barber
treatwell,mc2-milano,MC2 Milano,https://www.treatwell.it/salone/mc2-milano/,,,,,,45.4675422,9.207826599999999,,unisex,,4.9,4,,,treatwell,ok,2026-06-02T10:05:37Z,barber
treatwell,franck-provost-milano,Franck Provost Milano,https://www.treatwell.it/salone/franck-provost-milano/,,,,,,45.4709401,9.2012069,,unisex,,0,1465,,,treatwell,ok,2026-06-02T10:05:37Z,barber
treatwell,fb-hairstylist-milano,FB Hairstylist Milano,https://www.treatwell.it/salone/fb-hairstylist-milano/,,,,,,45.4863082,9.214974699999999,,unisex,,4.7,4,,,treatwell,ok,2026-06-02T10:05:37Z,barber
treatwell,opera-parrucchieri-milano,Operà Parrucchieri - Milano,https://www.treatwell.it/salone/opera-parrucchieri-milano/,,,,,,45.4565755,9.1872813,,unisex,,4.7,4,,,treatwell,ok,2026-06-02T10:05:37Z,barber
treatwell,mave-milano-1,Mave Milano,https://www.treatwell.it/salone/mave-milano-1/,,,,,,45.4985576,9.1666095,,unisex,,4.9,4,,,treatwell,ok,2026-06-02T10:05:37Z,barber
treatwell,hair-club-milano,Hair Club Milano,https://www.treatwell.it/salone/hair-club-milano/,,,,,,45.4524898,9.1673869,,unisex,,0,158,,,treatwell,ok_no_prices,2026-06-02T10:05:37Z,barber
treatwell,wilo-barber-salon-milano,Wilo Barber Salon Milano,https://www.treatwell.it/salone/wilo-barber-salon-milano/,,,,,,45.4532185,9.1961535,,barber,,283,283,,,treatwell,ok_no_prices,2026-06-02T10:05:37Z,barber
treatwell,dognini-milano,Dognini Milano,https://www.treatwell.it/salone/dognini-milano/,,,,,,45.4714004,9.2063544,,unisex,,4.9,4,,,treatwell,ok,2026-06-02T10:05:37Z,barber
treatwell,milan-beauty-milano,Milan Beauty Milano,https://www.treatwell.it/salone/milan-beauty-milano/,,,,,,45.5203807,9.1692324,,unisex,,5.0,5,,,treatwell,ok,2026-06-02T10:05:37Z,barber
treatwell,barberlab-milano,BarberLab Milano,https://www.treatwell.it/salone/barberlab-milano/,,,,,,45.4798191,9.2074807,,barber,,5.0,5,,,treatwell,ok,2026-06-02T10:05:37Z,barber
treatwell,mary-jane-hair-milano,Mary Jane Hair Milano,https://www.treatwell.it/salone/mary-jane-hair-milano/,,,,,,45.4604132,9.1875223,,unisex,,5.0,5,,,treatwell,ok_no_prices,2026-06-02T10:05:37Z,barber
treatwell,smalto-milano,Smalto Milano,https://www.treatwell.it/salone/smalto-milano/,,,,,,45.4668944,9.1630294,,unisex,,4.7,4,,,treatwell,ok,2026-06-02T10:05:37Z,barber
treatwell,xbene-milano,XBene - Milano,https://www.treatwell.it/salone/xbene-milano/,,,,,,45.4797702,9.1844614,,unisex,,0,1643,,,treatwell,ok,2026-06-02T10:05:37Z,barber
treatwell,noviello-milano,Noviello - Milano,https://www.treatwell.it/salone/noviello-milano/,,,,,,45.4368454,9.1550798,,unisex,,4.8,4,,,treatwell,ok,2026-06-02T10:05:37Z,barber
treatwell,dream-nails-spa-milano,Dream Nails Spa - Milano,https://www.treatwell.it/salone/dream-nails-spa-milano/,,,,,,45.4456061,9.1791645,,unisex,,4.6,4,,,treatwell,ok,2026-06-02T10:05:37Z,barber
treatwell,pabling-nail-salon-milano,Pabling Nail Salon Milano,https://www.treatwell.it/salone/pabling-nail-salon-milano/,,,,,,45.4858397,9.2185211,,unisex,,4.6,4,,,treatwell,ok,2026-06-02T10:05:37Z,barber
treatwell,antonella-parrucchiera-milano,Antonella Parrucchiera - Milano,https://www.treatwell.it/salone/antonella-parrucchiera-milano/,,,,,,45.4437516,9.1798606,,unisex,,4.8,4,,,treatwell,ok,2026-06-02T10:05:37Z,barber
treatwell,mak-haircut-milano,Mak Haircut Milano,https://www.treatwell.it/salone/mak-haircut-milano/,,,,,,45.4590186,9.1710406,,unisex,,4.9,4,,,treatwell,ok,2026-06-02T10:05:37Z,barber
treatwell,beautymi-milano-lambrate,BeautyMI / Milano LAMBRATE,https://www.treatwell.it/salone/beautymi-milano-lambrate/,,,,,,45.4820508,9.2335904,,unisex,,4.8,4,,,treatwell,ok,2026-06-02T10:05:37Z,barber
treatwell,shamax-milano,Shamax Milano,https://www.treatwell.it/salone/shamax-milano/,,,,,,45.458278,9.1720507,,unisex,,4.7,4,,,treatwell,ok,2026-06-02T10:05:37Z,barber
treatwell,l-lady-nails-milano,L.Lady Nails Milano,https://www.treatwell.it/salone/l-lady-nails-milano/,,,,,,45.4890132,9.16474,,unisex,,4.6,4,,,treatwell,ok,2026-06-02T10:05:37Z,barber
treatwell,milano-fashion-hair,Milano Fashion Hair,https://www.treatwell.it/salone/milano-fashion-hair/,,,,,,45.4322209,9.1142632,,unisex,,485,485,,,treatwell,ok_no_prices,2026-06-02T10:05:37Z,barber
treatwell,beauty-lab-milano,BeautyLab Nails & More,https://www.treatwell.it/salone/beauty-lab-milano/,,,,,,45.49373860000001,9.1942001,,unisex,,4.8,4,,,treatwell,ok,2026-06-02T10:05:37Z,barber
treatwell,beautyque-milano,Beautyque Milano,https://www.treatwell.it/salone/beautyque-milano/,,,,,,45.4799623,9.2211342,,unisex,,5.0,5,,,treatwell,ok,2026-06-02T10:05:37Z,barber
treatwell,the-boss-hair-treatments-milano,The Boss Hair & Treatments Milano,https://www.treatwell.it/salone/the-boss-hair-treatments-milano/,,,,,,45.45028629999999,9.205879399999999,,unisex,,2097,2097,,,treatwell,ok_no_prices,2026-06-02T10:05:37Z,barber
treatwell,sublime-istituto-di-bellezza-milano-san-siro,Sublime Istituto di Bellezza - Milano San Siro,https://www.treatwell.it/salone/sublime-istituto-di-bellezza-milano-san-siro/,,,,,,45.4739121,9.1150185,,unisex,,4.9,4,,,treatwell,ok,2026-06-02T10:05:37Z,barber
treatwell,idola-milano-6-city-life,Idola Milano 6 City Life,https://www.treatwell.it/salone/idola-milano-6-city-life/,,,,,,45.4807105,9.1612555,,unisex,,4.7,4,,,treatwell,ok,2026-06-02T10:05:37Z,barber
treatwell,la-sartoria-della-bellezza-centro-estetico-milano,La Sartoria della Bellezza Centro Estetico - Milano,https://www.treatwell.it/salone/la-sartoria-della-bellezza-centro-estetico-milano/,,,,,,45.4350553,9.1838949,,unisex,,4.9,4,,,treatwell,ok,2026-06-02T10:05:37Z,barber
treatwell,nabis-milano,NABIS Milano,https://www.treatwell.it/salone/nabis-milano/,,,,,,45.5006596,9.1978975,,unisex,,4.9,4,,,treatwell,ok,2026-06-02T10:05:37Z,barber
treatwell,seta-beauty-clinic-milano-isola,Seta Beauty Clinic - Milano Isola,https://www.treatwell.it/salone/seta-beauty-clinic-milano-isola/,,,,,,45.4890828,9.1893508,,unisex,,4.8,4,,,treatwell,ok,2026-06-02T10:05:37Z,barber
treatwell,milano-spa-per-capelli-michele-rinaldi-milano,Milano SPA per capelli Michele Rinaldi - Milano,https://www.treatwell.it/salone/milano-spa-per-capelli-michele-rinaldi-milano/,,,,,,45.514463,9.2260433,,unisex,,4.5,4,,,treatwell,ok,2026-06-02T10:05:37Z,barber
treatwell,glow-beauty-center-milano,Glow Beauty Center - Milano,https://www.treatwell.it/salone/glow-beauty-center-milano/,,,,,,45.4575186,9.1604409,,unisex,,4.9,4,,,treatwell,ok,2026-06-02T10:05:37Z,barber
treatwell,l-atelier-milano,L'Atelier - Milano,https://www.treatwell.it/salone/l-atelier-milano/,,,,,,45.4505994,9.1797783,,unisex,,4.5,4,,,treatwell,ok,2026-06-02T10:05:37Z,barber
treatwell,organic-milano-parrucchiere-erbe-tintorie-bio-shop,Organic Milano Parrucchiere Erbe Tintorie Bio Shop,https://www.treatwell.it/salone/organic-milano-parrucchiere-erbe-tintorie-bio-shop/,,,,,,45.47838994,9.20312149,,unisex,,4.6,4,,,treatwell,ok,2026-06-02T10:05:37Z,barber
treatwell,milano-daily-beauty,Milano Daily Beauty,https://www.treatwell.it/salone/milano-daily-beauty/,,,,,,45.48791139999999,9.1931797,,unisex,,4.9,4,,,treatwell,ok,2026-06-02T10:05:37Z,barber
treatwell,unicherealblondmilano-28-porta-romana,Unicherealblondmilano 28 - Porta Romana,https://www.treatwell.it/salone/unicherealblondmilano-28-porta-romana/,,,,,,45.4513839,9.2089495,,unisex,,4.8,4,,,treatwell,ok,2026-06-02T10:05:37Z,barber
treatwell,monica-rossi-massaggi-professionali-milano,Monica Rossi Massaggi Professionali Milano,https://www.treatwell.it/salone/monica-rossi-massaggi-professionali-milano/,,,,,,45.4792339,9.1952565,,unisex,,5.0,5,,,treatwell,ok,2026-06-02T10:05:37Z,barber
treatwell,identity-milano,Identity Milano,https://www.treatwell.it/salone/identity-milano/,,,,,,45.455072,9.1672087,,unisex,,4.9,4,,,treatwell,ok,2026-06-02T10:05:37Z,barber
treatwell,giuseppe-sifanno-hair-couture-milano-prive,Giuseppe Sifanno Hair Couture - Milano Privé,https://www.treatwell.it/salone/giuseppe-sifanno-hair-couture-milano-prive/,,,,,,45.4674861,9.2065328,,unisex,,4.5,4,,,treatwell,ok,2026-06-02T10:05:37Z,barber
treatwell,prado-milano,Prado Milano,https://www.treatwell.it/salone/prado-milano/,,,,,,45.4516331,9.2071048,,unisex,,5.0,5,,,treatwell,ok,2026-06-02T10:05:37Z,barber
treatwell,arya-beauty-milano,Arya Beauty Milano,https://www.treatwell.it/salone/arya-beauty-milano/,,,,,,45.4803073,9.245728399999999,,unisex,,4.9,4,,,treatwell,ok,2026-06-02T10:05:37Z,barber
treatwell,prosizo-parrucchiere-via-milano,Prosizo Parrucchiere - Via Milano,https://www.treatwell.it/salone/prosizo-parrucchiere-via-milano/,,,,,,45.528236,9.2786989,,unisex,,4.2,4,,,treatwell,ok,2026-06-02T10:05:37Z,barber
treatwell,vanity-luxury-milano,"VANITY LUXURY , Milano",https://www.treatwell.it/salone/vanity-luxury-milano/,,,,,,45.47804536,9.1615745,,unisex,,5.0,5,,,treatwell,ok,2026-06-02T10:05:37Z,barber
treatwell,free-style-milano,Free Style - Milano,https://www.treatwell.it/salone/free-style-milano/,,,,,,45.4685932,9.1433032,,unisex,,5.0,5,,,treatwell,ok,2026-06-02T10:05:37Z,barber
treatwell,vogue-parrucchieri-milano,Vogue Parrucchieri - Milano,https://www.treatwell.it/salone/vogue-parrucchieri-milano/,,,,,,45.4786541,9.2089717,,unisex,,5.0,5,,,treatwell,ok,2026-06-02T10:05:37Z,barber
treatwell,veruska-nails-beauty-milano,Veruska Nails & Beauty Milano,https://www.treatwell.it/salone/veruska-nails-beauty-milano/,,,,,,45.4364761,9.1729894,,unisex,,4.9,4,,,treatwell,ok,2026-06-02T10:05:37Z,barber
treatwell,relax-beauty-milano,Relax & Beauty - Milano,https://www.treatwell.it/salone/relax-beauty-milano/,,,,,,45.4674225,9.1512233,,unisex,,4.9,4,,,treatwell,ok,2026-06-02T10:05:37Z,barber
treatwell,maison-beaute-milano,Maison Beauté Milano,https://www.treatwell.it/salone/maison-beaute-milano/,,,,,,45.4862321,9.1875754,,unisex,,5.0,5,,,treatwell,ok,2026-06-02T10:05:37Z,barber
treatwell,salone-di-bellezza-milano,Salone di Bellezza - Milano,https://www.treatwell.it/salone/salone-di-bellezza-milano/,,,,,,45.4750787,9.2107797,,unisex,,226,226,,,treatwell,ok_no_prices,2026-06-02T10:05:37Z,barber
treatwell,halle-milano,Halle.Milano,https://www.treatwell.it/salone/halle-milano/,,,,,,45.4477909,9.207155499999999,,unisex,,5.0,5,,,treatwell,ok,2026-06-02T10:05:37Z,barber
treatwell,mp-hair-spa-presso-virgin-active-milano-citta-studi,MP Hair Spa - presso Virgin Active Milano Città Studi,https://www.treatwell.it/salone/mp-hair-spa-presso-virgin-active-milano-citta-studi/,,,,,,45.4766933,9.251833,,unisex,,449,449,,,treatwell,ok_no_prices,2026-06-02T10:05:37Z,barber
treatwell,atelier-milano-centro-degrade-conseil,Atelier Milano Centro Dégradé Conseil,https://www.treatwell.it/salone/atelier-milano-centro-degrade-conseil/,,,,,,45.4804684,9.1813799,,unisex,,5.0,5,,,treatwell,ok,2026-06-02T10:05:37Z,barber
treatwell,dermocosmesi-milano,Dermocosmesi Milano,https://www.treatwell.it/salone/dermocosmesi-milano/,,,,,,45.4675913,9.1631676,,unisex,,5.0,5,,,treatwell,ok,2026-06-02T10:05:37Z,barber
treatwell,trucco-permanente-milano,Trucco Permanente Milano_,https://www.treatwell.it/salone/trucco-permanente-milano/,,,,,,45.4863911,9.2245308,,unisex,,5,5,,,treatwell,ok_no_prices,2026-06-02T10:05:37Z,barber
treatwell,seeker-milano,Seeker Milano,https://www.treatwell.it/salone/seeker-milano/,,,,,,45.4753314,9.2208373,,unisex,,4.9,4,,,treatwell,ok,2026-06-02T10:05:37Z,barber
treatwell,glamour-milano,Glamour - Milano,https://www.treatwell.it/salone/glamour-milano/,,,,,,45.4614704,9.0937869,,unisex,,4.8,4,,,treatwell,ok,2026-06-02T10:05:37Z,barber
treatwell,italian-ink-milano-bovisa,Italian Ink Milano - Bovisa,https://www.treatwell.it/salone/italian-ink-milano-bovisa/,,,,,,45.5014613,9.1635607,,unisex,,4.7,4,,,treatwell,ok,2026-06-02T10:05:37Z,barber
treatwell,comfort-zone-space-milano-brisa,Comfort Zone Space Milano Brisa,https://www.treatwell.it/salone/comfort-zone-space-milano-brisa/,,,,,,45.4651115,9.1801037,,unisex,,4.9,4,,,treatwell,ok,2026-06-02T10:05:37Z,barber
treatwell,luxhairy-milano,Luxhairy Milano,https://www.treatwell.it/salone/luxhairy-milano/,,,,,,45.4495612,9.2072746,,unisex,,4.8,4,,,treatwell,ok,2026-06-02T10:05:37Z,barber
treatwell,hairstylistmilano-js,Hairstylistmilano JS,https://www.treatwell.it/salone/hairstylistmilano-js/,,,,,,45.4621988,9.1626563,,unisex,,5.0,5,,,treatwell,ok,2026-06-02T10:05:37Z,barber
treatwell,bespoke-bio-beauty-salon-milano,Bespoke Bio Beauty Salon - Milano,https://www.treatwell.it/salone/bespoke-bio-beauty-salon-milano/,,,,,,45.4593737,9.1765455,,unisex,,4.7,4,,,treatwell,ok,2026-06-02T10:05:37Z,barber
treatwell,mihi-i-lanni-milano,Mihi I Lanni Milano,https://www.treatwell.it/salone/mihi-i-lanni-milano/,,,,,,45.4674028,9.1351032,,unisex,,4.7,4,,,treatwell,ok,2026-06-02T10:05:37Z,barber
treatwell,la-quinta-essenza-milano,La Quinta Essenza - Milano,https://www.treatwell.it/salone/la-quinta-essenza-milano/,,,,,,45.4657888,9.1772296,,unisex,,5.0,5,,,treatwell,ok,2026-06-02T10:05:37Z,barber
treatwell,ibernardoni-milano,IBernardoni Milano,https://www.treatwell.it/salone/ibernardoni-milano/,,,,,,45.4810006,9.1891556,,unisex,,4.9,4,,,treatwell,ok,2026-06-02T10:05:37Z,barber
treatwell,verba-milano,Verba Milano,https://www.treatwell.it/salone/verba-milano/,,,,,,45.46607650000001,9.1501535,,unisex,,4.7,4,,,treatwell,ok,2026-06-02T10:05:37Z,barber
treatwell,luxury-hair-milano,Luxury Hair Milano,https://www.treatwell.it/salone/luxury-hair-milano/,,,,,,45.5045498,9.221931,,unisex,,386,386,,,treatwell,ok_no_prices,2026-06-02T10:05:37Z,barber
treatwell,im-caso-parrucchieri-ed-estetica-milano,I’m Caso Parrucchieri ed Estetica- Milano,https://www.treatwell.it/salone/im-caso-parrucchieri-ed-estetica-milano/,,,,,,45.45561540000001,9.183559899999999,,unisex,,4.8,4,,,treatwell,ok,2026-06-02T10:05:37Z,barber
treatwell,shapestyle-parrucchieri-milano,ShapeStyle Parrucchieri Milano,https://www.treatwell.it/salone/shapestyle-parrucchieri-milano/,,,,,,45.4652398,9.230389,,unisex,,4.8,4,,,treatwell,ok,2026-06-02T10:05:37Z,barber
treatwell,effe-parrucchieri-milano,EFFE Parrucchieri - Milano,https://www.treatwell.it/salone/effe-parrucchieri-milano/,,,,,,45.4511497,9.1866094,,unisex,,4.8,4,,,treatwell,ok,2026-06-02T10:05:37Z,barber
treatwell,cohiba-barber-shop-borgo-milano-verona,Cohiba Barber Shop - Borgo Milano Verona,https://www.treatwell.it/salone/cohiba-barber-shop-borgo-milano-verona/,,,,,,45.440351,10.9732873,,barber,,4.7,4,,,treatwell,ok,2026-06-02T10:05:37Z,barber
treatwell,extension-capelli-milano,Extension Capelli Milano,https://www.treatwell.it/salone/extension-capelli-milano/,,,,,,45.4319788,9.243139099999999,,unisex,,5.0,5,,,treatwell,ok,2026-06-02T10:05:37Z,barber
treatwell,seta-beauty-clinic-milano-ripamonti,Seta Beauty Clinic - Milano Ripamonti,https://www.treatwell.it/salone/seta-beauty-clinic-milano-ripamonti/,,,,,,45.4300861,9.2036315,,unisex,,4.8,4,,,treatwell,ok,2026-06-02T10:05:37Z,barber
treatwell,vip-extension-di-matteuzzi-marco-milano,Vip Extension di Matteuzzi Marco - Milano,https://www.treatwell.it/salone/vip-extension-di-matteuzzi-marco-milano/,,,,,,45.4819247,9.1869058,,unisex,,1643,1643,,,treatwell,ok_no_prices,2026-06-02T10:05:37Z,barber
treatwell,glamour-hair-group-milano,Glamour Hair Group Milano,https://www.treatwell.it/salone/glamour-hair-group-milano/,,,,,,45.4512051,9.2188352,,unisex,,9,9,,,treatwell,ok_no_prices,2026-06-02T10:05:37Z,barber
treatwell,seta-beauty-clinic-milano-de-angeli,Seta Beauty Clinic - Milano De Angeli,https://www.treatwell.it/salone/seta-beauty-clinic-milano-de-angeli/,,,,,,45.4710342,9.1436826,,unisex,,5.0,5,,,treatwell,ok,2026-06-02T10:05:37Z,barber
treatwell,million-hair-milano,Million Hair Milano,https://www.treatwell.it/salone/million-hair-milano/,,,,,,45.4972925,9.186869699999999,,unisex,,4.8,4,,,treatwell,ok,2026-06-02T10:05:37Z,barber
treatwell,lola-nails-more-milano,Lola Nails & More - Milano,https://www.treatwell.it/salone/lola-nails-more-milano/,,,,,,45.4883762,9.2109411,,unisex,,4.9,4,,,treatwell,ok,2026-06-02T10:05:37Z,barber
treatwell,francis-milano,Francis Milano,https://www.treatwell.it/salone/francis-milano/,,,,,,45.4648106,9.1402971,,unisex,,4.9,4,,,treatwell,ok,2026-06-02T10:05:37Z,barber
treatwell,body-in-shape-milano,Body in Shape Milano,https://www.treatwell.it/salone/body-in-shape-milano/,,,,,,45.4832542,9.2174541,,unisex,,4.0,4,,,treatwell,ok,2026-06-02T10:05:37Z,barber
treatwell,milano-academy,Milano Academy,https://www.treatwell.it/salone/milano-academy/,,,,,,45.481052,9.190715,,unisex,,4.7,4,,,treatwell,ok,2026-06-02T10:05:37Z,barber
treatwell,il-salone-di-marco-milano,Il Salone di Marco - Milano,https://www.treatwell.it/salone/il-salone-di-marco-milano/,,,,,,45.4710968,9.228204,,unisex,,5.0,5,,,treatwell,ok_no_prices,2026-06-02T10:05:37Z,barber
treatwell,estilo-parrucchieri-milano,Estilò Parrucchieri Milano,https://www.treatwell.it/salone/estilo-parrucchieri-milano/,,,,,,45.4531235,9.1733195,,unisex,,4.8,4,,,treatwell,ok,2026-06-02T10:05:37Z,barber
treatwell,vanity-luxury-milano-mantegna,Vanity Luxury - Milano Mantegna,https://www.treatwell.it/salone/vanity-luxury-milano-mantegna/,,,,,,45.4828656,9.1688252,,unisex,,4.8,4,,,treatwell,ok,2026-06-02T10:05:37Z,barber
treatwell,barberdave-milano,BarberDave Milano,https://www.treatwell.it/salone/barberdave-milano/,,,,,,45.4801573,9.1614213,,barber,,5.0,5,,,treatwell,ok,2026-06-02T10:05:37Z,barber
treatwell,egomilano,EgoMilano,https://www.treatwell.it/salone/egomilano/,,,,,,45.4637885,9.2119272,,unisex,,4.6,4,,,treatwell,ok,2026-06-02T10:05:37Z,barber
treatwell,modernity-milano,Modernity Milano,https://www.treatwell.it/salone/modernity-milano/,,,,,,45.4574535,9.2062166,,unisex,,4.8,4,,,treatwell,ok,2026-06-02T10:05:37Z,barber
treatwell,l-ments-milano,L\ments Milano,https://www.treatwell.it/salone/l-ments-milano/,,,,,,45.4667361,9.1367001,,unisex,,5.0,5,,,treatwell,ok,2026-06-02T10:05:37Z,barber
treatwell,le-chic-milano,Le Chic Milano,https://www.treatwell.it/salone/le-chic-milano/,,,,,,45.5045263,9.2219612,,unisex,,4.9,4,,,treatwell,ok,2026-06-02T10:05:37Z,barber
treatwell,afics-milano,AFICS milano,https://www.treatwell.it/salone/afics-milano/,,,,,,45.4604745,9.1825709,,unisex,,5.0,5,,,treatwell,ok,2026-06-02T10:05:37Z,barber
treatwell,rv-parrucchieri-milano-uomo-e-donna,RV Parrucchieri Milano Uomo e Donna,https://www.treatwell.it/salone/rv-parrucchieri-milano-uomo-e-donna/,,,,,,45.3534967,9.324705,,salon_donna,,4.9,4,,,treatwell,ok,2026-06-02T10:05:37Z,barber
treatwell,fascino-incanto-milano,Fascino & Incanto Milano,https://www.treatwell.it/salone/fascino-incanto-milano/,,,,,,45.46309,9.12927,,unisex,,4.7,4,,,treatwell,ok,2026-06-02T10:05:37Z,barber
treatwell,egomilano-1,EGOMILANO,https://www.treatwell.it/salone/egomilano-1/,,,,,,45.491033,9.2391169,,unisex,,4.7,4,,,treatwell,ok,2026-06-02T10:05:37Z,barber
treatwell,in-primo-piano-milano,In Primo Piano - Milano,https://www.treatwell.it/salone/in-primo-piano-milano/,,,,,,45.4629852,9.1858857,,unisex,,4.8,4,,,treatwell,ok,2026-06-02T10:05:37Z,barber
treatwell,camilla-russo-osteopata-milano,Camilla Russo Osteopata - Milano,https://www.treatwell.it/salone/camilla-russo-osteopata-milano/,,,,,,45.4941525,9.1852974,,unisex,,0,736,,,treatwell,ok,2026-06-02T10:05:37Z,barber
treatwell,bling-nails-milano,Bling Nails Milano,https://www.treatwell.it/salone/bling-nails-milano/,,,,,,45.4874865,9.2188163,,unisex,,1042,1042,,,treatwell,ok_no_prices,2026-06-02T10:05:37Z,barber
treatwell,cavagnera-giacomo-osteopata-milano,Cavagnera Giacomo Osteopata - Milano,https://www.treatwell.it/salone/cavagnera-giacomo-osteopata-milano/,,,,,,45.5009221,9.2220182,,unisex,,0,1,,,treatwell,ok,2026-06-02T10:05:37Z,barber
treatwell,centro-estetico-italian-beauty-milano,Centro Estetico - Italian Beauty Milano,https://www.treatwell.it/salone/centro-estetico-italian-beauty-milano/,,,,,,45.4578925,9.2060631,,unisex,,4.8,4,,,treatwell,ok,2026-06-02T10:05:37Z,barber
treatwell,galimberti-hair-beauty-milano,Galimberti Hair & Beauty - Milano,https://www.treatwell.it/salone/galimberti-hair-beauty-milano/,,,,,,45.4690664,9.1712507,,unisex,,4.8,4,,,treatwell,ok,2026-06-02T10:05:37Z,barber
treatwell,camargo-stile-domani-milano,Camargo Stile Domani - Milano,https://www.treatwell.it/salone/camargo-stile-domani-milano/,,,,,,45.4533921,9.2089455,,unisex,,5.0,5,,,treatwell,ok,2026-06-02T10:05:37Z,barber
treatwell,cielo-nail-milano,Cielo Nail - Milano,https://www.treatwell.it/salone/cielo-nail-milano/,,,,,,45.4790484,9.1819498,,unisex,,4.5,4,,,treatwell,ok,2026-06-02T10:05:37Z,barber
treatwell,n-3-nail-milano,N° 3 Nail Milano,https://www.treatwell.it/salone/n-3-nail-milano/,,,,,,45.4497259,9.2054075,,unisex,,713,713,,,treatwell,ok_no_prices,2026-06-02T10:05:37Z,barber
treatwell,gc-barber-shop-milano,GC Barber Shop Milano,https://www.treatwell.it/salone/gc-barber-shop-milano/,,,,,,45.5118264,9.3667755,,barber,,120,120,,,treatwell,ok_no_prices,2026-06-02T10:05:37Z,barber
treatwell,lovely-beauty-milano,Lovely Beauty - Milano,https://www.treatwell.it/salone/lovely-beauty-milano/,,,,,,45.4903746,9.1847406,,unisex,,0,189,,,treatwell,ok,2026-06-02T10:05:37Z,barber
treatwell,fedu-milano-laminazione-extension,Fedu Milano Laminazione & Extension,https://www.treatwell.it/salone/fedu-milano-laminazione-extension/,,,,,,45.4580285,9.1036022,,unisex,,5.0,5,,,treatwell,ok,2026-06-02T10:05:37Z,barber
treatwell,jolie-parrucchieri-milano,Jolie Parrucchieri - Milano,https://www.treatwell.it/salone/jolie-parrucchieri-milano/,,,,,,45.4667993,9.2115,,unisex,,5.0,5,,,treatwell,ok,2026-06-02T10:05:37Z,barber
treatwell,head-and-body-milano,Head and Body Milano,https://www.treatwell.it/salone/head-and-body-milano/,,,,,,45.49148232,9.21317466,,unisex,,4.8,4,,,treatwell,ok,2026-06-02T10:05:37Z,barber
treatwell,lovely-nails-milano,Lovely Nails - Milano,https://www.treatwell.it/salone/lovely-nails-milano/,,,,,,45.4889133,9.1862989,,unisex,,4.7,4,,,treatwell,ok,2026-06-02T10:05:37Z,barber
treatwell,fiori-dinverno,Fiori d’Inverno,https://www.treatwell.it/salone/fiori-dinverno/,,,,,,45.4518027,9.185078,,unisex,,4.9,4,,,treatwell,ok,2026-06-02T10:05:37Z,barber
treatwell,roberto-raso-hair-and-beauty,Roberto Raso Hair and Beauty,https://www.treatwell.it/salone/roberto-raso-hair-and-beauty/,,,,,,45.4667457,9.2048376,,unisex,,4.9,4,,,treatwell,ok,2026-06-02T10:05:37Z,barber
treatwell,gr-fashion-style,GR Fashion Style,https://www.treatwell.it/salone/gr-fashion-style/,,,,,,45.4955837,9.108856,,unisex,,4.9,4,,,treatwell,ok,2026-06-02T10:05:37Z,barber
treatwell,dacci-un-taglio-rubano,Dacci un Taglio - Rubano,https://www.treatwell.it/salone/dacci-un-taglio-rubano/,,,,,,45.44434820000001,11.7958969,,unisex,,4.9,4,,,treatwell,ok,2026-06-02T10:05:37Z,barber
treatwell,hair-joy-specialisti-del-tuo-colore,Hair Joy Specialisti del tuo Colore,https://www.treatwell.it/salone/hair-joy-specialisti-del-tuo-colore/,,,,,,43.8931766,11.0972155,,unisex,,231,231,,,treatwell,ok_no_prices,2026-06-02T10:05:37Z,barber
treatwell,velvet-rovato,Velvet Rovato,https://www.treatwell.it/salone/velvet-rovato/,,,,,,45.5631472,9.9963038,,unisex,,4.9,4,,,treatwell,ok,2026-06-02T10:05:37Z,barber
treatwell,belly-b-hair-studio,Belly B. Hair Studio,https://www.treatwell.it/salone/belly-b-hair-studio/,,,,,,41.9447097,12.5571894,,unisex,,5.0,5,,,treatwell,ok,2026-06-02T10:05:37Z,barber
treatwell,atelier-del-capello,Atelier del Capello,https://www.treatwell.it/salone/atelier-del-capello/,,,,,,44.9197622,11.5795138,,unisex,,4.9,4,,,treatwell,ok,2026-06-02T10:05:37Z,barber
treatwell,clemar,Clemar,https://www.treatwell.it/salone/clemar/,,,,,,39.218422,9.125865,,unisex,,5.0,5,,,treatwell,ok,2026-06-02T10:05:37Z,barber
treatwell,mp-parrucchieri-1,MP Parrucchieri,https://www.treatwell.it/salone/mp-parrucchieri-1/,,,,,,41.8724073,12.5276697,,unisex,,4.5,4,,,treatwell,ok,2026-06-02T10:05:37Z,barber
treatwell,estetica-benessere-1,Estetica & Benessere,https://www.treatwell.it/salone/estetica-benessere-1/,,,,,,45.5228281,9.2273218,,unisex,,4.8,4,,,treatwell,ok,2026-06-02T10:05:37Z,barber
treatwell,vertigo-parrucchieri,Vertigo Parrucchieri,https://www.treatwell.it/salone/vertigo-parrucchieri/,,,,,,41.90501,12.4200658,,unisex,,4.9,4,,,treatwell,ok,2026-06-02T10:05:37Z,barber
treatwell,naif,Naif,https://www.treatwell.it/salone/naif/,,,,,,43.7761546,11.2105144,,unisex,,4.8,4,,,treatwell,ok,2026-06-02T10:05:37Z,barber
treatwell,nuova-estetica-moderna-di-eleonora-varese,Nuova Estetica Moderna di Eleonora Varese,https://www.treatwell.it/salone/nuova-estetica-moderna-di-eleonora-varese/,,,,,,45.0544254,7.670367,,unisex,,5.0,5,,,treatwell,ok,2026-06-02T10:05:37Z,barber
treatwell,maison-de-beaute-opera,Maison de Beauté Opera,https://www.treatwell.it/salone/maison-de-beaute-opera/,,,,,,41.8970104,12.4743084,,unisex,,4.6,4,,,treatwell,ok,2026-06-02T10:05:37Z,barber
treatwell,beautiful-style,Beautiful Style,https://www.treatwell.it/salone/beautiful-style/,,,,,,45.711379,9.193857999999999,,unisex,,4.9,4,,,treatwell,ok,2026-06-02T10:05:37Z,barber
treatwell,estetica-tiziana-oro-caluso,Estetica Tiziana Oro - Caluso,https://www.treatwell.it/salone/estetica-tiziana-oro-caluso/,,,,,,45.302303,7.8895677,,unisex,,4.9,4,,,treatwell,ok,2026-06-02T10:05:37Z,barber
treatwell,feel-good-2,Feel Good,https://www.treatwell.it/salone/feel-good-2/,,,,,,41.980754,12.0492626,,unisex,,4.9,4,,,treatwell,ok,2026-06-02T10:05:37Z,barber
treatwell,amarone-barber-s-1,Amarone Barber's,https://www.treatwell.it/salone/amarone-barber-s-1/,,,,,,40.8544623,14.2491095,,barber,,556,556,,,treatwell,ok_no_prices,2026-06-02T10:05:37Z,barber
treatwell,boni-s-hair-studio,BONI's Hair Studio,https://www.treatwell.it/salone/boni-s-hair-studio/,,,,,,45.0792505,7.634838,,unisex,,247,247,,,treatwell,ok_no_prices,2026-06-02T10:05:37Z,barber
treatwell,j-adore-extension,J'Adore Extension,https://www.treatwell.it/salone/j-adore-extension/,,,,,,45.473611,9.2123668,,unisex,,0,2225,,,treatwell,ok_no_prices,2026-06-02T10:05:37Z,barber
treatwell,max-jo-barber-shop,Max & Jo Barber Shop,https://www.treatwell.it/salone/max-jo-barber-shop/,,,,,,41.8974771,12.4679644,,barber,,377,377,,,treatwell,ok_no_prices,2026-06-02T10:05:37Z,barber
treatwell,vivet-estetica,Vivet Estetica,https://www.treatwell.it/salone/vivet-estetica/,,,,,,45.18578906,9.15536446,,unisex,,4.9,4,,,treatwell,ok,2026-06-02T10:05:37Z,barber
treatwell,cattleya-hair-stylist-by-rosanna,Cattleya Hair Stylist by Rosanna,https://www.treatwell.it/salone/cattleya-hair-stylist-by-rosanna/,,,,,,45.5192469,9.3592948,,unisex,,4.8,4,,,treatwell,ok_no_prices,2026-06-02T10:05:37Z,barber
treatwell,concept-studio-1,Concept Studio,https://www.treatwell.it/salone/concept-studio-1/,,,,,,38.6873177,16.5523019,,unisex,,5.0,5,,,treatwell,ok,2026-06-02T10:05:37Z,barber
treatwell,infinity-barbers-2,Infinity Barbers,https://www.treatwell.it/salone/infinity-barbers-2/,,,,,,45.0503937,9.6869344,,barber,,749,749,,,treatwell,ok_no_prices,2026-06-02T10:05:37Z,barber
treatwell,mccb-parrucchieri,Mccb Parrucchieri,https://www.treatwell.it/salone/mccb-parrucchieri/,,,,,,45.5494985,9.3911952,,unisex,,0,5,,,treatwell,ok,2026-06-02T10:05:37Z,barber
treatwell,girasole-solarium-estetica-via-ripamonti,Girasole Solarium Estetica - Via Ripamonti,https://www.treatwell.it/salone/girasole-solarium-estetica-via-ripamonti/,,,,,,45.4303495,9.201866,,unisex,,4.8,4,,,treatwell,ok,2026-06-02T10:05:37Z,barber
treatwell,e-s-d-donna,E.s.d.donna,https://www.treatwell.it/salone/e-s-d-donna/,,,,,,41.8778349,12.3501995,,salon_donna,,5.0,5,,,treatwell,ok,2026-06-02T10:05:37Z,barber
treatwell,la-barberia-di-glow,La Barberia di Glow,https://www.treatwell.it/salone/la-barberia-di-glow/,,,,,,45.4699968,9.16574,,barber,,5.0,5,,,treatwell,ok,2026-06-02T10:05:37Z,barber
treatwell,gianmarco-di-russo-hair-lab,Gianmarco Di Russo Hair Lab,https://www.treatwell.it/salone/gianmarco-di-russo-hair-lab/,,,,,,41.2560612,13.603906,,unisex,,5.0,5,,,treatwell,ok,2026-06-02T10:05:37Z,barber
treatwell,marcoloco-hair-stylist,MarcoLoco Hair Stylist,https://www.treatwell.it/salone/marcoloco-hair-stylist/,,,,,,41.8937175,12.4506991,,unisex,,259,259,,,treatwell,ok_no_prices,2026-06-02T10:05:37Z,barber
treatwell,mens-club-barber-shop-1,Men’s Club Barber Shop,https://www.treatwell.it/salone/mens-club-barber-shop-1/,,,,,,45.6286204,12.5652882,,barber,,4.9,4,,,treatwell,ok,2026-06-02T10:05:37Z,barber
treatwell,persevera-cagliari-zbeauty-via-tuveri,Persevera Cagliari & Zbeauty - Via Tuveri,https://www.treatwell.it/salone/persevera-cagliari-zbeauty-via-tuveri/,,,,,,39.2190643,9.1289762,,unisex,,5.0,5,,,treatwell,ok,2026-06-02T10:05:37Z,barber
treatwell,musa-nail-salon,Musa Nail Salon,https://www.treatwell.it/salone/musa-nail-salon/,,,,,,45.4677374,9.1353244,,unisex,,4.6,4,,,treatwell,ok,2026-06-02T10:05:37Z,barber
treatwell,sensi-1,Sensi,https://www.treatwell.it/salone/sensi-1/,,,,,,38.1164621,15.6551621,,unisex,,4.9,4,,,treatwell,ok,2026-06-02T10:05:37Z,barber
treatwell,my-beauty-10,My Beauty,https://www.treatwell.it/salone/my-beauty-10/,,,,,,40.6816031,14.7648154,,unisex,,5.0,5,,,treatwell,ok,2026-06-02T10:05:37Z,barber
treatwell,vintage-bolivar-since-1964,Vintage Bolivar Since 1964,https://www.treatwell.it/salone/vintage-bolivar-since-1964/,,,,,,45.4551559,9.1517933,,unisex,,4.9,4,,,treatwell,ok,2026-06-02T10:05:37Z,barber
treatwell,centro-estetico-olistico-harmony-di-jessica-sottile,Centro Estetico Olistico Harmony di Jessica Sottile,https://www.treatwell.it/salone/centro-estetico-olistico-harmony-di-jessica-sottile/,,,,,,45.5097394,9.1326468,,unisex,,4.8,4,,,treatwell,ok,2026-06-02T10:05:37Z,barber
treatwell,laila-bellezza-benessere,Laila Bellezza & Benessere,https://www.treatwell.it/salone/laila-bellezza-benessere/,,,,,,45.4763598,9.2160163,,unisex,,5.0,5,,,treatwell,ok,2026-06-02T10:05:37Z,barber
treatwell,ambra-hair-salon-glamour,Ambra Hair Salon Glamour,https://www.treatwell.it/salone/ambra-hair-salon-glamour/,,,,,,41.7960378,12.4517054,,unisex,,418,418,,,treatwell,ok_no_prices,2026-06-02T10:05:37Z,barber
treatwell,new-style-by-riccardo-e-silvia-pino-1,New Style by Riccardo e Silvia Pino,https://www.treatwell.it/salone/new-style-by-riccardo-e-silvia-pino-1/,,,,,,41.9501104,12.4709536,,unisex,,4.9,4,,,treatwell,ok,2026-06-02T10:05:37Z,barber
treatwell,lali-barber-meda,Lali Barber Meda,https://www.treatwell.it/salone/lali-barber-meda/,,,,,,45.6604709,9.1601664,,barber,,0,9,,,treatwell,ok_no_prices,2026-06-02T10:05:37Z,barber
treatwell,mimo-number1-barber-shop,Mimo Number1 Barber Shop,https://www.treatwell.it/salone/mimo-number1-barber-shop/,,,,,,45.4448985,9.2264503,,barber,,5.0,5,,,treatwell,ok,2026-06-02T10:05:37Z,barber
treatwell,armonia-benessere,Armonia & Benessere,https://www.treatwell.it/salone/armonia-benessere/,,,,,,45.6135437,9.371304,,unisex,,5.0,5,,,treatwell,ok,2026-06-02T10:05:37Z,barber
treatwell,yaya-roma-estetica-parrucchieri,Yaya Roma - Estetica Parrucchieri,https://www.treatwell.it/salone/yaya-roma-estetica-parrucchieri/,,,,,,41.867803,12.4902443,,unisex,,3.5,3,,,treatwell,ok,2026-06-02T10:05:37Z,barber
treatwell,beauty-lab-di-tota-erica,Beauty Lab di Tota Erica,https://www.treatwell.it/salone/beauty-lab-di-tota-erica/,,,,,,41.2192641,16.2853349,,unisex,,5.0,5,,,treatwell,ok,2026-06-02T10:05:37Z,barber
treatwell,hair-manu,Hair Manú,https://www.treatwell.it/salone/hair-manu/,,,,,,41.9294543,12.5238527,,unisex,,4.5,4,,,treatwell,ok,2026-06-02T10:05:37Z,barber
treatwell,incanto-hair-spa-beauty,Incanto Hair Spa & Beauty,https://www.treatwell.it/salone/incanto-hair-spa-beauty/,,,,,,45.6370507,13.0582714,,unisex,,222,222,,,treatwell,ok_no_prices,2026-06-02T10:05:37Z,barber
treatwell,valentina-hairology,Valentina Hairology,https://www.treatwell.it/salone/valentina-hairology/,,,,,,41.8906808,12.5649025,,unisex,,4.7,4,,,treatwell,ok,2026-06-02T10:05:37Z,barber
treatwell,o-hair-studio,O-Hair Studio,https://www.treatwell.it/salone/o-hair-studio/,,,,,,45.6439901,13.7669758,,unisex,,4.9,4,,,treatwell,ok,2026-06-02T10:05:37Z,barber
treatwell,le-v,Le V,https://www.treatwell.it/salone/le-v/,,,,,,40.321494,9.3319571,,unisex,,5.0,5,,,treatwell,ok,2026-06-02T10:05:37Z,barber
treatwell,cloe-1,Cloè,https://www.treatwell.it/salone/cloe-1/,,,,,,40.6457154,14.8733998,,unisex,,1.0,1,,,treatwell,ok,2026-06-02T10:05:37Z,barber
treatwell,studio-body-balance-di-lucia-mercorella,Studio Body Balance di Lucia Mercorella,https://www.treatwell.it/salone/studio-body-balance-di-lucia-mercorella/,,,,,,41.8128728,12.6298007,,unisex,,4.9,4,,,treatwell,ok,2026-06-02T10:05:37Z,barber
treatwell,yourskin,Yourskin,https://www.treatwell.it/salone/yourskin/,"Via Giovanni Patturelli, 64, 81100 Caserta CE, Italia",Caserta,CE,,81100,41.0743552,14.3387242,,unisex,,4.89,143,,,treatwell,ok,2026-06-02T10:11:24Z,barber
treatwell,maison-pricesson,Maison Pricesson,https://www.treatwell.it/salone/maison-pricesson/,"Via Tagliamento, 7, 20854 Vedano al Lambro MB, Italia",Vedano al Lambro,MB,,20854,45.6108058,9.2736317,,unisex,,4.93,176,,,treatwell,ok,2026-06-02T10:11:24Z,barber
treatwell,claudia-stylist-c-o-new-hair-line,Claudia Stylist c/o New Hair Line,https://www.treatwell.it/salone/claudia-stylist-c-o-new-hair-line/,Viale Monza 83,Loreto,,,,45.4949673,9.219164,,unisex,,4.69,12,,,treatwell,ok_no_prices,2026-06-02T10:11:24Z,barber
treatwell,hair-expert-nails-pedicure-barbara-pierini-c-o-studio-style-plus,Hair Expert + Nails & Pedicure/Barbara Pierini c/o Studio Style Plus,https://www.treatwell.it/salone/hair-expert-nails-pedicure-barbara-pierini-c-o-studio-style-plus/,Via Capistrano 90,Anagnina,,,,41.8395052,12.5875815,,unisex,,4,1,,,treatwell,ok_no_prices,2026-06-02T10:11:24Z,barber
treatwell,wendylab,WendyLab,https://www.treatwell.it/salone/wendylab/,Via Alessandro Volta 40,,,,,45.6008359,8.9207396,,unisex,,4.82,112,,,treatwell,ok,2026-06-02T10:11:24Z,barber
treatwell,kf-beauty-salon-nails,KF Beauty Salon Nails,https://www.treatwell.it/salone/kf-beauty-salon-nails/,111 Via Benedetto Croce,,,,,43.4632726,11.852491,,unisex,,4.98,39,,,treatwell,ok,2026-06-02T10:11:24Z,barber
treatwell,nails-up,Nails Up!,https://www.treatwell.it/salone/nails-up/,"P.za Crati, 10, 00199 Roma RM, Italia",Roma,RM,,00199,41.9273198,12.509295,,unisex,,4.64,483,,,treatwell,ok,2026-06-02T10:11:24Z,barber
treatwell,jessy-beauty,Jessy Beauty,https://www.treatwell.it/salone/jessy-beauty/,Via del Pavone 33,,,,,42.1399059,12.3800665,,unisex,,4.95,21,,,treatwell,ok,2026-06-02T10:11:24Z,barber
treatwell,salvatore-falco-1,Salvatore Falco,https://www.treatwell.it/salone/salvatore-falco-1/,"Via Torrione, 155-157,",,,,,40.67145728,14.782667,,unisex,,5,4,,,treatwell,ok,2026-06-02T10:11:24Z,barber
treatwell,artemide-fiore-club,Artemide Fiore Club,https://www.treatwell.it/salone/artemide-fiore-club/,"Via del Picentino, 2A",,,,,40.6743977,14.8736008,,unisex,,4.75,264,,,treatwell,ok,2026-06-02T10:11:24Z,barber
treatwell,chlarem-beauty-hair,Chlarem Beauty Hair,https://www.treatwell.it/salone/chlarem-beauty-hair/,"Via Principe di Napoli, 6, 80035 Nola NA, Italia",Nola,NA,,80035,40.9275545,14.5294514,,unisex,,4.93,398,,,treatwell,ok,2026-06-02T10:11:24Z,barber
treatwell,fisiopoint,Fisiopoint,https://www.treatwell.it/salone/fisiopoint/,"Via Antonio Beccadelli, 48",Bagnoli,,,,40.8203591,14.1744867,,unisex,,0,0,,,treatwell,ok,2026-06-02T10:11:24Z,barber
treatwell,lash-brow-lounge-di-loredana-atanasiu,Lash&Brow Lounge di Loredana Atanasiu,https://www.treatwell.it/salone/lash-brow-lounge-di-loredana-atanasiu/,"Piazza Drago, 2, 30016 Jesolo VE, Italia",Jesolo,VE,,30016,45.5075672,12.6445652,,unisex,,4.94,147,,,treatwell,ok,2026-06-02T10:11:24Z,barber
treatwell,daddio-parrucchieri,Daddio Parrucchieri,https://www.treatwell.it/salone/daddio-parrucchieri/,"Via On. Francesco Napolitano, 134",Nola,,,,40.9313988,14.5284844,,unisex,,4.96,16,,,treatwell,ok,2026-06-02T10:11:24Z,barber
treatwell,beauty-premiere-arezzo,Beauty Première Arezzo,https://www.treatwell.it/salone/beauty-premiere-arezzo/,"Via Piave, 2, 52100 Arezzo AR, Italia",Arezzo,AR,,52100,43.4587192,11.8757229,,unisex,,4.67,105,,,treatwell,ok,2026-06-02T10:11:24Z,barber
treatwell,fringe-il-salotto-della-bellezza,Fringe - Il Salotto della Bellezza,https://www.treatwell.it/salone/fringe-il-salotto-della-bellezza/,"Via A. Brugnoli, 240, 44020 Goro FE, Italia",Goro,FE,,44020,44.8491306,12.294426,,unisex,,4.96,121,,,treatwell,ok,2026-06-02T10:11:24Z,barber
treatwell,barberia-trotta,Barberia Trotta,https://www.treatwell.it/salone/barberia-trotta/,Via Giovanni Amendola 102,,,,,40.310075,15.247385,,barber,,4.94,19,,,treatwell,ok,2026-06-02T10:11:24Z,barber
treatwell,centro-estetico-bebeauty,Centro Estetico BeBeauty,https://www.treatwell.it/salone/centro-estetico-bebeauty/,"Contrada Santa Croce, 34, 62019 Fontenoce MC, Italia",Fontenoce,MC,,62019,43.3650909,13.5109054,,unisex,,4.93,112,,,treatwell,ok,2026-06-02T10:11:24Z,barber
treatwell,angolo-della-bellezza,Angolo della Bellezza,https://www.treatwell.it/salone/angolo-della-bellezza/,"Via Bologna, 28, 62010 Montecosaro Scalo MC, Italia",Montecosaro Scalo,MC,,62010,43.2864355,13.6479395,,unisex,,4.91,418,,,treatwell,ok,2026-06-02T10:11:24Z,barber
treatwell,pino-capasso-coiffeur-uomo-e-donna-firenze,Pino Capasso Coiffeur Uomo e Donna - Firenze,https://www.treatwell.it/salone/pino-capasso-coiffeur-uomo-e-donna-firenze/,Piazza della Stazione 14,Santa Maria Novella,,,,43.7761192,11.2492907,,salon_donna,,4.79,13,,,treatwell,ok,2026-06-02T10:11:24Z,barber
treatwell,mancini,Mancini,https://www.treatwell.it/salone/mancini/,"Viale Francesco Redi, 59a, 50144 Firenze FI, Italia",Firenze,FI,,50144,43.7873617,11.2362682,,unisex,,4.93,585,,,treatwell,ok,2026-06-02T10:11:24Z,barber
treatwell,voila-1,Voilà,https://www.treatwell.it/salone/voila-1/,"Via Martiri Libertà, 308, 13836 Cossato BI, Italia",Cossato,BI,,13836,45.5660676,8.1973445,,unisex,,4.89,45,,,treatwell,ok,2026-06-02T10:11:24Z,barber
treatwell,encapture-store,Encapture Store,https://www.treatwell.it/salone/encapture-store/,"Via Cinque Giornate, 10, 22100 Como CO, Italia",Como,CO,,22100,45.8112052,9.0826358,,unisex,,4.63,52,,,treatwell,ok,2026-06-02T10:11:24Z,barber
treatwell,azzurra-studio,Azzurra Studio,https://www.treatwell.it/salone/azzurra-studio/,Via Leopardi,,,,,38.6511498,16.5463192,,unisex,,0,0,,,treatwell,ok,2026-06-02T10:11:24Z,barber
treatwell,lp-hair-beauty,LP Hair & Beauty,https://www.treatwell.it/salone/lp-hair-beauty/,Via Angelo Ramazzotti 20,,,,,45.6018763,9.2657397,,unisex,,4.01,21,,,treatwell,ok_no_prices,2026-06-02T10:11:24Z,barber
treatwell,marsy-hair-sudio-barber,Marsy Hair Sudio & Barber,https://www.treatwell.it/salone/marsy-hair-sudio-barber/,"Via Camillo Benso Conte di Cavour, 63, 20871 Vimercate MB, Italia",Vimercate,MB,,20871,45.6135251,9.3739289,,barber,,4.91,118,,,treatwell,ok,2026-06-02T10:11:24Z,barber
treatwell,santa-caterina-beauty-farm,Santa Caterina Beauty Farm,https://www.treatwell.it/salone/santa-caterina-beauty-farm/,"Via Cisa Traversa III, 19038 Sarzana SP, Italia",Sarzana,SP,,19038,44.1242649,9.945284500000001,,unisex,,4.89,1018,,,treatwell,ok,2026-06-02T10:11:24Z,barber
treatwell,diana-barbagallo,Diana Barbagallo,https://www.treatwell.it/salone/diana-barbagallo/,"Via dei Faggi, 120a, 00172 Roma RM, Italia",Roma,RM,,00172,41.8838632,12.5693509,,unisex,,4.96,562,,,treatwell,ok,2026-06-02T10:11:24Z,barber
treatwell,beauty-premiere-grugliasco,Beauty Première Grugliasco,https://www.treatwell.it/salone/beauty-premiere-grugliasco/,"Via Erminio Macario, 6a, 10095 Grugliasco TO, Italia",Grugliasco,TO,,10095,45.0565198,7.6104599,,unisex,,4.95,281,,,treatwell,ok,2026-06-02T10:11:24Z,barber
treatwell,beauty-dream-montelupo-fiorentino,Beauty Dream - Montelupo Fiorentino,https://www.treatwell.it/salone/beauty-dream-montelupo-fiorentino/,"Via della Pace, 5",,,,,43.730171,11.020693,,unisex,,4.95,317,,,treatwell,ok,2026-06-02T10:11:24Z,barber
treatwell,fluide-de-beaute,Fluide de Beauté,https://www.treatwell.it/salone/fluide-de-beaute/,"Via S. Giacomo, 59, 00048 Nettuno RM, Italia",Nettuno,RM,,00048,41.465832,12.652155,,unisex,,4.92,224,,,treatwell,ok,2026-06-02T10:11:24Z,barber
treatwell,boho-beauty-home,Boho Beauty Home,https://www.treatwell.it/salone/boho-beauty-home/,"Strada Piossasco, 9, 10043 Orbassano TO, Italia",Orbassano,TO,,10043,45.005126,7.535087099999998,,unisex,,4.96,97,,,treatwell,ok,2026-06-02T10:11:24Z,barber
treatwell,aura-di-pace-canova1-skin-boutique,Aura di Pace- Canova1 Skin Boutique,https://www.treatwell.it/salone/aura-di-pace-canova1-skin-boutique/,Via Antonio Canova 1,,,,,45.47441307,9.16911162,,unisex,,4.93,71,,,treatwell,ok,2026-06-02T10:11:24Z,barber
treatwell,mi-amo-centro-estetico,Mi Amo Centro Estetico,https://www.treatwell.it/salone/mi-amo-centro-estetico/,"Via Sempione, 13",,,,,45.5441015,9.0059107,,unisex,,4.99,35,,,treatwell,ok,2026-06-02T10:11:24Z,barber
treatwell,bellessere-per-lei-lui,Bellessere per Lei & Lui,https://www.treatwell.it/salone/bellessere-per-lei-lui/,"Via Pietro Giardini, 270, 41124 Modena MO, Italia",Modena,MO,,41124,44.6408096,10.9110121,,unisex,,4.86,525,,,treatwell,ok,2026-06-02T10:11:24Z,barber
treatwell,ar-parrucchieri-villanova,AR Parrucchieri - Villanova,https://www.treatwell.it/salone/ar-parrucchieri-villanova/,"Via Villanova, 4/B",,,,,44.4960427,11.4283706,,unisex,,4.84,23,,,treatwell,ok,2026-06-02T10:11:24Z,barber
treatwell,tagliati-per-il-successo-new-generation,Tagliati per il successo - New Generation,https://www.treatwell.it/salone/tagliati-per-il-successo-new-generation/,"Via Vincenzo Rossi, 3/3, 61122 Pesaro PU, Italia",Pesaro,PU,,61122,43.90449539999999,12.9091479,,unisex,,4.98,53,,,treatwell,ok,2026-06-02T10:11:24Z,barber
treatwell,stortini-studio,Stortini Studio,https://www.treatwell.it/salone/stortini-studio/,"Via Raffaello Sanzio, 149, 50053 Empoli FI, Italia",Empoli,FI,,50053,43.7163903,10.9362038,,unisex,,4.97,74,,,treatwell,ok,2026-06-02T10:11:24Z,barber
treatwell,giovanna-trimboli,Giovanna Trimboli,https://www.treatwell.it/salone/giovanna-trimboli/,"Via dei Salentini, 21",,,,,41.8977182,12.5110313,,unisex,,4.91,171,,,treatwell,ok,2026-06-02T10:11:24Z,barber
treatwell,vanity-estetica-e-bellezza,Vanity Estetica e Bellezza,https://www.treatwell.it/salone/vanity-estetica-e-bellezza/,Via Don Leonardo Murialdo 31,Collegno,,,,45.0716852,7.6104329,,unisex,,4.95,111,,,treatwell,ok,2026-06-02T10:11:24Z,barber
treatwell,hc-monza,HC Monza,https://www.treatwell.it/salone/hc-monza/,"Via Carlo Prina, 22, 20900 Monza MB, Italia",Monza,MB,,20900,45.5878258,9.26742,,unisex,,4.92,681,,,treatwell,ok,2026-06-02T10:11:24Z,barber
treatwell,nirvana-beauty-f-m,Nirvana Beauty F.M.,https://www.treatwell.it/salone/nirvana-beauty-f-m/,"Via Policarpo Petrocchi, 25, 00137 Roma RM, Italia",Roma,RM,,00137,41.9469435,12.5553195,,unisex,,4.9,600,,,treatwell,ok,2026-06-02T10:11:24Z,barber
treatwell,davide-de-luca,Davide De Luca,https://www.treatwell.it/salone/davide-de-luca/,"Via di Pallacorda, 12, 00186 Roma RM, Italia",Roma,RM,,00186,41.9027494,12.4757129,,unisex,,4.98,104,,,treatwell,ok,2026-06-02T10:11:24Z,barber
treatwell,il-paradiso-del-benessere-1,Il Paradiso del Benessere,https://www.treatwell.it/salone/il-paradiso-del-benessere-1/,"Via Giovanni Manetti, 9",,,,,41.4477334,12.6292845,,unisex,,5,3,,,treatwell,ok,2026-06-02T10:11:24Z,barber
treatwell,m-m-evolution-stylist,M&M evolution Stylist,https://www.treatwell.it/salone/m-m-evolution-stylist/,"Via Alcide De Gasperi, 314, 16014 Campomorone GE, Italia",Campomorone,GE,,16014,44.5066186,8.8925477,,unisex,,4.93,204,,,treatwell,ok,2026-06-02T10:11:24Z,barber
treatwell,urban-concept,Urban Concept,https://www.treatwell.it/salone/urban-concept/,"Via del Pellegrino, 53A",,,,,41.8965525,12.4710336,,unisex,,5,7,,,treatwell,ok,2026-06-02T10:11:24Z,barber
treatwell,wow-by-alex,Wow By Alex,https://www.treatwell.it/salone/wow-by-alex/,72 Via Gino Capponi,,,,,41.8749265,12.5199059,,unisex,,4.95,134,,,treatwell,ok,2026-06-02T10:11:24Z,barber
treatwell,femme-esthetique,Femme Esthetique,https://www.treatwell.it/salone/femme-esthetique/,"Corso Vittorio Emanuele, 56, 09010 Pula CA, Italia",Pula,CA,,09010,39.0098966,9.0005656,,unisex,,4.98,170,,,treatwell,ok,2026-06-02T10:11:24Z,barber
treatwell,areneil-parrucchiere-ed-estetica,Areneil Parrucchiere ed Estetica,https://www.treatwell.it/salone/areneil-parrucchiere-ed-estetica/,"Corso S. Gottardo, 34",San Gottardo,,,,45.4486928,9.1795131,,unisex,,4.68,297,,,treatwell,ok,2026-06-02T10:11:24Z,barber
treatwell,fashion-hair-styling,Fashion Hair Styling,https://www.treatwell.it/salone/fashion-hair-styling/,"Via Don Francesco Mazzocchi, 4t, 29015 Castel San Giovanni PC, Italia",Castel San Giovanni,PC,,29015,45.0581329,9.4474932,,unisex,,4.95,244,,,treatwell,ok,2026-06-02T10:11:24Z,barber
treatwell,michela-parrucchieri-mesagne,Michela Parrucchieri Mesagne,https://www.treatwell.it/salone/michela-parrucchieri-mesagne/,"Via Falcone Antonio Carmelo di Angelo, 76, 72023 Mesagne BR, Italia",Mesagne,BR,,72023,40.554611,17.8196279,,unisex,,5,31,,,treatwell,ok,2026-06-02T10:11:24Z,barber
treatwell,new-hair-look,New Hair Look,https://www.treatwell.it/salone/new-hair-look/,"Via di Caciolle, 8R, 50127 Firenze FI, Italia",Firenze,FI,,50127,43.7962693,11.23126,,unisex,,4.79,16,,,treatwell,ok_no_prices,2026-06-02T10:11:24Z,barber
treatwell,giulia-lash-artist,Giulia  Lash Artist,https://www.treatwell.it/salone/giulia-lash-artist/,"Via Torino, 309",,,,,45.4495209,7.8788562,,unisex,,5,4,,,treatwell,ok,2026-06-02T10:11:24Z,barber
treatwell,laboratorio-estetico-bioonda-2,Laboratorio Estetico Bioonda,https://www.treatwell.it/salone/laboratorio-estetico-bioonda-2/,"P.za Vittorio Veneto, 12",,,,,44.76426,12.14113,,unisex,,0,0,,,treatwell,ok,2026-06-02T10:11:24Z,barber
treatwell,vizi-style,Vizi & Style,https://www.treatwell.it/salone/vizi-style/,"Viale Roma, 209, 54100 Massa MS, Italia",Massa,MS,,54100,44.018971,10.1239078,,unisex,,4.9,118,,,treatwell,ok,2026-06-02T10:11:24Z,barber
treatwell,sublime-hair-di-jessica-grande,Sublime Hair di Jessica Grande,https://www.treatwell.it/salone/sublime-hair-di-jessica-grande/,"Via Alfonso Artiaco, 100A, 80078 Pozzuoli NA, Italia",Pozzuoli,NA,,80078,40.8336121,14.1165633,,unisex,,4.49,14,,,treatwell,ok,2026-06-02T10:11:24Z,barber
treatwell,fascino-opera-parrucchieri-nails,Fascino Opera Parrucchieri & Nails,https://www.treatwell.it/salone/fascino-opera-parrucchieri-nails/,Via Tuscolana 462\464,,,,,41.8709977,12.5346262,,unisex,,4.87,7,,,treatwell,ok,2026-06-02T10:11:24Z,barber
treatwell,hairbeauty-roma,HairBeauty Roma,https://www.treatwell.it/salone/hairbeauty-roma/,"Via dei Pompieri, 27",Centro Storico,,,,41.8942225,12.4740151,,unisex,,4.88,224,,,treatwell,ok,2026-06-02T10:11:24Z,barber
treatwell,caterina-parrucchieri-estetica-noemi,Caterina parrucchieri  estetica noemi,https://www.treatwell.it/salone/caterina-parrucchieri-estetica-noemi/,"Via Rodolfo Boschi, 6, 50027 Strada In Chianti FI, Italia",Strada In Chianti,FI,,50027,43.658767,11.29581,,unisex,,4.95,561,,,treatwell,ok,2026-06-02T10:11:24Z,barber
treatwell,centro-estetico-monica,Centro Estetico Monica,https://www.treatwell.it/salone/centro-estetico-monica/,"Via Vittorio Emanuele, 75h, 25020 Pavone del Mella BS, Italia",Pavone del Mella,BS,,25020,45.300591,10.210276,,unisex,,4.98,61,,,treatwell,ok,2026-06-02T10:11:24Z,barber
treatwell,hair-stylist-di-jusi-1,Hair Stylist di Jusi,https://www.treatwell.it/salone/hair-stylist-di-jusi-1/,"Viale Roma, 120",,,,,41.9930777,12.7232186,,unisex,,0,0,,,treatwell,ok,2026-06-02T10:11:24Z,barber
treatwell,passione-estetica,Passione Estetica,https://www.treatwell.it/salone/passione-estetica/,Via Giovanni Amendola 2,,,,,40.8194621,14.333069,,unisex,,4.81,21,,,treatwell,ok,2026-06-02T10:11:24Z,barber
treatwell,studio-251,Studio 251,https://www.treatwell.it/salone/studio-251/,Via Nomentana 251/a,Salario,,,,41.9146527,12.5087121,,unisex,,4.79,149,,,treatwell,ok,2026-06-02T10:11:24Z,barber
treatwell,flybeauty-spa-e-solarium-di-elisabetta-guagliardo,FlyBeauty&Spa e Solarium di Elisabetta Guagliardo,https://www.treatwell.it/salone/flybeauty-spa-e-solarium-di-elisabetta-guagliardo/,80 Via Loreto,,,,,45.609664,9.23627,,unisex,,3.52,8,,,treatwell,ok,2026-06-02T10:11:24Z,barber
treatwell,centro-estetico-oltre-la-bellezza-di-daniela-gallino,Centro Estetico Oltre La Bellezza di Daniela Gallino,https://www.treatwell.it/salone/centro-estetico-oltre-la-bellezza-di-daniela-gallino/,"Piazza Europa, 12, 12043 Canale CN, Italia",Canale,CN,,12043,44.7961669,7.995187,,unisex,,4.89,110,,,treatwell,ok,2026-06-02T10:11:24Z,barber
treatwell,francesca-lash-and-nail,Francesca Lash and Nail,https://www.treatwell.it/salone/francesca-lash-and-nail/,Via Antonio Gramsci 6,Vinci,,,,43.758854,10.8801194,,unisex,,0,0,,,treatwell,ok,2026-06-02T10:11:24Z,barber
treatwell,luminess-1,LUminess,https://www.treatwell.it/salone/luminess-1/,"Via Giudice Chiano, 49",Fonsarda,,,,39.2300837,9.1219034,,unisex,,4.95,65,,,treatwell,ok,2026-06-02T10:11:24Z,barber
treatwell,tami-nails-beauty,Tami' Nails & Beauty,https://www.treatwell.it/salone/tami-nails-beauty/,"Piazzale Europa, 2, 25081 Bedizzole BS, Italia",Bedizzole,BS,,25081,45.5111752,10.421166,,unisex,,4.95,26,,,treatwell,ok,2026-06-02T10:11:24Z,barber
treatwell,eclissi,Eclissi,https://www.treatwell.it/salone/eclissi/,"Via San Giacomo, 18",,,,,45.2343533,11.7449883,,unisex,,4.83,35,,,treatwell,ok,2026-06-02T10:11:24Z,barber
treatwell,wave-hair-salon,Wave Hair Salon ,https://www.treatwell.it/salone/wave-hair-salon/,"Viale Aquileia, 40, 33170 Pordenone PN, Italia",Pordenone,PN,,33170,45.9494546,12.6900449,,unisex,,4.91,183,,,treatwell,ok,2026-06-02T10:11:24Z,barber
treatwell,mc-acconciature,MC Acconciature,https://www.treatwell.it/salone/mc-acconciature/,"Via Antonio Turco, 41, 12080 Vasco CN, Italia",Vasco,CN,,12080,44.3536799,7.825099099999999,,unisex,,4.92,1013,,,treatwell,ok,2026-06-02T10:11:24Z,barber
treatwell,lino-bailo-hair-make-up-artist,Lino Bailo Hair & Make Up Artist,https://www.treatwell.it/salone/lino-bailo-hair-make-up-artist/,"Viale Giuseppe Mazzini, 97, 03100 Frosinone FR, Italia",Frosinone,FR,,03100,41.6381151,13.348521,,unisex,,4.95,68,,,treatwell,ok,2026-06-02T10:11:24Z,barber
treatwell,am-estetica-avanzata,AM Estetica Avanzata,https://www.treatwell.it/salone/am-estetica-avanzata/,Viale XXV Luglio 46A,,,,,45.3122877,7.8106976,,unisex,,4.76,71,,,treatwell,ok,2026-06-02T10:11:24Z,barber
treatwell,bellami-beauty-concept,BellAmí Beauty Concept,https://www.treatwell.it/salone/bellami-beauty-concept/,"Via Vincenzo Mosca, 21, 80129 Napoli NA, Italia",Napoli,NA,,80129,40.8499378,14.2336681,,unisex,,4.82,539,,,treatwell,ok,2026-06-02T10:11:24Z,barber
treatwell,parrucchiere-serena,Parrucchiere Serena,https://www.treatwell.it/salone/parrucchiere-serena/,"Viale Monza, 130, 20127 Milano MI, Italia",Milano,MI,,20127,45.5020233,9.2216895,,unisex,,5,1,,,treatwell,ok,2026-06-02T10:11:24Z,barber
treatwell,backstagehairstyling-di-ferro-valentina,Backstagehairstyling di Ferro Valentina,https://www.treatwell.it/salone/backstagehairstyling-di-ferro-valentina/,"Via Dante Alighieri, 3",,,,,46.0353665,11.883097,,unisex,,4.76,5,,,treatwell,ok,2026-06-02T10:11:24Z,barber
treatwell,barber-love,Barber Love,https://www.treatwell.it/salone/barber-love/,"Corso Federico II, 19, 67100 L'Aquila AQ, Italia",,,,,42.3474942,13.3981815,,barber,,5,3,,,treatwell,ok_no_prices,2026-06-02T10:11:24Z,barber
treatwell,eleestetika-c-o-wendy-lab,EleEstetika c/o Wendy Lab,https://www.treatwell.it/salone/eleestetika-c-o-wendy-lab/,"Via Alessandro Volta, 40",,,,,45.6008359,8.9207396,,unisex,,4.81,97,,,treatwell,ok,2026-06-02T10:11:24Z,barber
treatwell,studio-estetico-starbien,Studio Estetico StarBien,https://www.treatwell.it/salone/studio-estetico-starbien/,"Via Roma, 10, 35024 Bovolenta PD, Italia",Bovolenta,PD,,35024,45.2700453,11.9362705,,unisex,,4.92,124,,,treatwell,ok,2026-06-02T10:11:24Z,barber
treatwell,vitaolistica,VitaOlistica,https://www.treatwell.it/salone/vitaolistica/,"Via Giovanni Fattori, 77",Pozzo Strada,,,,45.0705938,7.6298514,,unisex,,5,9,,,treatwell,ok,2026-06-02T10:11:24Z,barber
treatwell,jd-hair-by-jenny,JD Hair by Jenny,https://www.treatwell.it/salone/jd-hair-by-jenny/,"Piazza Mattei, 1, 27015 Landriano PV, Italia",Landriano,PV,,27015,45.3152287,9.2619785,,unisex,,4.22,15,,,treatwell,ok_no_prices,2026-06-02T10:11:24Z,barber
treatwell,annicchiarico-hair-salon,Annicchiarico Hair Salon,https://www.treatwell.it/salone/annicchiarico-hair-salon/,Via Baldo degli Ubaldi 220,,,,,41.9001467,12.4371884,,unisex,,5,18,,,treatwell,ok_no_prices,2026-06-02T10:11:24Z,barber
treatwell,browfection-by-sharon-gui,Browfection | by Sharon Gui,https://www.treatwell.it/salone/browfection-by-sharon-gui/,Via Policarpo Petrocchi 8,,,,,41.946667,12.5555564,,unisex,,4.92,29,,,treatwell,ok,2026-06-02T10:11:24Z,barber
treatwell,la-bellezia,La Bellezia,https://www.treatwell.it/salone/la-bellezia/,"Corso Susa, 17, 10098 Rivoli TO, Italia",Rivoli,TO,,10098,45.0718232,7.5195196,,unisex,,4.9,334,,,treatwell,ok,2026-06-02T10:11:24Z,barber
treatwell,fusionlab-parrucchieri-gallery,FusionLAB parrucchieri gallery,https://www.treatwell.it/salone/fusionlab-parrucchieri-gallery/,Via Pastrengo 11/B,Via Sacchi,,,,45.0591518,7.6717987,,unisex,,4.78,25,,,treatwell,ok,2026-06-02T10:11:24Z,barber
treatwell,glamour-estetica-2,Glamour Estetica,https://www.treatwell.it/salone/glamour-estetica-2/,Stradello Carlo Corvi 2/b ,San Lazzaro,,,,44.7792081,10.3675036,,unisex,,4.77,143,,,treatwell,ok,2026-06-02T10:11:24Z,barber
treatwell,centro-estetico-full-glam-di-rita-caputo,Centro Estetico Full Glam di Rita Caputo,https://www.treatwell.it/salone/centro-estetico-full-glam-di-rita-caputo/,"Viale Privato Farnese, 65",Colli Aminei,,,,40.8675681,14.2376566,,unisex,,5,40,,,treatwell,ok,2026-06-02T10:11:24Z,barber
treatwell,niluva-padova,Niluva - Padova,https://www.treatwell.it/salone/niluva-padova/,"Via Roma, 423",,,,,45.3777918,11.707085,,unisex,,5,1,,,treatwell,ok,2026-06-02T10:11:24Z,barber
treatwell,fiori-di-loto-nail-center-di-boasso-elisabetta,Fiori di Loto Nail Center di Boasso Elisabetta,https://www.treatwell.it/salone/fiori-di-loto-nail-center-di-boasso-elisabetta/,20 Via Felice Cavallotti,Vergine Maria,,,,39.3149858,8.5339259,,unisex,,5,117,,,treatwell,ok,2026-06-02T10:11:24Z,barber
treatwell,centro-benessere-playa-dell-est,Centro Benessere Playa Dell'Est,https://www.treatwell.it/salone/centro-benessere-playa-dell-est/,"Via Torino, 9, 27010 Siziano PV, Italia",Siziano,PV,,27010,45.314442,9.2041676,,unisex,,4.91,1040,,,treatwell,ok,2026-06-02T10:11:24Z,barber
treatwell,maki-hair-salon,Maki Hair Salon,https://www.treatwell.it/salone/maki-hair-salon/,"Viale delle Libertà, 53, 81016 Piedimonte Matese CE, Italia",Piedimonte Matese,CE,,81016,41.3544815,14.3737784,,unisex,,4.97,279,,,treatwell,ok_no_prices,2026-06-02T10:11:24Z,barber
treatwell,barbery-s-cutting-culture,Barbery's Cutting Culture,https://www.treatwell.it/salone/barbery-s-cutting-culture/,"Corso Vittorio Emanuele II, 198",Corso Vittorio Emanuele,,,,45.0739325,7.6485069,,barber,,4.97,93,,,treatwell,ok,2026-06-02T10:11:24Z,barber
treatwell,generation-barber-s,Generation Barber's,https://www.treatwell.it/salone/generation-barber-s/,Via Domenico Muratori 34 ,Centro,,,,38.1034927,15.6414762,,barber,,4.98,125,,,treatwell,ok,2026-06-02T10:11:24Z,barber
treatwell,vassalli-daniele-parrucchiere-d-v-specialista-del-colore-organic-botanico,Vassalli Daniele Parrucchiere D.V. Specialista del Colore Organic Botanico,https://www.treatwell.it/salone/vassalli-daniele-parrucchiere-d-v-specialista-del-colore-organic-botanico/,"Piazzale Enrico Dunant, 68a",Marconi,,,,41.8722438,12.459636,,unisex,,0,0,,,treatwell,ok,2026-06-02T10:11:24Z,barber
treatwell,ricci-hair-studios,Ricci Hair Studios,https://www.treatwell.it/salone/ricci-hair-studios/,Via Felice Casati 8,Buenos Aires,,,,45.4777236,9.2062353,,unisex,,4.86,7,,,treatwell,ok_no_prices,2026-06-02T10:11:24Z,barber
treatwell,metamorphosis-hair-stylist,Metamorphosis Hair Stylist,https://www.treatwell.it/salone/metamorphosis-hair-stylist/,"Via Carnia, 25",Cintoia,,,,43.7754484,11.1938267,,unisex,,4.96,249,,,treatwell,ok,2026-06-02T10:11:24Z,barber
treatwell,studio-medico-correzzana,Studio Medico Correzzana,https://www.treatwell.it/salone/studio-medico-correzzana/,Via Kennedy 2C,,,,,45.6559604,9.2731455,,unisex,,0,0,,,treatwell,ok,2026-06-02T10:11:24Z,barber
treatwell,centro-estetico-eterna,Centro Estetico Eterna,https://www.treatwell.it/salone/centro-estetico-eterna/,29 Piazza della Libertà,,,,,45.7341547,8.9796687,,unisex,,4.84,146,,,treatwell,ok,2026-06-02T10:11:24Z,barber
treatwell,body-mind-di-aurora-ricci,Body&Mind di Aurora Ricci,https://www.treatwell.it/salone/body-mind-di-aurora-ricci/,"Via Brugnoli, 42, 44020 Goro FE, Italia",Goro,FE,,44020,44.8519136,12.2986301,,unisex,,4.98,62,,,treatwell,ok,2026-06-02T10:11:24Z,barber
treatwell,unica-studio,Unica Studio,https://www.treatwell.it/salone/unica-studio/,Via Torino 113a,,,,,45.4860659,8.9891386,,unisex,,4.94,65,,,treatwell,ok,2026-06-02T10:11:24Z,barber
treatwell,rs-hair-atelier,RS Hair Atelier,https://www.treatwell.it/salone/rs-hair-atelier/,"Via Lucio. de Pace, 5, 72028 Torre Santa Susanna BR, Italia",Torre Santa Susanna,BR,,72028,40.4635713,17.7420278,,unisex,,1.95,5,,,treatwell,ok,2026-06-02T10:11:24Z,barber
treatwell,donnafe,DonnaFe',https://www.treatwell.it/salone/donnafe/,"Corso Dante Alighieri, 14, 70038 Terlizzi BA, Italia",Terlizzi,BA,,70038,41.1291082,16.5428682,,salon_donna,,4.93,183,,,treatwell,ok,2026-06-02T10:11:24Z,barber
treatwell,equipe-84-i-parrucchieri,Equipe 84 I Parrucchieri,https://www.treatwell.it/salone/equipe-84-i-parrucchieri/,"Via del Fosso dell'Acqua Mariana, 118, 00118 Roma RM, Italia",Roma,RM,,00118,41.8178114,12.6063952,,unisex,,4.94,464,,,treatwell,ok,2026-06-02T10:11:24Z,barber
treatwell,twins-hair-beauty-1,Twins Hair & Beauty,https://www.treatwell.it/salone/twins-hair-beauty-1/,"Via Napoli, 96",,,,,40.9052445,14.2075495,,unisex,,0,0,,,treatwell,ok,2026-06-02T10:11:24Z,barber
treatwell,polverini-parrucchieri-hairklab,Polverini Parrucchieri HairKlab,https://www.treatwell.it/salone/polverini-parrucchieri-hairklab/,"Via Garibaldi, 62, 67051 Avezzano AQ, Italia",Avezzano,AQ,,67051,42.0376129,13.427481,,unisex,,4.91,585,,,treatwell,ok,2026-06-02T10:11:24Z,barber
treatwell,un-diavolo-per-capello-via-cellulosa,Un Diavolo per Capello - Via Cellulosa,https://www.treatwell.it/salone/un-diavolo-per-capello-via-cellulosa/,"Via della Cellulosa, 64, 00166 Roma RM, Italia",Roma,RM,,00166,41.9204697,12.3643884,,unisex,,4.88,786,,,treatwell,ok,2026-06-02T10:11:24Z,barber
treatwell,il-tempio-delle-dee-caserta,Il Tempio delle Dee - Caserta,https://www.treatwell.it/salone/il-tempio-delle-dee-caserta/,"Viale Cappiello, 44, 81100 Caserta CE, Italia",Caserta,CE,,81100,41.0779886,14.3414043,,unisex,,4.6,238,,,treatwell,ok,2026-06-02T10:11:24Z,barber
treatwell,barone-barber-shop-bb,Barone Barber shop BB,https://www.treatwell.it/salone/barone-barber-shop-bb/,"Via Giovan Filippo Mariti, 25 R",Novoli,,,,43.7913106,11.2346094,,barber,,4.9,157,,,treatwell,ok,2026-06-02T10:11:24Z,barber
treatwell,pinotti-parrucchieri,Pinotti Parrucchieri,https://www.treatwell.it/salone/pinotti-parrucchieri/,"Via Marcantonio Colonna, 14, 20149 Milano MI, Italia",Milano,MI,,20149,45.4859632,9.1542259,,unisex,,4.9,232,,,treatwell,ok,2026-06-02T10:11:24Z,barber
treatwell,fdf-parrucchieri,FDF Parrucchieri,https://www.treatwell.it/salone/fdf-parrucchieri/,Via Novara 10,Salario,,,,41.9142141,12.5071599,,unisex,,4.8,166,,,treatwell,ok,2026-06-02T10:11:24Z,barber
treatwell,hair-tech,Hair Tech,https://www.treatwell.it/salone/hair-tech/,"Via Nomentana, 563, 00141 Roma RM, Italia",Roma,RM,,00141,41.9324748,12.5282471,,unisex,,4.94,517,,,treatwell,ok,2026-06-02T10:11:24Z,barber
treatwell,alma-cura-di-paola-mineo,Alma Cura di Paola Mineo,https://www.treatwell.it/salone/alma-cura-di-paola-mineo/,"Via Rho, 3, 20125 Milano MI, Italia",Milano,MI,,20125,45.4995297,9.2126816,,unisex,,4.99,402,,,treatwell,ok,2026-06-02T10:11:24Z,barber
treatwell,milei-bernal-academy,Milei Bernal Academy,https://www.treatwell.it/salone/milei-bernal-academy/,"Corso Svizzera, 189/A",San Donato,,,,45.0916146,7.662193,,unisex,,4.88,96,,,treatwell,ok,2026-06-02T10:11:24Z,barber
treatwell,re-barber-bollate,Re Barber Bollate,https://www.treatwell.it/salone/re-barber-bollate/,8 Via degli Alpini,,,,,45.5441302,9.1142104,,barber,,0,0,,,treatwell,ok_no_prices,2026-06-02T10:11:24Z,barber
treatwell,winwin-nail,Winwin Nail,https://www.treatwell.it/salone/winwin-nail/,Via Rubens 28,Piazzale Selinunte,,,,45.4675785,9.1423619,,unisex,,4.93,579,,,treatwell,ok,2026-06-02T10:11:24Z,barber
treatwell,centro-estetissima-di-sonni-antonietta,Centro Estetissima Di Sonni Antonietta,https://www.treatwell.it/salone/centro-estetissima-di-sonni-antonietta/,"Via Trofarello, 11",Casalotti di Boccea,,,,41.9145705,12.3664721,,unisex,,4.95,44,,,treatwell,ok,2026-06-02T10:11:24Z,barber
treatwell,parrucchiere-carla-style,Parrucchiere Carla Style,https://www.treatwell.it/salone/parrucchiere-carla-style/,Via Cimone 167,,,,,41.930866,12.5365213,,unisex,,4.25,37,,,treatwell,ok,2026-06-02T10:11:24Z,barber
treatwell,la-maison-del-massaggio-2-0,La Maison del Massaggio 2.0,https://www.treatwell.it/salone/la-maison-del-massaggio-2-0/,"Viale Fortore, 9",Foggia,,,,41.4706941,15.5515012,,unisex,,5,2,,,treatwell,ok,2026-06-02T10:11:24Z,barber
treatwell,rilu-parrucchieri,Rilu Parrucchieri,https://www.treatwell.it/salone/rilu-parrucchieri/,"Via Luigi Settembrini, 2, 20124 Milano MI, Italia",Milano,MI,,20124,45.4800619,9.2044199,,unisex,,4.83,846,,,treatwell,ok,2026-06-02T10:11:24Z,barber
treatwell,glowup-lash-nail-studio,Glowup Lash & Nail Studio,https://www.treatwell.it/salone/glowup-lash-nail-studio/,"Via della Bufalotta, 226",,,,,41.9510348,12.5423243,,unisex,,5,1,,,treatwell,ok,2026-06-02T10:11:24Z,barber
treatwell,salvadori-parrucchiere-unisex,Salvadori Parrucchiere Unisex,https://www.treatwell.it/salone/salvadori-parrucchiere-unisex/,"Piazza Risorgimento, 27, 51039 Quarrata PT, Italia",Quarrata,PT,,51039,43.8471465,10.9779406,,unisex,,4.94,194,,,treatwell,ok,2026-06-02T10:11:24Z,barber
treatwell,the-barber-co-1,The Barber & Co.,https://www.treatwell.it/salone/the-barber-co-1/,"Piazza della Repubblica, 25, 21100 Varese VA, Italia",Varese,VA,,21100,45.8154854,8.8280091,,barber,,0,0,,,treatwell,ok_no_prices,2026-06-02T10:11:24Z,barber
treatwell,genny-hair-beauty,Genny Hair & Beauty,https://www.treatwell.it/salone/genny-hair-beauty/,"Corso Europa, 130, 80020 Casavatore NA, Italy",,,,,40.8998025,14.2707665,,unisex,,5,34,,,treatwell,ok_no_prices,2026-06-02T10:11:24Z,barber
treatwell,mariu-parucchiere,Mariù Parucchiere,https://www.treatwell.it/salone/mariu-parucchiere/,"Via Filippo Moretti, 5/7",,,,,41.9477404,12.077505,,unisex,,4.98,39,,,treatwell,ok,2026-06-02T10:11:24Z,barber
treatwell,aesthetica-belluno-c-o-hotel-astor,Aesthetica Belluno c/o Hotel Astor,https://www.treatwell.it/salone/aesthetica-belluno-c-o-hotel-astor/,Piazza dei Martiri 26E,,,,,46.139022,12.2149954,,unisex,,5,1,,,treatwell,ok,2026-06-02T10:11:24Z,barber
treatwell,mm-studio-parrucchieri,MM Studio parrucchieri,https://www.treatwell.it/salone/mm-studio-parrucchieri/,"Corso Grosseto, 250",Madonna di Campagna,,,,45.1055381,7.6641551,,unisex,,4.92,89,,,treatwell,ok,2026-06-02T10:11:24Z,barber
treatwell,v-a-v-beauty-wellness,V A V Beauty Wellness,https://www.treatwell.it/salone/v-a-v-beauty-wellness/,Via Aldo Moro 319,,,,,41.6425076,13.3456791,,unisex,,4.93,179,,,treatwell,ok,2026-06-02T10:11:24Z,barber
treatwell,omira-1,Omira,https://www.treatwell.it/salone/omira-1/,"Via Verdi Giuseppe, 2, 93100 Caltanissetta CL, Italia",Caltanissetta,CL,,93100,37.4769212,14.0551401,,unisex,,4.81,156,,,treatwell,ok,2026-06-02T10:11:24Z,barber
treatwell,beauty-lab-siderno,Beauty Lab - Siderno,https://www.treatwell.it/salone/beauty-lab-siderno/,"Via L. Misuraca, 7, 89048 Siderno RC, Italia",Siderno,RC,,89048,38.269264,16.2943996,,unisex,,4.85,646,,,treatwell,ok,2026-06-02T10:11:24Z,barber
treatwell,marcella-nails-1,Marcella Nails,https://www.treatwell.it/salone/marcella-nails-1/,"Via Cerca, 1",,,,,45.4374367,9.3830555,,unisex,,4.8,22,,,treatwell,ok,2026-06-02T10:11:24Z,barber
treatwell,hair-and-make-up-parrucchiera,Hair and Make up Parrucchiera,https://www.treatwell.it/salone/hair-and-make-up-parrucchiera/,Via Giuseppe Ripamonti 193 (piano rialzato),Vigentino,,,,45.4326558,9.2015684,,unisex,,4.54,42,,,treatwell,ok_no_prices,2026-06-02T10:11:24Z,barber
treatwell,s-o-s-bellezza,S.O.S. Bellezza,https://www.treatwell.it/salone/s-o-s-bellezza/,Via Luigi Settembrini 35,Livorno,,,,43.5267047,10.323819,,unisex,,4.94,109,,,treatwell,ok,2026-06-02T10:11:24Z,barber
treatwell,top-sun,Top Sun,https://www.treatwell.it/salone/top-sun/,"Via Libertà 39, Concorezzo (MB)",,,,,45.5923476,9.3375442,,unisex,,4.93,96,,,treatwell,ok,2026-06-02T10:11:24Z,barber
treatwell,barberia-stilos,Barberia Stilos,https://www.treatwell.it/salone/barberia-stilos/,Via sarzanese 839,Lucca,,,,43.8503583,10.4582451,,barber,,4.97,137,,,treatwell,ok,2026-06-02T10:11:24Z,barber
treatwell,light-blue-line,Light Blue Line,https://www.treatwell.it/salone/light-blue-line/,"Via Gaetano Donizetti, 15",Scandicci,,,,43.7628263,11.1737916,,unisex,,5,2,,,treatwell,ok,2026-06-02T10:11:24Z,barber
treatwell,mr-barry-barbershop,Mr Barry Barbershop,https://www.treatwell.it/salone/mr-barry-barbershop/,Via Gigi Chessa 352,Malafede,,,,41.7729882,12.3774099,,barber,,5,2,,,treatwell,ok,2026-06-02T10:11:24Z,barber
treatwell,beauty-lab-di-alessia-cerqua-make-up-lash-nails,"Beauty Lab di Alessia Cerqua - Make Up, Lash & Nails",https://www.treatwell.it/salone/beauty-lab-di-alessia-cerqua-make-up-lash-nails/,"Viale dell'Unione, 78",,,,,41.9982516,12.7208171,,unisex,,5,8,,,treatwell,ok,2026-06-02T10:11:24Z,barber
treatwell,iana-hairstylist,Iana Hairstylist,https://www.treatwell.it/salone/iana-hairstylist/,"Via Bartolomeo Cristofori, 12 R, 50144 Firenze FI, Italia",Firenze,FI,,50144,43.7832388,11.2405747,,unisex,,5,18,,,treatwell,ok,2026-06-02T10:11:24Z,barber
treatwell,claudia-mapelli-osteopata-via-gian-battista-cipani,Claudia Mapelli Osteopata - Via Gian Battista Cipani,https://www.treatwell.it/salone/claudia-mapelli-osteopata-via-gian-battista-cipani/,"Via Gian Battista Cipani, 18/A",Brescia,,,,45.5518262,10.2239352,,unisex,,0,0,,,treatwell,ok,2026-06-02T10:11:24Z,barber
treatwell,miss-mrs-bellezza,Miss & Mrs Bellezza,https://www.treatwell.it/salone/miss-mrs-bellezza/,"Via Felice Grossi Gondi, 5",Nomentano,,,,41.9201472,12.5215804,,unisex,,4.87,486,,,treatwell,ok,2026-06-02T10:11:24Z,barber
treatwell,salone-mafy,Salone Mafy,https://www.treatwell.it/salone/salone-mafy/,"Via Brennero, 1, 39042 Bressanone BZ, Italia",Bressanone,BZ,,39042,46.7193108,11.6559698,,unisex,,5,5,,,treatwell,ok_no_prices,2026-06-02T10:11:24Z,barber
treatwell,beautymind-centro-estetico-di-benedetta-negretto,BeautyMind Centro Estetico di Benedetta Negretto,https://www.treatwell.it/salone/beautymind-centro-estetico-di-benedetta-negretto/,"Via Egidio Mazzadi, 23",,,,,45.3960335,11.387764,,unisex,,4.96,27,,,treatwell,ok,2026-06-02T10:11:24Z,barber
treatwell,ff-beauty-nails,FF Beauty & Nails,https://www.treatwell.it/salone/ff-beauty-nails/,"Via Cino del Duca, 66",Consorzio di Torre Gaia,,,,41.8616788,12.6334524,,unisex,,4.95,15,,,treatwell,ok,2026-06-02T10:11:24Z,barber
treatwell,harmony-bella,Harmony - Bella,https://www.treatwell.it/salone/harmony-bella/,"Via Barricate, 10, 85051 Bella PZ, Italia",Bella,PZ,,85051,40.75876969999999,15.5378607,,unisex,,4.99,76,,,treatwell,ok,2026-06-02T10:11:24Z,barber
treatwell,vetria-hair-and-plus,Vétria Hair and Plus,https://www.treatwell.it/salone/vetria-hair-and-plus/,"Rotonda Don Minzoni, 9, 48016 Milano Marittima RA, Italia",Milano Marittima,RA,,48016,44.2733271,12.3510954,,unisex,,0,0,,,treatwell,ok_no_prices,2026-06-02T10:11:24Z,barber
treatwell,rao-barber,Rao Barber,https://www.treatwell.it/salone/rao-barber/,"Via Giuseppe Garibaldi, 54",,,,,45.1804673,9.6499822,,barber,,0,0,,,treatwell,ok_no_prices,2026-06-02T10:11:24Z,barber
treatwell,gamax-academy-bari,Gamax Academy Bari,https://www.treatwell.it/salone/gamax-academy-bari/,"Via Roberto da Bari, 58",,,,,41.1241786,16.86822,,unisex,,2.84,2,,,treatwell,ok,2026-06-02T10:11:24Z,barber
treatwell,samar-concept,Samar Concept,https://www.treatwell.it/salone/samar-concept/,82 Via Monte Faito,Secondigliano,,,,40.8876634,14.2727025,,unisex,,0,0,,,treatwell,ok,2026-06-02T10:11:24Z,barber
treatwell,estetica-e-benessere-2-0,Estetica e Benessere 2.0,https://www.treatwell.it/salone/estetica-e-benessere-2-0/,Piazza San Giorgio 34 Casorezzo (MI),,,,,45.52372259,8.90169344,,unisex,,4.93,42,,,treatwell,ok,2026-06-02T10:11:24Z,barber
treatwell,elegance-hair-style,Elegance Hair Style,https://www.treatwell.it/salone/elegance-hair-style/,"Via Nazionale Gallico, 196, 89135 Reggio di Calabria RC, Italia",Reggio di Calabria,RC,,89135,38.1590844,15.6558929,,unisex,,4.92,75,,,treatwell,ok,2026-06-02T10:11:24Z,barber
treatwell,vanita-di-donna,Vanità di Donna,https://www.treatwell.it/salone/vanita-di-donna/,"Via Roma, 5/7, 83025 Montoro AV, Italia",Montoro,AV,,83025,40.8230966,14.7604414,,salon_donna,,4.93,252,,,treatwell,ok,2026-06-02T10:11:24Z,barber
treatwell,sakun-hair-spa,Sakun Hair Spa,https://www.treatwell.it/salone/sakun-hair-spa/,"Via Po, 31, 00198 Roma RM, Italia",Roma,RM,,00198,41.9162176,12.4972468,,unisex,,4.8,365,,,treatwell,ok,2026-06-02T10:11:24Z,barber
treatwell,zeno-parrucchieri-portici,Zeno Parrucchieri - Portici,https://www.treatwell.it/salone/zeno-parrucchieri-portici/,Via cellini 23/25,,,,,40.8167584,14.3394781,,unisex,,4.86,7,,,treatwell,ok,2026-06-02T10:11:24Z,barber
treatwell,hair-care-di-gianni-jessica,Hair Care di Giannì Jessica,https://www.treatwell.it/salone/hair-care-di-gianni-jessica/,"Via Salvatore Quasimodo, 25, 96010 Palazzolo Acreide SR, Italia",Palazzolo Acreide,SR,,96010,37.0612192,14.9109399,,unisex,,0,0,,,treatwell,ok_no_prices,2026-06-02T10:11:24Z,barber
treatwell,eva-studio-olistico,Eva Studio Olistico,https://www.treatwell.it/salone/eva-studio-olistico/,Viale Cento Fiori 38 ,,,,,43.7295063,11.0204827,,unisex,,4.95,54,,,treatwell,ok,2026-06-02T10:11:24Z,barber
treatwell,elo-beauty-house,Elo Beauty House,https://www.treatwell.it/salone/elo-beauty-house/,Via Francesco Cilea 7/A Milano Marittima - Cervia,Milano Marittima,,,,44.2674148,12.348617,,unisex,,4.95,91,,,treatwell,ok,2026-06-02T10:11:24Z,barber
treatwell,girasole-biuti-1,Girasole Biutì,https://www.treatwell.it/salone/girasole-biuti-1/,"Largo Alberto Pepere, 22, 00151 Roma RM, Italia",Roma,RM,,00151,41.8696178,12.4394994,,unisex,,4.84,208,,,treatwell,ok,2026-06-02T10:11:24Z,barber
treatwell,parrucchiera-sabrina-1,Parrucchiera Sabrina,https://www.treatwell.it/salone/parrucchiera-sabrina-1/,Via San Carlo 82,,,,,45.6357037,9.1933484,,unisex,,4.71,11,,,treatwell,ok,2026-06-02T10:11:24Z,barber
treatwell,luxury-hair-center-spa,LUXURY HAIR CENTER SPA,https://www.treatwell.it/salone/luxury-hair-center-spa/,"Via Mantova, 47, 37053 Cerea VR, Italia",Cerea,VR,,37053,45.19211079999999,11.2073646,,unisex,,4.82,89,,,treatwell,ok_no_prices,2026-06-02T10:11:24Z,barber
treatwell,piedipiuma,Pièdipiuma,https://www.treatwell.it/salone/piedipiuma/,"Via dei Platani, 24, 04023 Penitro LT, Italia",Penitro,LT,,04023,41.2729153,13.6928352,,unisex,,5,58,,,treatwell,ok,2026-06-02T10:11:24Z,barber
treatwell,jolie-di-giulia-cuce,Jolie di Giulia Cucè,https://www.treatwell.it/salone/jolie-di-giulia-cuce/,"Via dell'Agave, 9, 57128 Livorno LI, Italia",Livorno,LI,,57128,43.5212937,10.3180949,,unisex,,4.93,242,,,treatwell,ok,2026-06-02T10:11:24Z,barber
treatwell,luxury-epil,Luxury Epil,https://www.treatwell.it/salone/luxury-epil/,3 Via Soncino,Sant'Ambrogio,,,,45.4603525,9.1825739,,unisex,,4.68,12,,,treatwell,ok,2026-06-02T10:11:24Z,barber
treatwell,aurora-estetica-e-benessere-monterotondo,Aurora Estetica e Benessere - Monterotondo,https://www.treatwell.it/salone/aurora-estetica-e-benessere-monterotondo/,"Via Calatafimi, 18, 00015 Monterotondo RM, Italia",Monterotondo,RM,,00015,42.05246899999999,12.6197078,,unisex,,4.97,131,,,treatwell,ok,2026-06-02T10:11:24Z,barber
treatwell,oltre-l-immagine-1,Oltre l'immagine,https://www.treatwell.it/salone/oltre-l-immagine-1/,"Via Luigi Spagna, 81/83, 96100 Siracusa SR, Italia",Siracusa,SR,,96100,37.0836979,15.282488,,unisex,,5,493,,,treatwell,ok,2026-06-02T10:11:24Z,barber
treatwell,salon-qiao,Salon Qiao,https://www.treatwell.it/salone/salon-qiao/,"Via Giuseppe Biancheri, 52 R",,,,,44.4231124,8.8482288,,unisex,,5,1,,,treatwell,ok,2026-06-02T10:11:24Z,barber
treatwell,valenty-parrucchieri-1,Valenty Parrucchieri,https://www.treatwell.it/salone/valenty-parrucchieri-1/,Traversa maglione 52,Secondigliano,,,,40.8864788,14.269418,,unisex,,0,0,,,treatwell,ok,2026-06-02T10:11:24Z,barber
treatwell,crystal-beauty-1,Crystal beauty,https://www.treatwell.it/salone/crystal-beauty-1/,Via Carlo Forlanini 3,Ortica,,,,45.4719584,9.2309453,,unisex,,4.96,227,,,treatwell,ok,2026-06-02T10:11:24Z,barber
treatwell,robybarbershop,Robybarbershop,https://www.treatwell.it/salone/robybarbershop/,"Piazza Martiri della Libertà, 10040 Almese TO, Italia",Almese,TO,,10040,45.11781149999999,7.3947485,,barber,,4.93,1361,,,treatwell,ok,2026-06-02T10:11:24Z,barber
treatwell,monff-barbershop,Monff BarberShop,https://www.treatwell.it/salone/monff-barbershop/,"Viale Gallodoro, 109, 60035 Jesi AN, Italia",Jesi,AN,,60035,43.5127468,13.2348555,,barber,,4.9,1181,,,treatwell,ok,2026-06-02T10:11:24Z,barber
treatwell,prina-12-hair-beauty,Prina 12 Hair & Beauty,https://www.treatwell.it/salone/prina-12-hair-beauty/,"Via Giuseppe Prina, 12",Sarpi,,,,45.4801446,9.1682879,,unisex,,4.83,593,,,treatwell,ok,2026-06-02T10:11:24Z,barber
treatwell,il-salone-della-bellezza,Il Salone della Bellezza,https://www.treatwell.it/salone/il-salone-della-bellezza/,"Via Dante Alighieri, 30, 20023 Cerro Maggiore MI, Italia",Cerro Maggiore,MI,,20023,45.5895946,8.9481439,,unisex,,4.92,37,,,treatwell,ok_no_prices,2026-06-02T10:11:24Z,barber
treatwell,beauty-dream-estetica-solarium-1,Beauty Dream Estetica & Solarium,https://www.treatwell.it/salone/beauty-dream-estetica-solarium-1/,"Viale Col di Lana, 12, 20136 Milano MI, Italia",Milano,MI,,20136,45.4519409,9.183719499999999,,unisex,,4.83,720,,,treatwell,ok,2026-06-02T10:11:24Z,barber
treatwell,unique-hair-beauty-spa,Unique Hair Beauty SPA,https://www.treatwell.it/salone/unique-hair-beauty-spa/,"Via Giuseppe Parini, 9, 20121 Milano MI, Italia",Milano,MI,,20121,45.4772506,9.193312599999999,,unisex,,4.77,110,,,treatwell,ok,2026-06-02T10:11:24Z,barber
treatwell,moody-caserta,Moody - Caserta,https://www.treatwell.it/salone/moody-caserta/,"Via Nazionale Appia, 5, 81020 Casapulla CE, Italia, c/o Centro Commerciale Apollo, 1º Piano",Casapulla,CE,,81020,41.0741271,14.2983032,,unisex,,4.85,660,,,treatwell,ok,2026-06-02T10:11:24Z,barber
treatwell,monet-di-costa-neide,Monet Di Costa Neide,https://www.treatwell.it/salone/monet-di-costa-neide/,"Via Luigi dalla Via, 5, torre B, 1 piano",,,,,45.7171763,11.3609168,,unisex,,5,11,,,treatwell,ok,2026-06-02T10:11:24Z,barber
treatwell,beauty-e-gliss,Beauty E Gliss,https://www.treatwell.it/salone/beauty-e-gliss/,"Viale di Villa Pamphili, 36, 00152 Roma RM, Italia",Roma,RM,,00152,41.88364110000001,12.4566934,,unisex,,4.85,280,,,treatwell,ok,2026-06-02T10:11:24Z,barber
treatwell,de-chiara-hair-and-beauty-love-your-style,De Chiara Hair and Beauty - Love Your Style,https://www.treatwell.it/salone/de-chiara-hair-and-beauty-love-your-style/,"Via Beato Giacomo da Bitetto, 4, 70025 Grumo Appula BA, Italia",Grumo Appula,BA,,70025,41.0074914,16.711148,,unisex,,4.96,623,,,treatwell,ok,2026-06-02T10:11:24Z,barber
treatwell,sister-nails,Sister Nails,https://www.treatwell.it/salone/sister-nails/,Via di Acqua Bullicante 56,Casilino,,,,41.8834024,12.5434414,,unisex,,4.83,470,,,treatwell,ok,2026-06-02T10:11:24Z,barber
treatwell,fcm-beauty,FCM Beauty,https://www.treatwell.it/salone/fcm-beauty/,"Corso Manfredi, 225, 71043 Manfredonia FG, Italia",Manfredonia,FG,,71043,41.6300327,15.9200094,,unisex,,5,11,,,treatwell,ok,2026-06-02T10:11:24Z,barber
treatwell,amarti-centro-estetico-1,Amarti Centro Estetico,https://www.treatwell.it/salone/amarti-centro-estetico-1/,"Via del Piombo, 4, 40125 Bologna BO, Italia",Bologna,BO,,40125,44.4887465,11.3556471,,unisex,,4.95,183,,,treatwell,ok,2026-06-02T10:11:24Z,barber
treatwell,barberia-nunzi-2,Barberia Nunzi 2,https://www.treatwell.it/salone/barberia-nunzi-2/,Via Giovanni Falcone 21,,,,,42.1597167,12.6563375,,barber,,4.89,17,,,treatwell,ok,2026-06-02T10:11:24Z,barber
treatwell,mht-manu-hair-terapist,MHT Manu Hair Terapist,https://www.treatwell.it/salone/mht-manu-hair-terapist/,"Viale A Gramsci, 75",,,,,45.0519415,7.5997789,,unisex,,5,14,,,treatwell,ok,2026-06-02T10:11:24Z,barber
treatwell,nefertiti-1,Nefertiti,https://www.treatwell.it/salone/nefertiti-1/,"Via Casa Papa, 64, 83029 Solofra AV, Italia",Solofra,AV,,83029,40.8316319,14.8499837,,unisex,,4.65,50,,,treatwell,ok,2026-06-02T10:11:24Z,barber
treatwell,grilli-in-testa,Grilli in Testa,https://www.treatwell.it/salone/grilli-in-testa/,"via Domenico Barone, 4/a",,,,,41.8953668,12.4400321,,unisex,,4.88,769,,,treatwell,ok,2026-06-02T10:11:24Z,barber
treatwell,grace-nails-salon,Grace Nails Salon,https://www.treatwell.it/salone/grace-nails-salon/,"Via Luigi Canonica, 85, 20154 Milano MI, Italia",Milano,MI,,20154,45.4810566,9.169401299999999,,unisex,,2.33,3,,,treatwell,ok,2026-06-02T10:11:24Z,barber
treatwell,uniform-estetica-parrucchiere,Uniform Estetica Parrucchiere,https://www.treatwell.it/salone/uniform-estetica-parrucchiere/,"Via Spartaco, 21, 20135 Milano MI, Italia",Milano,MI,,20135,45.4587554,9.2104035,,unisex,,2.3,13,,,treatwell,ok,2026-06-02T10:11:24Z,barber
treatwell,roca-hair-beauty,Roca Hair Beauty,https://www.treatwell.it/salone/roca-hair-beauty/,"Via Emilia Bosso in Palazzi Trivelli, 18, 56121 Pisa PI, Italia",Pisa,PI,,56121,43.6975795,10.4298231,,unisex,,5,5,,,treatwell,ok_no_prices,2026-06-02T10:11:24Z,barber
treatwell,fp-hair-life,FP Hair Life,https://www.treatwell.it/salone/fp-hair-life/,via Cadore 31,Libia,,,,45.4571599,9.2126574,,unisex,,4.88,55,,,treatwell,ok_no_prices,2026-06-02T10:11:24Z,barber
treatwell,estetica-sabina-cit-turin,Estetica Sabina cit Turin,https://www.treatwell.it/salone/estetica-sabina-cit-turin/,"Via Giacomo Medici, 3, 10143 Torino TO, Italia",Torino,TO,,10143,45.0765261,7.654813099999999,,unisex,,4.84,406,,,treatwell,ok,2026-06-02T10:11:24Z,barber
treatwell,nait-hair,Nait Hair,https://www.treatwell.it/salone/nait-hair/,Viale Abruzzi 91,,,,,45.4849604,9.2167454,,unisex,,4.92,94,,,treatwell,ok,2026-06-02T10:11:24Z,barber
treatwell,mirame-3,Mirame,https://www.treatwell.it/salone/mirame-3/,"Via Monte Rosa, 8A",,,,,45.499588,9.4206679,,unisex,,5,1,,,treatwell,ok,2026-06-02T10:11:24Z,barber
treatwell,level-up-hair-studio,Level Up Hair Studio,https://www.treatwell.it/salone/level-up-hair-studio/,"Via Nino Taranto, 39, 00125 Roma RM, Italia",Roma,RM,,00125,41.78826060000001,12.3942815,,unisex,,4.93,389,,,treatwell,ok,2026-06-02T10:11:24Z,barber
treatwell,mademoiselle-san-teodoro,Mademoiselle - San Teodoro,https://www.treatwell.it/salone/mademoiselle-san-teodoro/,"Via Vittorio Emanuele, 181, 98030 San Teodoro ME, Italia",San Teodoro,ME,,98030,37.8490376,14.6986091,,unisex,,4.9,24,,,treatwell,ok,2026-06-02T10:11:24Z,barber
treatwell,f-c-beauty-esthetic-di-francesca-colalillo,F.C. Beauty Esthetic di Francesca Colalillo,https://www.treatwell.it/salone/f-c-beauty-esthetic-di-francesca-colalillo/,"Via Nallo Mazzocchi Alemanni, 1",Quartiere Italia,,,,41.4567415,12.8939798,,unisex,,4.79,73,,,treatwell,ok,2026-06-02T10:11:24Z,barber
treatwell,ydor-experience-1,Ydor Experience ,https://www.treatwell.it/salone/ydor-experience-1/,"Via Giovanni Enrico Pestalozzi, 10, 20143 Milano MI, Italia",Milano,MI,,20143,45.44606,9.1533151,,unisex,,4.87,560,,,treatwell,ok,2026-06-02T10:11:24Z,barber
treatwell,la-morena-1,La Morena,https://www.treatwell.it/salone/la-morena-1/,"Viale Certosa, 273, 20151 Milano MI, Italia",Milano,MI,,20151,45.5015034,9.125629,,unisex,,4.84,37,,,treatwell,ok,2026-06-02T10:11:24Z,barber
treatwell,sofihouse-beauty,Sofihouse Beauty,https://www.treatwell.it/salone/sofihouse-beauty/,"Via Luca Valerio, 34",Marconi,,,,41.8640693,12.4731277,,unisex,,4.82,53,,,treatwell,ok,2026-06-02T10:11:24Z,barber
treatwell,vanesia-1,Vanesia,https://www.treatwell.it/salone/vanesia-1/,"Via Giacomo Quarenghi, 23",Gallaratese,,,,45.4966625,9.11299,,unisex,,4.88,129,,,treatwell,ok,2026-06-02T10:11:24Z,barber
treatwell,settimo-senso-beauty-and-hair,Settimo Senso Beauty and Hair,https://www.treatwell.it/salone/settimo-senso-beauty-and-hair/,"Via Leonardo da Vinci, 112, 73056 Taurisano LE, Italia",Taurisano,LE,,73056,39.9558904,18.2091398,,unisex,,4.96,386,,,treatwell,ok,2026-06-02T10:11:24Z,barber
treatwell,harmony-la-spezia,Harmony - La Spezia,https://www.treatwell.it/salone/harmony-la-spezia/,"Via del Canaletto, 194, 19126 La Spezia SP, Italia",La Spezia,SP,,19126,44.1184032,9.8463937,,unisex,,4.95,987,,,treatwell,ok,2026-06-02T10:11:24Z,barber
treatwell,i-salo-l-uomo-di-andrea-campana,I Salò L'Uomo di Andrea Campana,https://www.treatwell.it/salone/i-salo-l-uomo-di-andrea-campana/,"Via delle Lettere, 32, 06049 Spoleto PG, Italia",Spoleto,PG,,06049,42.7433205,12.7418403,,unisex,,4.94,644,,,treatwell,ok,2026-06-02T10:11:24Z,barber
treatwell,daly-beauty-estetica-e-benessere-assago,Daly Beauty Estetica e Benessere - Assago,https://www.treatwell.it/salone/daly-beauty-estetica-e-benessere-assago/,"Via Giacomo Matteotti, 10 angolo via della chiesa",,,,,45.4092895,9.132308,,unisex,,4.74,5,,,treatwell,ok,2026-06-02T10:11:24Z,barber
treatwell,wellsun-centro-abbronzatura-estetica,Wellsun Centro Abbronzatura  & Estetica,https://www.treatwell.it/salone/wellsun-centro-abbronzatura-estetica/,"Via Tiberina, 37 p, 06053 Deruta PG, Italia",Deruta,PG,,06053,42.9960314,12.4265456,,unisex,,4.94,463,,,treatwell,ok,2026-06-02T10:11:24Z,barber
treatwell,galbiati-acconciature,Galbiati Acconciature,https://www.treatwell.it/salone/galbiati-acconciature/,"Via Monte Grappa, 10, 20061 Carugate MI, Italia",Carugate,MI,,20061,45.5505398,9.340742299999999,,unisex,,4.79,67,,,treatwell,ok,2026-06-02T10:11:24Z,barber
treatwell,alur-capelli-co,Alur Capelli&Co,https://www.treatwell.it/salone/alur-capelli-co/,"Via del Foro, 6, 38079 Tione di Trento TN, Italia",Tione di Trento,TN,,38079,46.0323582,10.7235622,,unisex,,4.94,239,,,treatwell,ok,2026-06-02T10:11:24Z,barber
treatwell,italia-beauty,Italia Beauty,https://www.treatwell.it/salone/italia-beauty/,"Via Filippo Turati, 35",,,,,45.5904108,9.141411,,unisex,,0,0,,,treatwell,ok,2026-06-02T10:11:24Z,barber
treatwell,ayur-centro-estetico-solarium-make-up-artist,Ayur Centro Estetico | Solarium | Make up artist,https://www.treatwell.it/salone/ayur-centro-estetico-solarium-make-up-artist/,"Via Vallonto, 11",Brugnera,,,,45.8318558,12.4680609,,unisex,,5,2,,,treatwell,ok,2026-06-02T10:11:24Z,barber
treatwell,the-drunken-barber-di-cristian-dana,The Drunken Barber di Cristian Dana,https://www.treatwell.it/salone/the-drunken-barber-di-cristian-dana/,"Via Lanzone, 7, 20123 Milano MI, Italia",Milano,MI,,20123,45.46050839999999,9.1790024,,barber,,4.92,24,,,treatwell,ok_no_prices,2026-06-02T10:11:24Z,barber
treatwell,centro-estetico-alessia-nanni,Centro Estetico Alessia Nanni,https://www.treatwell.it/salone/centro-estetico-alessia-nanni/,"Via Suor Celestina Donati, 129",Torrevecchia,,,,41.9239166,12.4223042,,unisex,,4.95,22,,,treatwell,ok,2026-06-02T10:11:24Z,barber
treatwell,alessandra-paris-nail-studio,Alessandra Paris Nail Studio,https://www.treatwell.it/salone/alessandra-paris-nail-studio/,12 Via al Quarto Miglio,Pignatelli,,,,41.8447188,12.5508571,,unisex,,4.85,31,,,treatwell,ok,2026-06-02T10:11:24Z,barber
treatwell,beauty-relax-setteville,Beauty Relax - Setteville,https://www.treatwell.it/salone/beauty-relax-setteville/,"Via Vincenzo Monti 62, 00012 Setteville (RM), Italia",,,,,41.9446841,12.6482206,,unisex,,4.88,87,,,treatwell,ok,2026-06-02T10:11:24Z,barber
treatwell,maison-castelli-salon-de-beaute,Maison Castelli Salon De Beauté,https://www.treatwell.it/salone/maison-castelli-salon-de-beaute/,"Via Camillo Pierattini, 14",Tivoli,,,,41.9682596,12.7724541,,unisex,,5,24,,,treatwell,ok,2026-06-02T10:11:24Z,barber
treatwell,vigna-s-hairdressing,Vigna's Hairdressing,https://www.treatwell.it/salone/vigna-s-hairdressing/,"Via S. Giovanni Bosco, 93014 Mussomeli CL, Italia",Mussomeli,CL,,93014,37.5827753,13.7507981,,unisex,,5,100,,,treatwell,ok,2026-06-02T10:11:24Z,barber
treatwell,erre-estetica,Erre Estetica,https://www.treatwell.it/salone/erre-estetica/,"Via Milano, 59",,,,,45.7310322,9.1341121,,unisex,,0,0,,,treatwell,ok,2026-06-02T10:11:24Z,barber
treatwell,arte-della-bellezza-skin-and-beauty-specialist,Arte Della Bellezza Skin and Beauty Specialist,https://www.treatwell.it/salone/arte-della-bellezza-skin-and-beauty-specialist/,2/3/4 Piazza Martiri della Libertà,,,,,42.2649822,12.6849064,,unisex,,4.93,720,,,treatwell,ok,2026-06-02T10:11:24Z,barber
treatwell,benessere-con-ilaria,Benessere con Ilaria,https://www.treatwell.it/salone/benessere-con-ilaria/,"Via Poveromo, 48",,,,,43.9957056,10.1368913,,unisex,,5,2,,,treatwell,ok,2026-06-02T10:11:24Z,barber
treatwell,beauty-suite-roma,Beauty Suite - Roma,https://www.treatwell.it/salone/beauty-suite-roma/,Via Poggio delle Corti 4,Ottavia,,,,41.9491349,12.3762481,,unisex,,4.91,89,,,treatwell,ok,2026-06-02T10:11:24Z,barber
treatwell,cristina-blaja-lash-artist,Cristina Blaja Lash Artist,https://www.treatwell.it/salone/cristina-blaja-lash-artist/,Corso Unione Sovietica 489,Corso Unione Sovietica,,,,45.0190908,7.6318581,,unisex,,4.99,108,,,treatwell,ok,2026-06-02T10:11:24Z,barber
treatwell,fp-hair-life-1,FP Hair Life,https://www.treatwell.it/salone/fp-hair-life-1/,"Via Cadore, 31, 20135 Milano MI, Italia",Milano,MI,,20135,45.4571538,9.212732599999999,,unisex,,5,2,,,treatwell,ok_no_prices,2026-06-02T10:11:24Z,barber
treatwell,charme-total-look,Charme Total Look,https://www.treatwell.it/salone/charme-total-look/,"Via Brescia, 37/A, 25014 Castenedolo BS",,,,,45.4766911,10.2917737,,unisex,,4.85,345,,,treatwell,ok,2026-06-02T10:11:24Z,barber
treatwell,claudia-nails-roma-montagnola,Claudia Nails Roma Montagnola,https://www.treatwell.it/salone/claudia-nails-roma-montagnola/,"Piazzale dei Caduti della Montagnola, 7",Tor Marancia,,,,41.8459673,12.4829464,,unisex,,4.85,1791,,,treatwell,ok,2026-06-02T10:11:24Z,barber
treatwell,beauty-queen-17,Beauty Queen,https://www.treatwell.it/salone/beauty-queen-17/,Viale Cristoforo Colombo 356 ,,,,,43.8971125,10.2236549,,unisex,,5,35,,,treatwell,ok,2026-06-02T10:11:24Z,barber
treatwell,prince-spa-1,Prince SPA,https://www.treatwell.it/salone/prince-spa-1/,"Via Gerolamo Frescobaldi, 3, 00198 Roma RM, Italia",Roma,RM,,00198,41.9175372,12.4917931,,unisex,,4.41,4,,,treatwell,ok,2026-06-02T10:11:24Z,barber
