source_platform,source_venue_id,venue_name,venue_url,address,city,province,region,postal_code,latitude,longitude,categories,price_tier,rating,rating_count,phone,website,opening_hours,has_menu,menu_url,extraction_status,retrieved_at,google_maps_url,instagram,facebook,booking_provider,vertical
osm,node/15424810,Lido Conchiglie,https://www.openstreetmap.org/node/15424810,,,,,,40.098675,18.0296486,,,,,,,,False,,ok,2026-06-01T14:12:38Z,"https://www.google.com/maps/search/?api=1&query=40.098675,18.0296486",,,,beach
osm,node/67256373,Sclafani Bagni,https://www.openstreetmap.org/node/67256373,,,,,,37.821589,13.8547805,,,,,,,,False,,ok,2026-06-01T14:12:38Z,"https://www.google.com/maps/search/?api=1&query=37.821589,13.8547805",,,,beach
osm,node/67257216,Canicattini Bagni,https://www.openstreetmap.org/node/67257216,,,,,,37.034871,15.0626532,,,,,,,,False,,ok,2026-06-01T14:12:38Z,"https://www.google.com/maps/search/?api=1&query=37.034871,15.0626532",,,,beach
osm,node/67284251,Bagnoli del Trigno,https://www.openstreetmap.org/node/67284251,,,,,,41.703029,14.456523,,,,,,,,False,,ok,2026-06-01T14:12:38Z,"https://www.google.com/maps/search/?api=1&query=41.703029,14.456523",,,,beach
osm,node/68566255,Bagnoli Irpino,https://www.openstreetmap.org/node/68566255,,,,,,40.833115,15.072549,,,,,,,,False,,ok,2026-06-01T14:12:38Z,"https://www.google.com/maps/search/?api=1&query=40.833115,15.072549",,,,beach
osm,node/69300725,Lesignano de' Bagni,https://www.openstreetmap.org/node/69300725,,,,,,44.6434282,10.3004841,,,,,,,,False,,ok,2026-06-01T14:12:38Z,"https://www.google.com/maps/search/?api=1&query=44.6434282,10.3004841",,,,beach
osm,node/72960589,Pescosolido,https://www.openstreetmap.org/node/72960589,,,,,,41.748124,13.656605,,,,,,,,False,,ok,2026-06-01T14:12:38Z,"https://www.google.com/maps/search/?api=1&query=41.748124,13.656605",,,,beach
osm,node/122520209,Settebagni,https://www.openstreetmap.org/node/122520209,,,,,,42.0182387,12.5298776,,,,,,,,False,,ok,2026-06-01T14:12:38Z,"https://www.google.com/maps/search/?api=1&query=42.0182387,12.5298776",,,,beach
osm,node/245444625,Settebagni,https://www.openstreetmap.org/node/245444625,,,,,,41.9875242,12.5157117,,,,,,,,False,,ok,2026-06-01T14:12:38Z,"https://www.google.com/maps/search/?api=1&query=41.9875242,12.5157117",,,,beach
osm,node/246261027,Hotel Nettuno Lido,https://www.openstreetmap.org/node/246261027,,,,,,44.3912331,8.9722172,hotel,,,,,,,False,,ok,2026-06-01T14:12:38Z,"https://www.google.com/maps/search/?api=1&query=44.3912331,8.9722172",,,,beach
osm,node/248100655,Lido delle Nazioni,https://www.openstreetmap.org/node/248100655,,,,,44022,44.7426066,12.2412215,,,,,,,,False,,ok,2026-06-01T14:12:38Z,"https://www.google.com/maps/search/?api=1&query=44.7426066,12.2412215",,,,beach
osm,node/253784422,Lido di Classe,https://www.openstreetmap.org/node/253784422,,,,,,44.3261463,12.3365448,,,,,,,,False,,ok,2026-06-01T14:12:38Z,"https://www.google.com/maps/search/?api=1&query=44.3261463,12.3365448",,,,beach
osm,node/255250604,Settebagni,https://www.openstreetmap.org/node/255250604,,,,,,42.0062643,12.520197,,,,,,,,False,,ok,2026-06-01T14:12:38Z,"https://www.google.com/maps/search/?api=1&query=42.0062643,12.520197",,,,beach
osm,node/261016711,Lido di Lavinio,https://www.openstreetmap.org/node/261016711,,,,,,41.5005942,12.6259203,,,,,,https://www.rfi.it/it/stazioni/lido-di-lavinio.html,,False,,ok,2026-06-01T14:12:38Z,"https://www.google.com/maps/search/?api=1&query=41.5005942,12.6259203",,,,beach
osm,node/262650779,Ristorante Lido Paina,https://www.openstreetmap.org/node/262650779,"Località Paina, Malcesine",Malcesine,,,37018,45.7691288,10.8108292,restaurant,,,,+39 045 7400587,http://www.lidopaina.it,,False,,ok,2026-06-01T14:12:38Z,"https://www.google.com/maps/search/?api=1&query=45.7691288,10.8108292",,,,beach
osm,node/263706375,Lido di Camaiore,https://www.openstreetmap.org/node/263706375,,,,,,43.8933095,10.2286954,,,,,,,,False,,ok,2026-06-01T14:12:38Z,"https://www.google.com/maps/search/?api=1&query=43.8933095,10.2286954",,,,beach
osm,node/264046791,Camaiore Lido-Capezzano,https://www.openstreetmap.org/node/264046791,,,,,,43.9117982,10.2476921,,,,,,,,False,,ok,2026-06-01T14:12:38Z,"https://www.google.com/maps/search/?api=1&query=43.9117982,10.2476921",,,,beach
osm,node/269026866,Settebagni,https://www.openstreetmap.org/node/269026866,,,,,,42.0163175,12.5298511,,,,,,,,False,,ok,2026-06-01T14:12:38Z,"https://www.google.com/maps/search/?api=1&query=42.0163175,12.5298511",,,,beach
osm,node/270509644,Bad Gfrill - Bagni di Caprile,https://www.openstreetmap.org/node/270509644,,,,,,46.5383849,11.127458,,,,,,,,False,,ok,2026-06-01T14:12:38Z,"https://www.google.com/maps/search/?api=1&query=46.5383849,11.127458",,,,beach
osm,node/270539373,Lido Adriano,https://www.openstreetmap.org/node/270539373,,,,,,44.4122541,12.3085978,,,,,,,,False,,ok,2026-06-01T14:12:38Z,"https://www.google.com/maps/search/?api=1&query=44.4122541,12.3085978",,,,beach
osm,node/270673832,Punta Lido Caffè,https://www.openstreetmap.org/node/270673832,,,,,,45.8824817,10.8457672,cafe,,,,,,,False,,ok,2026-06-01T14:12:38Z,"https://www.google.com/maps/search/?api=1&query=45.8824817,10.8457672",,,,beach
osm,node/272047388,Lido del Sole,https://www.openstreetmap.org/node/272047388,,,,,,45.6331606,13.029388,,,,,,,,False,,ok,2026-06-01T14:12:38Z,"https://www.google.com/maps/search/?api=1&query=45.6331606,13.029388",,,,beach
osm,node/274678858,Lido di Spina,https://www.openstreetmap.org/node/274678858,,,,,44029,44.6507249,12.2476762,,,,,,,,False,,ok,2026-06-01T14:12:38Z,"https://www.google.com/maps/search/?api=1&query=44.6507249,12.2476762",,,,beach
osm,node/274678861,Lido degli Estensi,https://www.openstreetmap.org/node/274678861,Lido degli Estensi,Lido degli Estensi,,,44029,44.6692798,12.2433254,,,,,,,,False,,ok,2026-06-01T14:12:38Z,"https://www.google.com/maps/search/?api=1&query=44.6692798,12.2433254",,,,beach
osm,node/276923561,New Lido - Ristorante Pinseria,https://www.openstreetmap.org/node/276923561,,,,,,46.1339585,11.2571178,restaurant,,,,,,,False,,ok,2026-06-01T14:12:38Z,"https://www.google.com/maps/search/?api=1&query=46.1339585,11.2571178",,,,beach
osm,node/278565818,Lido Di Classe / Lido Di Savio,https://www.openstreetmap.org/node/278565818,,,,,,44.3146313,12.2928091,,,,,,,,False,,ok,2026-06-01T14:12:38Z,"https://www.google.com/maps/search/?api=1&query=44.3146313,12.2928091",,,,beach
osm,node/280937168,Lido,https://www.openstreetmap.org/node/280937168,"Viale della Libertà 11, Angera",Angera,,,21021,45.7777804,8.5648041,hotel,,,,+39 0331 930232,https://www.hotellido.it/,,False,,ok,2026-06-01T14:12:38Z,"https://www.google.com/maps/search/?api=1&query=45.7777804,8.5648041",,,,beach
osm,node/282644094,Il Lido,https://www.openstreetmap.org/node/282644094,Bibione Pineda,Bibione Pineda,,,30028,45.630496,13.0014749,restaurant,,,,,,,False,,ok,2026-06-01T14:12:38Z,"https://www.google.com/maps/search/?api=1&query=45.630496,13.0014749",,,,beach
osm,node/291910335,Bagnoletto,https://www.openstreetmap.org/node/291910335,,,,,,41.7800034,12.3247897,,,,,,,,False,,ok,2026-06-01T14:12:38Z,"https://www.google.com/maps/search/?api=1&query=41.7800034,12.3247897",,,,beach
osm,node/292068640,al Bagno di Nerone,https://www.openstreetmap.org/node/292068640,"Largo del Parlascio 26, Pisa",Pisa,,,56127,43.7219087,10.4019017,restaurant,,,,+39 050 551085,,,False,,ok,2026-06-01T14:12:38Z,"https://www.google.com/maps/search/?api=1&query=43.7219087,10.4019017",,,,beach
osm,node/296381210,San Piero in Bagno,https://www.openstreetmap.org/node/296381210,,,,,,43.8714429,11.9823839,,,,,,,,False,,ok,2026-06-01T14:12:38Z,"https://www.google.com/maps/search/?api=1&query=43.8714429,11.9823839",,,,beach
osm,node/297308354,Bagnore,https://www.openstreetmap.org/node/297308354,,,,,,42.8471532,11.5670871,,,,,,,,False,,ok,2026-06-01T14:12:38Z,"https://www.google.com/maps/search/?api=1&query=42.8471532,11.5670871",,,,beach
osm,node/297651306,Punta dei Bagni,https://www.openstreetmap.org/node/297651306,,,,,,42.5941927,10.0935709,,,,,,,,False,,ok,2026-06-01T14:12:38Z,"https://www.google.com/maps/search/?api=1&query=42.5941927,10.0935709",,,,beach
osm,node/298122031,Bagnolo,https://www.openstreetmap.org/node/298122031,,,,,,44.2417979,12.0945085,,,,,,,,False,,ok,2026-06-01T14:12:38Z,"https://www.google.com/maps/search/?api=1&query=44.2417979,12.0945085",,,,beach
osm,node/298483131,Settebagni,https://www.openstreetmap.org/node/298483131,,,,,,41.9874496,12.5169568,,,,,,,,False,,ok,2026-06-01T14:12:38Z,"https://www.google.com/maps/search/?api=1&query=41.9874496,12.5169568",,,,beach
osm,node/300702058,San Piero in Bagno,https://www.openstreetmap.org/node/300702058,,,,,,43.8576286,11.9769068,,,,,,,,False,,ok,2026-06-01T14:12:38Z,"https://www.google.com/maps/search/?api=1&query=43.8576286,11.9769068",,,,beach
osm,node/302351404,Bagno Tirrenia,https://www.openstreetmap.org/node/302351404,,,,,,43.6301107,10.2888644,beach_resort,,,,,,,False,,ok,2026-06-01T14:12:38Z,"https://www.google.com/maps/search/?api=1&query=43.6301107,10.2888644",,,,beach
osm,node/304978293,Hotel Italia e Lido,https://www.openstreetmap.org/node/304978293,,,,,,44.3482508,9.2343693,hotel,,,,+39 0185 50492,http://www.italiaelido.com/,,False,,ok,2026-06-01T14:12:38Z,"https://www.google.com/maps/search/?api=1&query=44.3482508,9.2343693",,,,beach
osm,node/313341972,Bagno Vignoni,https://www.openstreetmap.org/node/313341972,,,,,,43.0281234,11.6186793,,,,,,,,False,,ok,2026-06-01T14:12:38Z,"https://www.google.com/maps/search/?api=1&query=43.0281234,11.6186793",,,,beach
osm,node/315519326,Bagnile,https://www.openstreetmap.org/node/315519326,,,,,,44.2223108,12.2659668,,,,,,,,False,,ok,2026-06-01T14:12:38Z,"https://www.google.com/maps/search/?api=1&query=44.2223108,12.2659668",,,,beach
osm,node/315519333,Sant'Andrea in Bagnolo,https://www.openstreetmap.org/node/315519333,,,,,,44.2093296,12.2172129,,,,,,,,False,,ok,2026-06-01T14:12:38Z,"https://www.google.com/maps/search/?api=1&query=44.2093296,12.2172129",,,,beach
osm,node/317003746,Bagni,https://www.openstreetmap.org/node/317003746,,,,,,42.7845076,12.111374,,,,,,,,False,,ok,2026-06-01T14:12:38Z,"https://www.google.com/maps/search/?api=1&query=42.7845076,12.111374",,,,beach
osm,node/317573397,Vo' di Bagno,https://www.openstreetmap.org/node/317573397,,,,,,44.9857578,10.8987372,,,,,,,,False,,ok,2026-06-01T14:12:38Z,"https://www.google.com/maps/search/?api=1&query=44.9857578,10.8987372",,,,beach
osm,node/317675354,Bagno,https://www.openstreetmap.org/node/317675354,,,,,,42.7949661,10.2159935,,,,,,,,False,,ok,2026-06-01T14:12:38Z,"https://www.google.com/maps/search/?api=1&query=42.7949661,10.2159935",,,,beach
osm,node/324403836,Fattoria di Bagnolo,https://www.openstreetmap.org/node/324403836,,,,,,43.6940129,11.2290199,,,,,,https://www.bartolinibaldelli.it/vino-e-olio_fattoria-bagnolo_page_it.html,,False,,ok,2026-06-01T14:12:38Z,"https://www.google.com/maps/search/?api=1&query=43.6940129,11.2290199",,,,beach
osm,node/326144360,Via Aurelia Di Levante 113 Stabilimento Stoppani,https://www.openstreetmap.org/node/326144360,,,,,,44.3910158,8.6636456,,,,,,http://www.atp-spa.it/cartina.php,,False,,ok,2026-06-01T14:12:38Z,"https://www.google.com/maps/search/?api=1&query=44.3910158,8.6636456",,,,beach
osm,node/329701822,Bagnoli-Città della Scienza,https://www.openstreetmap.org/node/329701822,,,,,,40.8151034,14.1667879,,,,,,,,False,,ok,2026-06-01T14:12:38Z,"https://www.google.com/maps/search/?api=1&query=40.8151034,14.1667879",,,,beach
osm,node/331325463,Bagno Laura,https://www.openstreetmap.org/node/331325463,,,,,,43.6193818,10.2894626,beach_resort,,,,,,,False,,ok,2026-06-01T14:12:38Z,"https://www.google.com/maps/search/?api=1&query=43.6193818,10.2894626",,,,beach
osm,node/332297712,Lido Centro,https://www.openstreetmap.org/node/332297712,,,,,,41.7332001,12.2841734,,,,,,,,False,,ok,2026-06-01T14:12:38Z,"https://www.google.com/maps/search/?api=1&query=41.7332001,12.2841734",,,,beach
osm,node/332298927,Lido di Ostia,https://www.openstreetmap.org/node/332298927,,,,,,41.7471478,12.2892333,,,,,,,,False,,ok,2026-06-01T14:12:38Z,"https://www.google.com/maps/search/?api=1&query=41.7471478,12.2892333",,,,beach
osm,node/332330157,Lido di Ostia,https://www.openstreetmap.org/node/332330157,,,,,,41.7476106,12.2893048,,,,,,,,False,,ok,2026-06-01T14:12:38Z,"https://www.google.com/maps/search/?api=1&query=41.7476106,12.2893048",,,,beach
osm,node/336483334,Bagnolo-Cantagallo,https://www.openstreetmap.org/node/336483334,,,,,,43.6939729,11.2209676,,,,,,,,False,,ok,2026-06-01T14:12:38Z,"https://www.google.com/maps/search/?api=1&query=43.6939729,11.2209676",,,,beach
osm,node/343032177,Bagni di Mario,https://www.openstreetmap.org/node/343032177,,,,,,44.4814361,11.3358579,,,,,+39 051 226934,https://www.succedesoloabologna.it/conserva-di-valverde/,,False,,ok,2026-06-01T14:12:38Z,"https://www.google.com/maps/search/?api=1&query=44.4814361,11.3358579",,,,beach
osm,node/343686605,"Brescia, Fossa Bagni,Galleria",https://www.openstreetmap.org/node/343686605,,,,,,45.5441338,10.2241686,,,,,,,,False,,ok,2026-06-01T14:12:38Z,"https://www.google.com/maps/search/?api=1&query=45.5441338,10.2241686",,,,beach
osm,node/365617895,Fossa Bagni,https://www.openstreetmap.org/node/365617895,,,,,,45.5442014,10.2236743,bicycle_rental,,,,,,,False,,ok,2026-06-01T14:12:38Z,"https://www.google.com/maps/search/?api=1&query=45.5442014,10.2236743",,,,beach
osm,node/365764724,Lido di Dante,https://www.openstreetmap.org/node/365764724,,,,,,44.3864965,12.3158364,,,,,,,,False,,ok,2026-06-01T14:12:38Z,"https://www.google.com/maps/search/?api=1&query=44.3864965,12.3158364",,,,beach
osm,node/365764726,Lido di Savio,https://www.openstreetmap.org/node/365764726,,,,,,44.3101326,12.3430734,,,,,,,,False,,ok,2026-06-01T14:12:38Z,"https://www.google.com/maps/search/?api=1&query=44.3101326,12.3430734",,,,beach
osm,node/367744922,Lido delle Sirene,https://www.openstreetmap.org/node/367744922,"Viale Primo Vere 2, Pescara",Pescara,,,65129,42.4550649,14.2399548,beach_resort,,,,+39 085 66929,,,False,,ok,2026-06-01T14:12:38Z,"https://www.google.com/maps/search/?api=1&query=42.4550649,14.2399548",,,,beach
osm,node/370305220,Lido di Volano,https://www.openstreetmap.org/node/370305220,,,,,44022,44.7984338,12.2617826,,,,,,,,False,,ok,2026-06-01T14:12:38Z,"https://www.google.com/maps/search/?api=1&query=44.7984338,12.2617826",,,,beach
osm,node/376340171,Lido Conchiglie,https://www.openstreetmap.org/node/376340171,,,,,,40.098679,18.0295522,,,,,,,,False,,ok,2026-06-01T14:12:38Z,"https://www.google.com/maps/search/?api=1&query=40.098679,18.0295522",,,,beach
osm,node/388100723,Lido Nord,https://www.openstreetmap.org/node/388100723,,,,,,41.7404251,12.2845622,,,,,,,,False,,ok,2026-06-01T14:12:38Z,"https://www.google.com/maps/search/?api=1&query=41.7404251,12.2845622",,,,beach
osm,node/388503477,Sabbia d'Oro,https://www.openstreetmap.org/node/388503477,,,,,,42.5100511,14.1692872,beach_resort,,,,,,,False,,ok,2026-06-01T14:12:38Z,"https://www.google.com/maps/search/?api=1&query=42.5100511,14.1692872",,,,beach
osm,node/388583219,Bagni Luca,https://www.openstreetmap.org/node/388583219,,,,,,42.5147555,14.1643368,beach_resort,,,,,,,False,,ok,2026-06-01T14:12:38Z,"https://www.google.com/maps/search/?api=1&query=42.5147555,14.1643368",,,,beach
osm,node/390344562,Dario Padovani,https://www.openstreetmap.org/node/390344562,,,,,,42.5165915,14.1623097,beach_resort,,,,,,,False,,ok,2026-06-01T14:12:38Z,"https://www.google.com/maps/search/?api=1&query=42.5165915,14.1623097",,,,beach
osm,node/395215247,Via di Settebagni,https://www.openstreetmap.org/node/395215247,,,,,,41.9749974,12.5457289,,,,,,,,False,,ok,2026-06-01T14:12:38Z,"https://www.google.com/maps/search/?api=1&query=41.9749974,12.5457289",,,,beach
osm,node/404545030,Selbagnone,https://www.openstreetmap.org/node/404545030,,,,,,44.1738734,12.1101046,,,,,,,,False,,ok,2026-06-01T14:12:38Z,"https://www.google.com/maps/search/?api=1&query=44.1738734,12.1101046",,,,beach
osm,node/404560153,Bagno,https://www.openstreetmap.org/node/404560153,,,,,,44.0662019,11.9700003,,,,,,,,False,,ok,2026-06-01T14:12:38Z,"https://www.google.com/maps/search/?api=1&query=44.0662019,11.9700003",,,,beach
osm,node/408188390,Bagnoli,https://www.openstreetmap.org/node/408188390,,,,,,45.4591092,11.9134416,,,,,,,,False,,ok,2026-06-01T14:12:38Z,"https://www.google.com/maps/search/?api=1&query=45.4591092,11.9134416",,,,beach
osm,node/408304703,Lido di Gallipoli,https://www.openstreetmap.org/node/408304703,,,,,,40.0301037,18.031851,,,,,,,,False,,ok,2026-06-01T14:12:38Z,"https://www.google.com/maps/search/?api=1&query=40.0301037,18.031851",,,,beach
osm,node/413884260,Lido di Lavinio,https://www.openstreetmap.org/node/413884260,,,,,,41.500221,12.583745,,,,,,,,False,,ok,2026-06-01T14:12:38Z,"https://www.google.com/maps/search/?api=1&query=41.500221,12.583745",,,,beach
osm,node/413885445,Lido dei Gigli,https://www.openstreetmap.org/node/413885445,,,,,,41.5097884,12.5785802,,,,,,,,False,,ok,2026-06-01T14:12:38Z,"https://www.google.com/maps/search/?api=1&query=41.5097884,12.5785802",,,,beach
osm,node/413886686,Lido di Enea,https://www.openstreetmap.org/node/413886686,,,,,,41.4956325,12.5875527,,,,,,,,False,,ok,2026-06-01T14:12:38Z,"https://www.google.com/maps/search/?api=1&query=41.4956325,12.5875527",,,,beach
osm,node/413886756,Lido di Cincinnato,https://www.openstreetmap.org/node/413886756,,,,,,41.4833546,12.5962786,,,,,,,,False,,ok,2026-06-01T14:12:38Z,"https://www.google.com/maps/search/?api=1&query=41.4833546,12.5962786",,,,beach
osm,node/413886962,Lido di Marechiaro,https://www.openstreetmap.org/node/413886962,,,,,,41.4709092,12.6070513,,,,,,,,False,,ok,2026-06-01T14:12:38Z,"https://www.google.com/maps/search/?api=1&query=41.4709092,12.6070513",,,,beach
osm,node/413886977,Lido dei Pini,https://www.openstreetmap.org/node/413886977,,,,,,41.5387759,12.5749672,,,,,,,,False,,ok,2026-06-01T14:12:38Z,"https://www.google.com/maps/search/?api=1&query=41.5387759,12.5749672",,,,beach
osm,node/413889262,Lido di Tirrenella,https://www.openstreetmap.org/node/413889262,,,,,,41.5544258,12.5366387,,,,,,,,False,,ok,2026-06-01T14:12:38Z,"https://www.google.com/maps/search/?api=1&query=41.5544258,12.5366387",,,,beach
osm,node/418074985,La Lampara,https://www.openstreetmap.org/node/418074985,"Viale della Riviera 170, Pescara",Pescara,,,65123,42.4930389,14.1861023,beach_resort,,,,,,,False,,ok,2026-06-01T14:12:38Z,"https://www.google.com/maps/search/?api=1&query=42.4930389,14.1861023",,,,beach
osm,node/418075545,Barracuda,https://www.openstreetmap.org/node/418075545,"Viale della Riviera 130, Pescara",Pescara,,,65123,42.4869421,14.1931921,beach_resort,,,,,,,False,,ok,2026-06-01T14:12:38Z,"https://www.google.com/maps/search/?api=1&query=42.4869421,14.1931921",,,,beach
osm,node/418078346,Orsa Maggiore,https://www.openstreetmap.org/node/418078346,"Viale della Riviera 104, Pescara",Pescara,,,65123,42.484117,14.196118,beach_resort,,,,,,06:00-01:30,False,,ok,2026-06-01T14:12:38Z,"https://www.google.com/maps/search/?api=1&query=42.484117,14.196118",,,,beach
osm,node/418368560,Blue Parrot Sea Club,https://www.openstreetmap.org/node/418368560,"Viale della Riviera 112, Pescara",Pescara,,,65123,42.4848193,14.1952477,beach_resort,,,,,,,False,,ok,2026-06-01T14:12:38Z,"https://www.google.com/maps/search/?api=1&query=42.4848193,14.1952477",,,,beach
osm,node/418833533,"Dorf Tirol, Schwimmbad - Tirolo, Lido",https://www.openstreetmap.org/node/418833533,,,,,,46.6830822,11.1613539,,,,,,,,False,,ok,2026-06-01T14:12:38Z,"https://www.google.com/maps/search/?api=1&query=46.6830822,11.1613539",,,,beach
osm,node/426002965,Lo Smeraldo,https://www.openstreetmap.org/node/426002965,"Viale Aldo Moro, Montesilvano",Montesilvano,,,65015,42.4963273,14.1825997,beach_resort,,,,,,,False,,ok,2026-06-01T14:12:38Z,"https://www.google.com/maps/search/?api=1&query=42.4963273,14.1825997",,,,beach
osm,node/426311909,Via Lungolago / parcheggio Lido,https://www.openstreetmap.org/node/426311909,,,,,,46.1407819,10.9631117,,,,,,,,False,,ok,2026-06-01T14:12:38Z,"https://www.google.com/maps/search/?api=1&query=46.1407819,10.9631117",,,,beach
osm,node/426863182,Stella Marina,https://www.openstreetmap.org/node/426863182,"Viale della Riviera 148, Pescara",Pescara,,,65123,42.4905,14.1890395,beach_resort,,,,,,,False,,ok,2026-06-01T14:12:38Z,"https://www.google.com/maps/search/?api=1&query=42.4905,14.1890395",,,,beach
osm,node/426863293,Tahiti,https://www.openstreetmap.org/node/426863293,"Viale della Riviera 144, Pescara",Pescara,,,65123,42.49013,14.1898289,beach_resort,,,,,,,False,,ok,2026-06-01T14:12:38Z,"https://www.google.com/maps/search/?api=1&query=42.49013,14.1898289",,,,beach
osm,node/426863990,Le Antille,https://www.openstreetmap.org/node/426863990,"Viale della Riviera 142, Pescara",Pescara,,,65123,42.4897912,14.1901205,beach_resort,,,,,,,False,,ok,2026-06-01T14:12:38Z,"https://www.google.com/maps/search/?api=1&query=42.4897912,14.1901205",,,,beach
osm,node/426864070,Ammiraglia,https://www.openstreetmap.org/node/426864070,"Viale della Riviera 140, Pescara",Pescara,,,65123,42.4894219,14.1906611,beach_resort,,,,,,,False,,ok,2026-06-01T14:12:38Z,"https://www.google.com/maps/search/?api=1&query=42.4894219,14.1906611",,,,beach
osm,node/426864691,Lido Pinalba,https://www.openstreetmap.org/node/426864691,"Viale della Riviera 134, Pescara",Pescara,,,65123,42.4888022,14.1914049,beach_resort,,,,,,,False,,ok,2026-06-01T14:12:38Z,"https://www.google.com/maps/search/?api=1&query=42.4888022,14.1914049",,,,beach
osm,node/426864870,Acapulco Beach,https://www.openstreetmap.org/node/426864870,"Viale della Riviera 134, Pescara",Pescara,,,65123,42.487922,14.1920799,beach_resort,,,,,,,False,,ok,2026-06-01T14:12:38Z,"https://www.google.com/maps/search/?api=1&query=42.487922,14.1920799",,,,beach
osm,node/426865772,San Marco,https://www.openstreetmap.org/node/426865772,"Viale della Riviera 120, Pescara",Pescara,,,65123,42.4858279,14.194057,beach_resort,,,,,,,False,,ok,2026-06-01T14:12:38Z,"https://www.google.com/maps/search/?api=1&query=42.4858279,14.194057",,,,beach
osm,node/426865853,Baia Papaya,https://www.openstreetmap.org/node/426865853,"Viale della Riviera 118, Pescara",Pescara,,,65123,42.4854921,14.1949585,beach_resort,,,,,,,False,,ok,2026-06-01T14:12:38Z,"https://www.google.com/maps/search/?api=1&query=42.4854921,14.1949585",,,,beach
osm,node/427547578,Lido,https://www.openstreetmap.org/node/427547578,"Via Lungolago 10, Molveno",Molveno,,,38018,46.14127,10.9635213,hotel,,,,+39 0461 586932,http://www.hotel-lido.it/,,False,,ok,2026-06-01T14:12:38Z,"https://www.google.com/maps/search/?api=1&query=46.14127,10.9635213",,,,beach
osm,node/427547636,Parcheggio Lido,https://www.openstreetmap.org/node/427547636,,,,,,46.1403407,10.9638261,,,,,,,,False,,ok,2026-06-01T14:12:38Z,"https://www.google.com/maps/search/?api=1&query=46.1403407,10.9638261",,,,beach
osm,node/427812072,La Racchetta,https://www.openstreetmap.org/node/427812072,,,,,,42.5207502,14.1579516,beach_resort,,,,,,,False,,ok,2026-06-01T14:12:38Z,"https://www.google.com/maps/search/?api=1&query=42.5207502,14.1579516",,,,beach
osm,node/427813653,La Rosa dei Venti,https://www.openstreetmap.org/node/427813653,,,,,,42.5183518,14.1604312,beach_resort,,,,,,,False,,ok,2026-06-01T14:12:38Z,"https://www.google.com/maps/search/?api=1&query=42.5183518,14.1604312",,,,beach
osm,node/428752576,Lido di Jesolo,https://www.openstreetmap.org/node/428752576,,,,,,45.5033028,12.6324412,,,,,,,,False,,ok,2026-06-01T14:12:38Z,"https://www.google.com/maps/search/?api=1&query=45.5033028,12.6324412",,,,beach
osm,node/430404408,Lido di Jesolo,https://www.openstreetmap.org/node/430404408,,,,,,45.5052182,12.6276701,,,,,,,,False,,ok,2026-06-01T14:12:38Z,"https://www.google.com/maps/search/?api=1&query=45.5052182,12.6276701",,,,beach
osm,node/440674097,Pizzeria Alido,https://www.openstreetmap.org/node/440674097,,,,,,42.7655076,10.3971214,restaurant,,,,,,,False,,ok,2026-06-01T14:12:38Z,"https://www.google.com/maps/search/?api=1&query=42.7655076,10.3971214",,,,beach
osm,node/445136622,Azzurra,https://www.openstreetmap.org/node/445136622,,,,,,42.5061862,14.1729359,beach_resort,,,,,,,False,,ok,2026-06-01T14:12:38Z,"https://www.google.com/maps/search/?api=1&query=42.5061862,14.1729359",,,,beach
osm,node/448405471,Al Lido,https://www.openstreetmap.org/node/448405471,,,,,,45.4756519,12.565297,restaurant,,,,,,"Mo-Su,PH 08:00-23:00",False,,ok,2026-06-01T14:12:38Z,"https://www.google.com/maps/search/?api=1&query=45.4756519,12.565297",,,,beach
osm,node/448693838,Bagnomatto,https://www.openstreetmap.org/node/448693838,,,,,,41.2123461,16.5518216,,,,,,,,False,,ok,2026-06-01T14:12:38Z,"https://www.google.com/maps/search/?api=1&query=41.2123461,16.5518216",,,,beach
osm,node/450861527,Bagno di Piano,https://www.openstreetmap.org/node/450861527,,,,,,44.6510437,11.2785635,,,,,,,,False,,ok,2026-06-01T14:12:38Z,"https://www.google.com/maps/search/?api=1&query=44.6510437,11.2785635",,,,beach
osm,node/452629408,Lido di Tarquinia,https://www.openstreetmap.org/node/452629408,,,,,,42.2244702,11.7061958,,,,,,,,False,,ok,2026-06-01T14:12:38Z,"https://www.google.com/maps/search/?api=1&query=42.2244702,11.7061958",,,,beach
osm,node/452921512,Lido Massimo,https://www.openstreetmap.org/node/452921512,,,,,,41.1402696,16.8102461,beach_resort,,,,,,,False,,ok,2026-06-01T14:12:38Z,"https://www.google.com/maps/search/?api=1&query=41.1402696,16.8102461",,,,beach
osm,node/452925429,Lido San Giorgio,https://www.openstreetmap.org/node/452925429,,,,,,41.096645,16.964888,beach_resort,,,,,,,False,,ok,2026-06-01T14:12:38Z,"https://www.google.com/maps/search/?api=1&query=41.096645,16.964888",,,,beach
osm,node/452925430,L'incanto di Grotta Regina,https://www.openstreetmap.org/node/452925430,,,,,,41.089214,16.994841,beach_resort,,,,,,,False,,ok,2026-06-01T14:12:38Z,"https://www.google.com/maps/search/?api=1&query=41.089214,16.994841",,,,beach
osm,node/452925431,Lido Azzurro,https://www.openstreetmap.org/node/452925431,,,,,,41.088459,17.002974,beach_resort,,,,,,,False,,ok,2026-06-01T14:12:38Z,"https://www.google.com/maps/search/?api=1&query=41.088459,17.002974",,,,beach
osm,node/452926593,Hotel Castellinaria,https://www.openstreetmap.org/node/452926593,"S.S. 16 km. 832 225a, Polignano a Mare",Polignano a Mare,,,70044,41.0160127,17.1864367,hotel; beach_resort,,,,+39 080 4240233;+39 329 2390773,https://www.hotelcastellinaria.it/,,False,,ok,2026-06-01T14:12:38Z,"https://www.google.com/maps/search/?api=1&query=41.0160127,17.1864367",,,,beach
osm,node/452926596,Lido Santo Stefano,https://www.openstreetmap.org/node/452926596,,,,,,40.928541,17.3317107,beach_resort,,,,,,,False,,ok,2026-06-01T14:12:38Z,"https://www.google.com/maps/search/?api=1&query=40.928541,17.3317107",,,,beach
osm,node/452926597,Lido Hotel Clio,https://www.openstreetmap.org/node/452926597,,,,,,40.9582321,17.2969222,hotel; beach_resort,,,,,,,False,,ok,2026-06-01T14:12:38Z,"https://www.google.com/maps/search/?api=1&query=40.9582321,17.2969222",,,,beach
osm,node/452926608,Golden Cliff,https://www.openstreetmap.org/node/452926608,,,,,,41.2550407,16.4829801,beach_resort,,,,,,,False,,ok,2026-06-01T14:12:38Z,"https://www.google.com/maps/search/?api=1&query=41.2550407,16.4829801",,,,beach
osm,node/452926610,Villaggio Lido Nettuno,https://www.openstreetmap.org/node/452926610,,,,,,41.2273026,16.5454161,beach_resort,,,,,,,False,,ok,2026-06-01T14:12:38Z,"https://www.google.com/maps/search/?api=1&query=41.2273026,16.5454161",,,,beach
osm,node/458495742,Lido Playa Carratois,https://www.openstreetmap.org/node/458495742,,,,,,36.6563323,15.0736569,beach_resort,,,,+39 392 1526087,,,False,,ok,2026-06-01T14:12:38Z,"https://www.google.com/maps/search/?api=1&query=36.6563323,15.0736569",,,,beach
osm,node/461756025,Monte Bagnolo,https://www.openstreetmap.org/node/461756025,,,,,,44.7273527,9.2049246,,,,,,,,False,,ok,2026-06-01T14:12:38Z,"https://www.google.com/maps/search/?api=1&query=44.7273527,9.2049246",,,,beach
osm,node/463395089,Bagni Bruno,https://www.openstreetmap.org/node/463395089,,,,,,42.5073316,14.1718129,beach_resort,,,,,,,False,,ok,2026-06-01T14:12:38Z,"https://www.google.com/maps/search/?api=1&query=42.5073316,14.1718129",,,,beach
osm,node/465207570,Lido Burrone,https://www.openstreetmap.org/node/465207570,,,,,,37.918136,12.3386297,,,,,,,,False,,ok,2026-06-01T14:12:38Z,"https://www.google.com/maps/search/?api=1&query=37.918136,12.3386297",,,,beach
osm,node/465291474,Lido Rossello,https://www.openstreetmap.org/node/465291474,,,,,,37.2959468,13.4570691,,,,,,,,False,,ok,2026-06-01T14:12:38Z,"https://www.google.com/maps/search/?api=1&query=37.2959468,13.4570691",,,,beach
osm,node/468428052,Località Bagno,https://www.openstreetmap.org/node/468428052,,,,,,42.7946179,10.2158089,,,,,,,,False,,ok,2026-06-01T14:12:38Z,"https://www.google.com/maps/search/?api=1&query=42.7946179,10.2158089",,,,beach
osm,node/469438305,Lido Conchiglie,https://www.openstreetmap.org/node/469438305,,,,,,40.1144939,18.0036134,,,,,,,,False,,ok,2026-06-01T14:12:38Z,"https://www.google.com/maps/search/?api=1&query=40.1144939,18.0036134",,,,beach
osm,node/469456489,Lido Conchiglie,https://www.openstreetmap.org/node/469456489,,,,,,40.1085231,18.0109763,,,,,,,,False,,ok,2026-06-01T14:12:38Z,"https://www.google.com/maps/search/?api=1&query=40.1085231,18.0109763",,,,beach
osm,node/470857158,Torrione Qualido,https://www.openstreetmap.org/node/470857158,,,,,,46.2747046,9.6409121,,,,,,,,False,,ok,2026-06-01T14:12:38Z,"https://www.google.com/maps/search/?api=1&query=46.2747046,9.6409121",,,,beach
osm,node/472598507,Lido Sabbia d'Oro,https://www.openstreetmap.org/node/472598507,,,,,,40.745322,17.7301097,restaurant,,,,,,,False,,ok,2026-06-01T14:12:38Z,"https://www.google.com/maps/search/?api=1&query=40.745322,17.7301097",,,,beach
osm,node/473064493,Hotel Sole,https://www.openstreetmap.org/node/473064493,,,,,,42.511677,14.1676549,beach_resort,,,,,,,False,,ok,2026-06-01T14:12:38Z,"https://www.google.com/maps/search/?api=1&query=42.511677,14.1676549",,,,beach
osm,node/482506577,Bagno Roselle,https://www.openstreetmap.org/node/482506577,,,,,,42.8102983,11.1397105,,,,,,,,False,,ok,2026-06-01T14:12:38Z,"https://www.google.com/maps/search/?api=1&query=42.8102983,11.1397105",,,,beach
osm,node/485607406,Lido di Pavia,https://www.openstreetmap.org/node/485607406,,,,,,45.1907821,9.1249985,,,,,,,,False,,ok,2026-06-01T14:12:38Z,"https://www.google.com/maps/search/?api=1&query=45.1907821,9.1249985",,,,beach
osm,node/488562706,Bagno Rocchette,https://www.openstreetmap.org/node/488562706,"Località Le Rocchette, Castiglione della Pescaia",Castiglione della Pescaia,,,58043,42.776456,10.7931983,restaurant,,,,+39 0564 941040,,,False,,ok,2026-06-01T14:12:38Z,"https://www.google.com/maps/search/?api=1&query=42.776456,10.7931983",,,,beach
osm,node/490239674,Bagnoli Superiore / Gornji konec,https://www.openstreetmap.org/node/490239674,,,,,,45.6188759,13.8653563,,,,,,,,False,,ok,2026-06-01T14:12:38Z,"https://www.google.com/maps/search/?api=1&query=45.6188759,13.8653563",,,,beach
osm,node/492879735,bagno baratti,https://www.openstreetmap.org/node/492879735,,,,,,42.9966359,10.5151349,bar,,,,,,,False,,ok,2026-06-01T14:12:38Z,"https://www.google.com/maps/search/?api=1&query=42.9966359,10.5151349",,,,beach
osm,node/494063439,Bagni di Vinadio,https://www.openstreetmap.org/node/494063439,,,,,,44.2896442,7.0744527,,,,,,,,False,,ok,2026-06-01T14:12:38Z,"https://www.google.com/maps/search/?api=1&query=44.2896442,7.0744527",,,,beach
osm,node/495226420,Bagno a Morbo,https://www.openstreetmap.org/node/495226420,,,,,,43.2276679,10.8869745,,,,,,,,False,,ok,2026-06-01T14:12:38Z,"https://www.google.com/maps/search/?api=1&query=43.2276679,10.8869745",,,,beach
osm,node/495587287,Cascina Validone,https://www.openstreetmap.org/node/495587287,,,,,,45.2173177,8.9834886,,,,,,,,False,,ok,2026-06-01T14:12:38Z,"https://www.google.com/maps/search/?api=1&query=45.2173177,8.9834886",,,,beach
osm,node/501613746,Voglia di Mare,https://www.openstreetmap.org/node/501613746,,,,,,42.5033169,14.1755323,beach_resort,,,,,,,False,,ok,2026-06-01T14:12:38Z,"https://www.google.com/maps/search/?api=1&query=42.5033169,14.1755323",,,,beach
osm,node/501613850,Trocadero,https://www.openstreetmap.org/node/501613850,,,,,,42.5035878,14.175323,beach_resort,,,,,,,False,,ok,2026-06-01T14:12:38Z,"https://www.google.com/maps/search/?api=1&query=42.5035878,14.175323",,,,beach
osm,node/501615028,Stella del Mare,https://www.openstreetmap.org/node/501615028,,,,,,42.5042497,14.1747146,beach_resort,,,,,,,False,,ok,2026-06-01T14:12:38Z,"https://www.google.com/maps/search/?api=1&query=42.5042497,14.1747146",,,,beach
osm,node/501630379,Le Nazioni,https://www.openstreetmap.org/node/501630379,,,,,,42.504796,14.1744996,beach_resort,,,,,,,False,,ok,2026-06-01T14:12:38Z,"https://www.google.com/maps/search/?api=1&query=42.504796,14.1744996",,,,beach
osm,node/501634142,Verdemare,https://www.openstreetmap.org/node/501634142,,,,,,42.5049601,14.1740543,beach_resort,,,,,,,False,,ok,2026-06-01T14:12:38Z,"https://www.google.com/maps/search/?api=1&query=42.5049601,14.1740543",,,,beach
osm,node/501636938,La Vela,https://www.openstreetmap.org/node/501636938,,,,,,42.505322,14.1737968,beach_resort,,,,,,,False,,ok,2026-06-01T14:12:38Z,"https://www.google.com/maps/search/?api=1&query=42.505322,14.1737968",,,,beach
osm,node/501641350,Hotel Nel Pineto,https://www.openstreetmap.org/node/501641350,,,,,,42.5059614,14.1731374,beach_resort,,,,,,,False,,ok,2026-06-01T14:12:38Z,"https://www.google.com/maps/search/?api=1&query=42.5059614,14.1731374",,,,beach
osm,node/503338738,Il Circoletto,https://www.openstreetmap.org/node/503338738,,,,,,37.6616388,12.564466,beach_resort,,,,+39 347 211 5515,https://www.ilcircoletto.net/,,False,,ok,2026-06-01T14:12:38Z,"https://www.google.com/maps/search/?api=1&query=37.6616388,12.564466",,,,beach
osm,node/508495959,Monticchio Bagni,https://www.openstreetmap.org/node/508495959,,,,,,40.9490145,15.5698591,,,,,,,,False,,ok,2026-06-01T14:12:38Z,"https://www.google.com/maps/search/?api=1&query=40.9490145,15.5698591",,,,beach
osm,node/509897781,Bagno,https://www.openstreetmap.org/node/509897781,,,,,,44.6495335,10.7471572,,,,,,,,False,,ok,2026-06-01T14:12:38Z,"https://www.google.com/maps/search/?api=1&query=44.6495335,10.7471572",,,,beach
osm,node/510808273,Maibad - Bagni di Maggio,https://www.openstreetmap.org/node/510808273,,,,,,46.9039582,11.430633,,,,,,,,False,,ok,2026-06-01T14:12:38Z,"https://www.google.com/maps/search/?api=1&query=46.9039582,11.430633",,,,beach
osm,node/511193577,Via Rubens Vesima Bagni Lido,https://www.openstreetmap.org/node/511193577,,,,,,44.4161025,8.7147845,,,,,,,,False,,ok,2026-06-01T14:12:38Z,"https://www.google.com/maps/search/?api=1&query=44.4161025,8.7147845",,,,beach
osm,node/517833293,Bad Froi - Bagni Froy,https://www.openstreetmap.org/node/517833293,,,,,,46.63047,11.634492,,,,,,https://bagnifroy.it/,,False,,ok,2026-06-01T14:12:38Z,"https://www.google.com/maps/search/?api=1&query=46.63047,11.634492",,,,beach
osm,node/522237294,Dosso Sopra il Bagno,https://www.openstreetmap.org/node/522237294,,,,,,46.1997573,10.2712063,,,,,,,,False,,ok,2026-06-01T14:12:38Z,"https://www.google.com/maps/search/?api=1&query=46.1997573,10.2712063",,,,beach
osm,node/524074461,Italia 5 / Lido,https://www.openstreetmap.org/node/524074461,,,,,,44.3909793,8.9684444,,,,,,http://www.amt.genova.it/orari/orari_urbana.asp,,False,,ok,2026-06-01T14:12:38Z,"https://www.google.com/maps/search/?api=1&query=44.3909793,8.9684444",,,,beach
osm,node/524074487,Italia 1 / Lido,https://www.openstreetmap.org/node/524074487,,,,,,44.3911136,8.9685805,,,,,,http://www.amt.genova.it/orari/orari_urbana.asp,,False,,ok,2026-06-01T14:12:38Z,"https://www.google.com/maps/search/?api=1&query=44.3911136,8.9685805",,,,beach
osm,node/529590043,Bärenbadalm - Malga Bagno dell'Orso,https://www.openstreetmap.org/node/529590043,"Vigiljoch 87, Lana",Lana,,,,46.6296642,11.0873019,restaurant,,,,+393389918224,https://baerenbadalm.com,,False,,ok,2026-06-01T14:12:38Z,"https://www.google.com/maps/search/?api=1&query=46.6296642,11.0873019",,,,beach
osm,node/534253646,Bagni di Selva - Bad Ramwald,https://www.openstreetmap.org/node/534253646,,,,,,46.7625814,11.8471288,,,,,,,,False,,ok,2026-06-01T14:12:38Z,"https://www.google.com/maps/search/?api=1&query=46.7625814,11.8471288",,,,beach
osm,node/534914484,Bad Ilstern - Bagni di Ilistra,https://www.openstreetmap.org/node/534914484,,,,,,46.8070593,11.7999454,,,,,,,,False,,ok,2026-06-01T14:12:38Z,"https://www.google.com/maps/search/?api=1&query=46.8070593,11.7999454",,,,beach
osm,node/538937161,Badwirt - Bagni di Valles,https://www.openstreetmap.org/node/538937161,,,,,,46.8180115,11.6434565,,,,,,,,False,,ok,2026-06-01T14:12:38Z,"https://www.google.com/maps/search/?api=1&query=46.8180115,11.6434565",,,,beach
osm,node/540264126,Vahrner Bad - Bagni di Varna,https://www.openstreetmap.org/node/540264126,,,,,,46.75509,11.6333241,,,,,,,,False,,ok,2026-06-01T14:12:38Z,"https://www.google.com/maps/search/?api=1&query=46.75509,11.6333241",,,,beach
osm,node/541135011,Bagnoli di Sopra,https://www.openstreetmap.org/node/541135011,,,,,,45.1848407,11.8834864,,,,,,,,False,,ok,2026-06-01T14:12:38Z,"https://www.google.com/maps/search/?api=1&query=45.1848407,11.8834864",,,,beach
osm,node/544498928,Bad Schalders - Bagni di Scaleres,https://www.openstreetmap.org/node/544498928,,,,,,46.7377558,11.5928292,,,,,,,,False,,ok,2026-06-01T14:12:38Z,"https://www.google.com/maps/search/?api=1&query=46.7377558,11.5928292",,,,beach
osm,node/564376332,Passo Qualido Sud,https://www.openstreetmap.org/node/564376332,,,,,,46.273257,9.6414792,,,,,,,,False,,ok,2026-06-01T14:12:38Z,"https://www.google.com/maps/search/?api=1&query=46.273257,9.6414792",,,,beach
osm,node/564376437,Passo Qualido Nord,https://www.openstreetmap.org/node/564376437,,,,,,46.2753384,9.6408462,,,,,,,,False,,ok,2026-06-01T14:12:38Z,"https://www.google.com/maps/search/?api=1&query=46.2753384,9.6408462",,,,beach
osm,node/565077712,Sant'Andrea Bagni,https://www.openstreetmap.org/node/565077712,,,,,,44.7255176,10.088944,,,,,,,,False,,ok,2026-06-01T14:12:38Z,"https://www.google.com/maps/search/?api=1&query=44.7255176,10.088944",,,,beach
osm,node/566994416,Bagnoro,https://www.openstreetmap.org/node/566994416,,,,,,43.4338885,11.8933629,,,,,,,,False,,ok,2026-06-01T14:12:38Z,"https://www.google.com/maps/search/?api=1&query=43.4338885,11.8933629",,,,beach
osm,node/568544140,Monte Pozzo del Bagno,https://www.openstreetmap.org/node/568544140,,,,,,43.9880292,11.0073565,,,,,,,,False,,ok,2026-06-01T14:12:38Z,"https://www.google.com/maps/search/?api=1&query=43.9880292,11.0073565",,,,beach
osm,node/583281243,Val di Bagno Trek anello 16,https://www.openstreetmap.org/node/583281243,,,,,,43.8293037,11.916938,information,,,,,,,False,,ok,2026-06-01T14:12:38Z,"https://www.google.com/maps/search/?api=1&query=43.8293037,11.916938",,,,beach
osm,node/596119711,Bagnolo,https://www.openstreetmap.org/node/596119711,,,,,,45.272603,10.8922006,,,,,,,,False,,ok,2026-06-01T14:12:38Z,"https://www.google.com/maps/search/?api=1&query=45.272603,10.8922006",,,,beach
osm,node/597264666,Bagno Lomi,https://www.openstreetmap.org/node/597264666,,,,,,43.6237895,10.2887895,beach_resort,,,,,,,False,,ok,2026-06-01T14:12:38Z,"https://www.google.com/maps/search/?api=1&query=43.6237895,10.2887895",,,,beach
osm,node/597264675,Bagno Rosalba,https://www.openstreetmap.org/node/597264675,,,,,,43.6160415,10.2892438,beach_resort,,,,,,,False,,ok,2026-06-01T14:12:38Z,"https://www.google.com/maps/search/?api=1&query=43.6160415,10.2892438",,,,beach
osm,node/597264680,Bagno Meloria,https://www.openstreetmap.org/node/597264680,,,,,,43.614355,10.2893855,beach_resort,,,,,,,False,,ok,2026-06-01T14:12:38Z,"https://www.google.com/maps/search/?api=1&query=43.614355,10.2893855",,,,beach
osm,node/597596785,Bagni Acqua Borra,https://www.openstreetmap.org/node/597596785,,,,,,43.3078091,11.4282007,,,,,,,,False,,ok,2026-06-01T14:12:38Z,"https://www.google.com/maps/search/?api=1&query=43.3078091,11.4282007",,,,beach
osm,node/597673746,Casalbordino Lido,https://www.openstreetmap.org/node/597673746,,,,,,42.1942432,14.6333032,,,,,,,,False,,ok,2026-06-01T14:12:38Z,"https://www.google.com/maps/search/?api=1&query=42.1942432,14.6333032",,,,beach
osm,node/606762258,Lido Barbara Beach,https://www.openstreetmap.org/node/606762258,,,,,,37.4502282,15.0850686,,,,,,,,False,,ok,2026-06-01T14:12:38Z,"https://www.google.com/maps/search/?api=1&query=37.4502282,15.0850686",,,,beach
osm,node/614148173,Bagni di Tivoli,https://www.openstreetmap.org/node/614148173,,,,,,41.9496485,12.7209579,,,,,,,,False,,ok,2026-06-01T14:12:38Z,"https://www.google.com/maps/search/?api=1&query=41.9496485,12.7209579",,,,beach
osm,node/615080186,Settebagni,https://www.openstreetmap.org/node/615080186,,,,,,42.0061004,12.5216453,,,,,,,,False,,ok,2026-06-01T14:12:38Z,"https://www.google.com/maps/search/?api=1&query=42.0061004,12.5216453",,,,beach
osm,node/615769530,Casa Bagnoli,https://www.openstreetmap.org/node/615769530,,,,,,45.0380907,9.2701486,,,,,,,,False,,ok,2026-06-01T14:12:38Z,"https://www.google.com/maps/search/?api=1&query=45.0380907,9.2701486",,,,beach
osm,node/616524771,Rabbi Bagni Sud,https://www.openstreetmap.org/node/616524771,,,,,,46.4077877,10.8118623,,,,,,,,False,,ok,2026-06-01T14:12:38Z,"https://www.google.com/maps/search/?api=1&query=46.4077877,10.8118623",,,,beach
osm,node/627831987,Lido,https://www.openstreetmap.org/node/627831987,Via Niccolò Machiavelli 1,,,,,43.8823675,11.1092674,,,,,,,,False,,ok,2026-06-01T14:12:38Z,"https://www.google.com/maps/search/?api=1&query=43.8823675,11.1092674",,,,beach
osm,node/628979549,Bagni Liggia beach,https://www.openstreetmap.org/node/628979549,,,,,,44.3911053,8.9888389,pub,,,,,,,False,,ok,2026-06-01T14:12:38Z,"https://www.google.com/maps/search/?api=1&query=44.3911053,8.9888389",,,,beach
osm,node/629381735,Bagni Marisa,https://www.openstreetmap.org/node/629381735,,,,,,44.3611403,9.134876,bar,,,,,,,False,,ok,2026-06-01T14:12:38Z,"https://www.google.com/maps/search/?api=1&query=44.3611403,9.134876",,,,beach
osm,node/630752633,Calypso,https://www.openstreetmap.org/node/630752633,"Viale della Riviera, Pescara",Pescara,,,65123,42.4812551,14.2003688,beach_resort,,,,+39 085 74153,,,False,,ok,2026-06-01T14:12:38Z,"https://www.google.com/maps/search/?api=1&query=42.4812551,14.2003688",,,,beach
osm,node/630755922,Istria,https://www.openstreetmap.org/node/630755922,,,,,,42.4807842,14.2010421,beach_resort,,,,,,,False,,ok,2026-06-01T14:12:38Z,"https://www.google.com/maps/search/?api=1&query=42.4807842,14.2010421",,,,beach
osm,node/630758175,Belvedere,https://www.openstreetmap.org/node/630758175,"Viale della Riviera 52, Pescara",Pescara,,,65123,42.4800978,14.2020292,beach_resort,,,,,,,False,,ok,2026-06-01T14:12:38Z,"https://www.google.com/maps/search/?api=1&query=42.4800978,14.2020292",,,,beach
osm,node/630774081,Plinius,https://www.openstreetmap.org/node/630774081,"Viale della Riviera 36, Pescara",Pescara,,,65123,42.477788,14.2053769,beach_resort,,,,+39 085 2056810,,,False,,ok,2026-06-01T14:12:38Z,"https://www.google.com/maps/search/?api=1&query=42.477788,14.2053769",,,,beach
osm,node/630776402,Nettuno,https://www.openstreetmap.org/node/630776402,"Viale della Riviera 30, Pescara",Pescara,,,65123,42.4768444,14.2068097,beach_resort,,,,,,,False,,ok,2026-06-01T14:12:38Z,"https://www.google.com/maps/search/?api=1&query=42.4768444,14.2068097",,,,beach
osm,node/630777652,Croce del Sud,https://www.openstreetmap.org/node/630777652,"Viale della Riviera 28, Pescara",Pescara,,,65123,42.4764377,14.2073408,beach_resort,,,,+39 085 421 9315,,Mo-Su 08:00-24:00,False,,ok,2026-06-01T14:12:38Z,"https://www.google.com/maps/search/?api=1&query=42.4764377,14.2073408",,,,beach
osm,node/630780068,Alcyone,https://www.openstreetmap.org/node/630780068,"Viale della Riviera 24, Pescara",Pescara,,,65123,42.47614,14.2079202,beach_resort,,,,,,,False,,ok,2026-06-01T14:12:38Z,"https://www.google.com/maps/search/?api=1&query=42.47614,14.2079202",,,,beach
osm,node/630781905,Miramare,https://www.openstreetmap.org/node/630781905,"Viale della Riviera 20, Pescara",Pescara,,,65123,42.4756336,14.2085227,beach_resort,,,,,,,False,,ok,2026-06-01T14:12:38Z,"https://www.google.com/maps/search/?api=1&query=42.4756336,14.2085227",,,,beach
osm,node/630783319,Saturno,https://www.openstreetmap.org/node/630783319,"Viale della Riviera 16, Pescara",Pescara,,,65123,42.4752755,14.2090699,beach_resort,,,,,,,False,,ok,2026-06-01T14:12:38Z,"https://www.google.com/maps/search/?api=1&query=42.4752755,14.2090699",,,,beach
osm,node/630787818,La Sirena,https://www.openstreetmap.org/node/630787818,"Viale della Riviera 8, Pescara",Pescara,,,65123,42.4746354,14.2099518,beach_resort,,,,,,,False,,ok,2026-06-01T14:12:38Z,"https://www.google.com/maps/search/?api=1&query=42.4746354,14.2099518",,,,beach
osm,node/650263452,Lido Marini,https://www.openstreetmap.org/node/650263452,,,,,,39.8514617,18.1866583,,,,,,,,False,,ok,2026-06-01T14:12:38Z,"https://www.google.com/maps/search/?api=1&query=39.8514617,18.1866583",,,,beach
osm,node/655166581,Il Veliero,https://www.openstreetmap.org/node/655166581,,,,,,42.497261,14.181698,beach_resort,,,,,,,False,,ok,2026-06-01T14:12:38Z,"https://www.google.com/maps/search/?api=1&query=42.497261,14.181698",,,,beach
osm,node/655169075,La Bussola,https://www.openstreetmap.org/node/655169075,,,,,,42.5005833,14.1781559,beach_resort,,,,,,,False,,ok,2026-06-01T14:12:38Z,"https://www.google.com/maps/search/?api=1&query=42.5005833,14.1781559",,,,beach
osm,node/655169080,7 Bello Beach,https://www.openstreetmap.org/node/655169080,,,,,,42.5014415,14.1775352,beach_resort,,,,,,,False,,ok,2026-06-01T14:12:38Z,"https://www.google.com/maps/search/?api=1&query=42.5014415,14.1775352",,,,beach
osm,node/655169417,La Saturnia,https://www.openstreetmap.org/node/655169417,,,,,,42.5017579,14.1772133,beach_resort,,,,,,,False,,ok,2026-06-01T14:12:38Z,"https://www.google.com/maps/search/?api=1&query=42.5017579,14.1772133",,,,beach
osm,node/655170023,Sporting,https://www.openstreetmap.org/node/655170023,,,,,,42.5031508,14.1757013,beach_resort,,,,,,,False,,ok,2026-06-01T14:12:38Z,"https://www.google.com/maps/search/?api=1&query=42.5031508,14.1757013",,,,beach
osm,node/660616043,Union Lido Information Centre,https://www.openstreetmap.org/node/660616043,,,,,,45.4655651,12.5308343,information,,,,,,,False,,ok,2026-06-01T14:12:38Z,"https://www.google.com/maps/search/?api=1&query=45.4655651,12.5308343",,,,beach
osm,node/660618900,Art & Park Hotel Union Lido,https://www.openstreetmap.org/node/660618900,,,,,,45.4679654,12.5310838,parking,,,,,,,False,,ok,2026-06-01T14:12:38Z,"https://www.google.com/maps/search/?api=1&query=45.4679654,12.5310838",,,,beach
osm,node/660623169,Lido 55,https://www.openstreetmap.org/node/660623169,,,,,,45.4619027,12.5244854,bar,,,,,,,False,,ok,2026-06-01T14:12:38Z,"https://www.google.com/maps/search/?api=1&query=45.4619027,12.5244854",,,,beach
osm,node/663074278,Bagnoli-Agnano Terme,https://www.openstreetmap.org/node/663074278,,,,,,40.81941,14.1666654,,,,,,,,False,,ok,2026-06-01T14:12:38Z,"https://www.google.com/maps/search/?api=1&query=40.81941,14.1666654",,,,beach
osm,node/685963189,Lido di Latina,https://www.openstreetmap.org/node/685963189,,,,,,41.4163427,12.8434583,,,,,,,,False,,ok,2026-06-01T14:12:38Z,"https://www.google.com/maps/search/?api=1&query=41.4163427,12.8434583",,,,beach
osm,node/687085600,Lido Valerio,https://www.openstreetmap.org/node/687085600,,,,,,41.3670276,16.1726588,beach_resort,,,,,,,False,,ok,2026-06-01T14:12:38Z,"https://www.google.com/maps/search/?api=1&query=41.3670276,16.1726588",,,,beach
osm,node/696506086,Lido Cappuccini,https://www.openstreetmap.org/node/696506086,,,,,,45.445096,10.6827698,cafe,,,,,,,False,,ok,2026-06-01T14:12:38Z,"https://www.google.com/maps/search/?api=1&query=45.445096,10.6827698",,,,beach
osm,node/697073950,Pegli 1 / Lido,https://www.openstreetmap.org/node/697073950,,,,,,44.4240714,8.8033778,,,,,,,,False,,ok,2026-06-01T14:12:38Z,"https://www.google.com/maps/search/?api=1&query=44.4240714,8.8033778",,,,beach
osm,node/700106728,Fontana del Bagno,https://www.openstreetmap.org/node/700106728,,,,,,40.9951636,15.6515381,fountain,,,,,,,False,,ok,2026-06-01T14:12:38Z,"https://www.google.com/maps/search/?api=1&query=40.9951636,15.6515381",,,,beach
osm,node/701102295,Bagni Ondina,https://www.openstreetmap.org/node/701102295,,,,,,44.1692561,8.3471445,restaurant,,,,,,,False,,ok,2026-06-01T14:12:38Z,"https://www.google.com/maps/search/?api=1&query=44.1692561,8.3471445",,,,beach
osm,node/706966059,Bagno Oreste,https://www.openstreetmap.org/node/706966059,,,,,,44.272745,12.3549638,beach_resort,,,,,,,False,,ok,2026-06-01T14:12:38Z,"https://www.google.com/maps/search/?api=1&query=44.272745,12.3549638",,,,beach
osm,node/706966060,Mare e Pineta,https://www.openstreetmap.org/node/706966060,,,,,,44.2720018,12.3555954,beach_resort,,,,,,,False,,ok,2026-06-01T14:12:38Z,"https://www.google.com/maps/search/?api=1&query=44.2720018,12.3555954",,,,beach
osm,node/706966066,Bagno Giorgio Malusi,https://www.openstreetmap.org/node/706966066,,,,,,44.2750404,12.3542026,beach_resort,,,,,,,False,,ok,2026-06-01T14:12:38Z,"https://www.google.com/maps/search/?api=1&query=44.2750404,12.3542026",,,,beach
osm,node/706966078,Bagno Giulianini,https://www.openstreetmap.org/node/706966078,,,,,,44.2757819,12.3538789,beach_resort,,,,,,,False,,ok,2026-06-01T14:12:38Z,"https://www.google.com/maps/search/?api=1&query=44.2757819,12.3538789",,,,beach
osm,node/708539353,Lido Azzuro,https://www.openstreetmap.org/node/708539353,,,,,,40.2827419,14.9461054,cafe,,,,,,,False,,ok,2026-06-01T14:12:38Z,"https://www.google.com/maps/search/?api=1&query=40.2827419,14.9461054",,,,beach
osm,node/725431710,Hotel Lido,https://www.openstreetmap.org/node/725431710,"Via Della Colletta 64, Gargnano",Gargnano,,,25084,45.6806951,10.654485,hotel,,,,,,,False,,ok,2026-06-01T14:12:38Z,"https://www.google.com/maps/search/?api=1&query=45.6806951,10.654485",,,,beach
osm,node/729785662,Bagni di Petriolo,https://www.openstreetmap.org/node/729785662,,,,,,43.0803293,11.2994896,,,,,,,,False,,ok,2026-06-01T14:12:38Z,"https://www.google.com/maps/search/?api=1&query=43.0803293,11.2994896",,,,beach
osm,node/743382268,Palidoro,https://www.openstreetmap.org/node/743382268,,,,,,41.9294655,12.1780464,,,,,,,,False,,ok,2026-06-01T14:12:38Z,"https://www.google.com/maps/search/?api=1&query=41.9294655,12.1780464",,,,beach
osm,node/745996607,Lido di Fermo,https://www.openstreetmap.org/node/745996607,,,,,,43.1991424,13.7903729,,,,,,,,False,,ok,2026-06-01T14:12:38Z,"https://www.google.com/maps/search/?api=1&query=43.1991424,13.7903729",,,,beach
osm,node/747002266,Lido Santa Maria,https://www.openstreetmap.org/node/747002266,,,,,,40.28293,14.9460865,cafe,,,,,,,False,,ok,2026-06-01T14:12:38Z,"https://www.google.com/maps/search/?api=1&query=40.28293,14.9460865",,,,beach
osm,node/765971165,Bagno Bellavista,https://www.openstreetmap.org/node/765971165,,,,,,44.4379823,12.2989356,bar,,,,,,,False,,ok,2026-06-01T14:12:38Z,"https://www.google.com/maps/search/?api=1&query=44.4379823,12.2989356",,,,beach
osm,node/767079588,Lido di Cernobbio,https://www.openstreetmap.org/node/767079588,,,,,,45.8389837,9.0783175,restaurant,,,,+39 031 4446437,https://www.lidodicernobbio.com/,,False,,ok,2026-06-01T14:12:38Z,"https://www.google.com/maps/search/?api=1&query=45.8389837,9.0783175",,,,beach
osm,node/777991532,Civita di Bagno,https://www.openstreetmap.org/node/777991532,,,,,,42.3090348,13.4441697,,,,,,,,False,,ok,2026-06-01T14:12:38Z,"https://www.google.com/maps/search/?api=1&query=42.3090348,13.4441697",,,,beach
osm,node/778916366,Bagno Umberto,https://www.openstreetmap.org/node/778916366,,,,,,44.2737681,12.3546731,beach_resort,,,,,,,False,,ok,2026-06-01T14:12:38Z,"https://www.google.com/maps/search/?api=1&query=44.2737681,12.3546731",,,,beach
osm,node/778916367,Globus Beach,https://www.openstreetmap.org/node/778916367,,,,,,44.274105,12.3545369,beach_resort,,,,,,,False,,ok,2026-06-01T14:12:38Z,"https://www.google.com/maps/search/?api=1&query=44.274105,12.3545369",,,,beach
osm,node/778916382,Bagno Enzo Malusi,https://www.openstreetmap.org/node/778916382,,,,,,44.2748232,12.3542707,beach_resort,,,,,,,False,,ok,2026-06-01T14:12:38Z,"https://www.google.com/maps/search/?api=1&query=44.2748232,12.3542707",,,,beach
osm,node/781622917,Pizzeria Ristorante Lido degli Ulivi,https://www.openstreetmap.org/node/781622917,,,,,,45.6382239,10.6194108,restaurant,,,,,,"We-Mo,PH 10:00-23:00; Tu off",False,,ok,2026-06-01T14:12:38Z,"https://www.google.com/maps/search/?api=1&query=45.6382239,10.6194108",,,,beach
osm,node/794160146,Stabilimento Giordani,https://www.openstreetmap.org/node/794160146,,,,,,44.9290268,11.3969449,,,,,,,,False,,ok,2026-06-01T14:12:38Z,"https://www.google.com/maps/search/?api=1&query=44.9290268,11.3969449",,,,beach
osm,node/794160173,Stabilimento Giordani,https://www.openstreetmap.org/node/794160173,,,,,,44.9291608,11.3967474,,,,,,,,False,,ok,2026-06-01T14:12:38Z,"https://www.google.com/maps/search/?api=1&query=44.9291608,11.3967474",,,,beach
osm,node/805014131,Bagni,https://www.openstreetmap.org/node/805014131,,,,,,44.3406612,8.4314097,,,,,,,,False,,ok,2026-06-01T14:12:38Z,"https://www.google.com/maps/search/?api=1&query=44.3406612,8.4314097",,,,beach
osm,node/820131698,Bagno Peter Pan,https://www.openstreetmap.org/node/820131698,,,,,,44.4775405,12.2844797,beach_resort,,,,,,,False,,ok,2026-06-01T14:12:38Z,"https://www.google.com/maps/search/?api=1&query=44.4775405,12.2844797",,,,beach
osm,node/838360270,Bagno Oba Oba,https://www.openstreetmap.org/node/838360270,,,,,,44.2590855,12.361069,beach_resort,,,,,,,False,,ok,2026-06-01T14:12:38Z,"https://www.google.com/maps/search/?api=1&query=44.2590855,12.361069",,,,beach
osm,node/838360273,Fantini Club,https://www.openstreetmap.org/node/838360273,Lungomare Grazia Deledda 182,,,,,44.2556311,12.3628925,beach_resort,,,,,,,False,,ok,2026-06-01T14:12:38Z,"https://www.google.com/maps/search/?api=1&query=44.2556311,12.3628925",,,,beach
osm,node/844611880,Lido Macao,https://www.openstreetmap.org/node/844611880,,,,,,37.6630728,12.5595227,beach_resort,,,,+39 0923 651691,,,False,,ok,2026-06-01T14:12:38Z,"https://www.google.com/maps/search/?api=1&query=37.6630728,12.5595227",,,,beach
osm,node/844611952,La Sirenetta,https://www.openstreetmap.org/node/844611952,,,,,,37.66111,12.5666165,beach_resort,,,,+39 349 814 9619,https://m.facebook.com/lidosirenetta.mazara/,,False,,ok,2026-06-01T14:12:38Z,"https://www.google.com/maps/search/?api=1&query=37.66111,12.5666165",,,,beach
osm,node/844613013,Oasi Lido,https://www.openstreetmap.org/node/844613013,,,,,,37.6626166,12.561235,beach_resort,,,,,,,False,,ok,2026-06-01T14:12:38Z,"https://www.google.com/maps/search/?api=1&query=37.6626166,12.561235",,,,beach
osm,node/844613375,Coral Bay,https://www.openstreetmap.org/node/844613375,,,,,,37.6603694,12.5680866,beach_resort,,,,+39 347 913 4633,https://m.facebook.com/coralbaymazara,,False,,ok,2026-06-01T14:12:38Z,"https://www.google.com/maps/search/?api=1&query=37.6603694,12.5680866",,,,beach
osm,node/844613393,Baywatch Lido,https://www.openstreetmap.org/node/844613393,,,,,,37.6632387,12.5583733,beach_resort,,,,,,,False,,ok,2026-06-01T14:12:38Z,"https://www.google.com/maps/search/?api=1&query=37.6632387,12.5583733",,,,beach
osm,node/844613464,Lido Baia Verde,https://www.openstreetmap.org/node/844613464,,,,,,37.6634254,12.5553783,beach_resort,,,,+39 349 776 6881,https://lidobaiaverde.wixsite.com/home,,False,,ok,2026-06-01T14:12:38Z,"https://www.google.com/maps/search/?api=1&query=37.6634254,12.5553783",,,,beach
osm,node/844613725,Lido Fata Morgana,https://www.openstreetmap.org/node/844613725,,,,,,37.6631587,12.5504458,beach_resort,,,,,,,False,,ok,2026-06-01T14:12:38Z,"https://www.google.com/maps/search/?api=1&query=37.6631587,12.5504458",,,,beach
osm,node/844613799,Lido Sole Rosso,https://www.openstreetmap.org/node/844613799,,,,,,37.6634876,12.5527595,beach_resort,,,,,,,False,,ok,2026-06-01T14:12:38Z,"https://www.google.com/maps/search/?api=1&query=37.6634876,12.5527595",,,,beach
osm,node/844787508,Bagnolo,https://www.openstreetmap.org/node/844787508,,,,,,45.4396285,11.6045897,,,,,,,,False,,ok,2026-06-01T14:12:38Z,"https://www.google.com/maps/search/?api=1&query=45.4396285,11.6045897",,,,beach
osm,node/845767086,Sclafani Bagni,https://www.openstreetmap.org/node/845767086,,,,,,37.8197708,13.8585848,,,,,,,,False,,ok,2026-06-01T14:12:38Z,"https://www.google.com/maps/search/?api=1&query=37.8197708,13.8585848",,,,beach
osm,node/845767098,Sclafani Bagni,https://www.openstreetmap.org/node/845767098,,,,,,37.8206131,13.8580686,,,,,,,,False,,ok,2026-06-01T14:12:38Z,"https://www.google.com/maps/search/?api=1&query=37.8206131,13.8580686",,,,beach
osm,node/848216393,Al lido,https://www.openstreetmap.org/node/848216393,"Via San Giuliano 55, Pordenone",Pordenone,,,33170,45.9518592,12.6634239,restaurant,,,,+39 0434208829,,,False,,ok,2026-06-01T14:12:38Z,"https://www.google.com/maps/search/?api=1&query=45.9518592,12.6634239",,,,beach
osm,node/848482442,Nuova MotoCiclidoro,https://www.openstreetmap.org/node/848482442,"Via Valpantena 18/N, Verona",Verona,,,37142,45.4879953,11.0193182,,,,,+390458700094,https://www.motociclidoro.it/,,False,,ok,2026-06-01T14:12:38Z,"https://www.google.com/maps/search/?api=1&query=45.4879953,11.0193182",,,,beach
osm,node/850426777,Bad St. Isidor - Bagni S. Isidoro,https://www.openstreetmap.org/node/850426777,,,,,,46.4812902,11.383799,hotel,,,,,,,False,,ok,2026-06-01T14:12:38Z,"https://www.google.com/maps/search/?api=1&query=46.4812902,11.383799",,,,beach
osm,node/850426779,Bad St. Isidor - Bagni S. Isidoro,https://www.openstreetmap.org/node/850426779,"Via Campegno - Kampennerweg 31, Bolzano - Bozen",Bolzano - Bozen,,,39100,46.4812756,11.3839561,restaurant,,,,,,,False,,ok,2026-06-01T14:12:38Z,"https://www.google.com/maps/search/?api=1&query=46.4812756,11.3839561",,,,beach
osm,node/868893658,Montepaone Lido,https://www.openstreetmap.org/node/868893658,,,,,,38.728542,16.5408673,,,,,,,,False,,ok,2026-06-01T14:12:38Z,"https://www.google.com/maps/search/?api=1&query=38.728542,16.5408673",,,,beach
osm,node/870974835,Nelson,https://www.openstreetmap.org/node/870974835,,,,,,44.7986635,12.2702274,beach_resort,,,,,,,False,,ok,2026-06-01T14:12:38Z,"https://www.google.com/maps/search/?api=1&query=44.7986635,12.2702274",,,,beach
osm,node/873809832,Castello degli Alidosi,https://www.openstreetmap.org/node/873809832,,,,,,44.2123614,11.4976144,,,,,,,,False,,ok,2026-06-01T14:12:38Z,"https://www.google.com/maps/search/?api=1&query=44.2123614,11.4976144",,,,beach
osm,node/875778903,Cormorano,https://www.openstreetmap.org/node/875778903,,,,,,44.8023156,12.2722975,beach_resort,,,,,,,False,,ok,2026-06-01T14:12:38Z,"https://www.google.com/maps/search/?api=1&query=44.8023156,12.2722975",,,,beach
osm,node/878506007,Bagni di Tabiano,https://www.openstreetmap.org/node/878506007,,,,,,44.8057428,10.0176873,,,,,,,,False,,ok,2026-06-01T14:12:38Z,"https://www.google.com/maps/search/?api=1&query=44.8057428,10.0176873",,,,beach
osm,node/878787798,Lido Marra,https://www.openstreetmap.org/node/878787798,,,,,37017,45.5007847,10.7332818,restaurant,,,,,,,False,,ok,2026-06-01T14:12:38Z,"https://www.google.com/maps/search/?api=1&query=45.5007847,10.7332818",,,,beach
osm,node/885855603,Bar Lido,https://www.openstreetmap.org/node/885855603,,,,,,45.5775379,10.7019897,bar,,,,,,,False,,ok,2026-06-01T14:12:38Z,"https://www.google.com/maps/search/?api=1&query=45.5775379,10.7019897",,,,beach
osm,node/890388470,Bagno,https://www.openstreetmap.org/node/890388470,,,,,,45.4096155,11.5757861,,,,,,,,False,,ok,2026-06-01T14:12:38Z,"https://www.google.com/maps/search/?api=1&query=45.4096155,11.5757861",,,,beach
osm,node/894226836,Bagnolo,https://www.openstreetmap.org/node/894226836,,,,,,45.91043,12.2748959,,,,,,,,False,,ok,2026-06-01T14:12:38Z,"https://www.google.com/maps/search/?api=1&query=45.91043,12.2748959",,,,beach
osm,node/921667586,Bagno Luana,https://www.openstreetmap.org/node/921667586,,,,,,43.6151559,10.289423,beach_resort,,,,,,,False,,ok,2026-06-01T14:12:38Z,"https://www.google.com/maps/search/?api=1&query=43.6151559,10.289423",,,,beach
osm,node/921667687,Bagno Nettuno,https://www.openstreetmap.org/node/921667687,,,,,,43.6217366,10.2895244,beach_resort,,,,,,,False,,ok,2026-06-01T14:12:38Z,"https://www.google.com/maps/search/?api=1&query=43.6217366,10.2895244",,,,beach
osm,node/921667704,Bagno Delfino,https://www.openstreetmap.org/node/921667704,,,,,,43.618012,10.2892763,beach_resort,,,,,,,False,,ok,2026-06-01T14:12:38Z,"https://www.google.com/maps/search/?api=1&query=43.618012,10.2892763",,,,beach
osm,node/921667818,Bagno Maddalena,https://www.openstreetmap.org/node/921667818,Viale del Tirreno 48,,,,,43.6188941,10.289322,beach_resort,,,,,https://www.bagnomaddalenatirrenia.it/,,False,,ok,2026-06-01T14:12:38Z,"https://www.google.com/maps/search/?api=1&query=43.6188941,10.289322",,,,beach
osm,node/921667864,Bagno Imperiale,https://www.openstreetmap.org/node/921667864,,,,,,43.6278201,10.2880617,beach_resort,,,,,,,False,,ok,2026-06-01T14:12:38Z,"https://www.google.com/maps/search/?api=1&query=43.6278201,10.2880617",,,,beach
osm,node/922358991,Tirrena,https://www.openstreetmap.org/node/922358991,,,,,,41.4505041,12.6352107,beach_resort,,,,,,,False,,ok,2026-06-01T14:12:38Z,"https://www.google.com/maps/search/?api=1&query=41.4505041,12.6352107",,,,beach
osm,node/922361905,La Quiete,https://www.openstreetmap.org/node/922361905,,,,,,41.4529005,12.640382,beach_resort,,,,,,,False,,ok,2026-06-01T14:12:38Z,"https://www.google.com/maps/search/?api=1&query=41.4529005,12.640382",,,,beach
osm,node/922367360,Fanciulla d'Anzio,https://www.openstreetmap.org/node/922367360,,,,,,41.4455564,12.621565,beach_resort,,,,,,,False,,ok,2026-06-01T14:12:38Z,"https://www.google.com/maps/search/?api=1&query=41.4455564,12.621565",,,,beach
osm,node/922367551,Dea Fortuna,https://www.openstreetmap.org/node/922367551,,,,,,41.4448426,12.6272218,beach_resort,,,,,,,False,,ok,2026-06-01T14:12:38Z,"https://www.google.com/maps/search/?api=1&query=41.4448426,12.6272218",,,,beach
osm,node/922370610,Oasi di Ponente,https://www.openstreetmap.org/node/922370610,,,,,,41.444549,12.6301454,beach_resort,,,,,,,False,,ok,2026-06-01T14:12:38Z,"https://www.google.com/maps/search/?api=1&query=41.444549,12.6301454",,,,beach
osm,node/922371411,Turiddu,https://www.openstreetmap.org/node/922371411,,,,,,41.4445692,12.6298034,beach_resort,,,,,,,False,,ok,2026-06-01T14:12:38Z,"https://www.google.com/maps/search/?api=1&query=41.4445692,12.6298034",,,,beach
osm,node/922371479,Lido di Nerone,https://www.openstreetmap.org/node/922371479,,,,,,41.4449391,12.6235485,beach_resort,,,,,,,False,,ok,2026-06-01T14:12:38Z,"https://www.google.com/maps/search/?api=1&query=41.4449391,12.6235485",,,,beach
osm,node/922372980,Asl RM H,https://www.openstreetmap.org/node/922372980,,,,,,41.4449673,12.6240501,beach_resort,,,,,,,False,,ok,2026-06-01T14:12:38Z,"https://www.google.com/maps/search/?api=1&query=41.4449673,12.6240501",,,,beach
osm,node/923168987,"Brescia, Via Fossabagni,Galleria Speri",https://www.openstreetmap.org/node/923168987,,,,,,45.5446281,10.2245143,,,,,,,,False,,ok,2026-06-01T14:12:38Z,"https://www.google.com/maps/search/?api=1&query=45.5446281,10.2245143",,,,beach
osm,node/925931203,San Maria al Bagno,https://www.openstreetmap.org/node/925931203,,,,,,40.1222449,17.9991368,,,,,,,,False,,ok,2026-06-01T14:12:38Z,"https://www.google.com/maps/search/?api=1&query=40.1222449,17.9991368",,,,beach
osm,node/925931212,Lido Conchiglie,https://www.openstreetmap.org/node/925931212,,,,,,40.1067263,18.0175667,,,,,,,,False,,ok,2026-06-01T14:12:38Z,"https://www.google.com/maps/search/?api=1&query=40.1067263,18.0175667",,,,beach
osm,node/929242096,Badmeisterkofel - Monte dei Bagni,https://www.openstreetmap.org/node/929242096,,,,,,46.7118497,12.1637708,,,,,,,,False,,ok,2026-06-01T14:12:38Z,"https://www.google.com/maps/search/?api=1&query=46.7118497,12.1637708",,,,beach
osm,node/931634937,Nonantola Stabilimento Borsari,https://www.openstreetmap.org/node/931634937,Nonantola,Nonantola,,,,44.6994051,11.0545604,,,,,,,,False,,ok,2026-06-01T14:12:38Z,"https://www.google.com/maps/search/?api=1&query=44.6994051,11.0545604",,,,beach
osm,node/931635022,Nonantola Stabilimento Borsari,https://www.openstreetmap.org/node/931635022,Nonantola,Nonantola,,,,44.6995847,11.0547555,,,,,,,,False,,ok,2026-06-01T14:12:38Z,"https://www.google.com/maps/search/?api=1&query=44.6995847,11.0547555",,,,beach
osm,node/933980872,Bagni Nettuno,https://www.openstreetmap.org/node/933980872,Lungomare degli Artisti 21,,,,,44.3274433,8.5043868,restaurant,,,,,,,False,,ok,2026-06-01T14:12:38Z,"https://www.google.com/maps/search/?api=1&query=44.3274433,8.5043868",,,,beach
osm,node/939118188,Bagni Ducali,https://www.openstreetmap.org/node/939118188,,,,,,44.8259991,11.6308533,bicycle_rental,,,,,,,False,,ok,2026-06-01T14:12:38Z,"https://www.google.com/maps/search/?api=1&query=44.8259991,11.6308533",,,,beach
osm,node/939972840,Bagni diurni comunali di via Paolo Veronese,https://www.openstreetmap.org/node/939972840,"Via Paolo Veronese 8, Trieste",Trieste,,,34144,45.6431677,13.7758557,sauna,,,,+39 040 309370,,,False,,ok,2026-06-01T14:12:38Z,"https://www.google.com/maps/search/?api=1&query=45.6431677,13.7758557",,,,beach
osm,node/945687955,Salus,https://www.openstreetmap.org/node/945687955,,,,,,41.4570449,12.6669365,beach_resort,,,,,,,False,,ok,2026-06-01T14:12:38Z,"https://www.google.com/maps/search/?api=1&query=41.4570449,12.6669365",,,,beach
osm,node/945687988,Le Sirene,https://www.openstreetmap.org/node/945687988,,,,,,41.4568585,12.6654379,beach_resort,,,,,,,False,,ok,2026-06-01T14:12:38Z,"https://www.google.com/maps/search/?api=1&query=41.4568585,12.6654379",,,,beach
osm,node/949540493,Bed and Breakfast Melalidone,https://www.openstreetmap.org/node/949540493,,,,,,40.3826698,9.6904101,hotel,,,,,,,False,,ok,2026-06-01T14:12:38Z,"https://www.google.com/maps/search/?api=1&query=40.3826698,9.6904101",,,,beach
osm,node/960134269,Lido Di Spina Viale Degli Etruschi,https://www.openstreetmap.org/node/960134269,,,,,,44.6416866,12.2465825,,,,,,,,False,,ok,2026-06-01T14:12:38Z,"https://www.google.com/maps/search/?api=1&query=44.6416866,12.2465825",,,,beach
osm,node/960134277,Lido Scacchi - Bar Adriatico,https://www.openstreetmap.org/node/960134277,,,,,,44.7068549,12.2377581,,,,,,,,False,,ok,2026-06-01T14:12:38Z,"https://www.google.com/maps/search/?api=1&query=44.7068549,12.2377581",,,,beach
osm,node/960134278,Lido Spina Viale Puccini,https://www.openstreetmap.org/node/960134278,,,,,,44.63709,12.2506089,,,,,,,,False,,ok,2026-06-01T14:12:38Z,"https://www.google.com/maps/search/?api=1&query=44.63709,12.2506089",,,,beach
osm,node/960134281,Lido Spina La Meridiana,https://www.openstreetmap.org/node/960134281,,,,,,44.6427852,12.2494225,,,,,,,,False,,ok,2026-06-01T14:12:38Z,"https://www.google.com/maps/search/?api=1&query=44.6427852,12.2494225",,,,beach
osm,node/960134283,Lido Estensi Viale Degli Ulivi,https://www.openstreetmap.org/node/960134283,,,,,,44.6629105,12.240785,,,,,,,,False,,ok,2026-06-01T14:12:38Z,"https://www.google.com/maps/search/?api=1&query=44.6629105,12.240785",,,,beach
osm,node/960134288,Lido Spina Bar Del Moro,https://www.openstreetmap.org/node/960134288,,,,,,44.6515834,12.247581,,,,,,,,False,,ok,2026-06-01T14:12:38Z,"https://www.google.com/maps/search/?api=1&query=44.6515834,12.247581",,,,beach
osm,node/960134291,Lido Estensi - Manzoni,https://www.openstreetmap.org/node/960134291,,,,,,44.6717072,12.2421379,,,,,,,,False,,ok,2026-06-01T14:12:38Z,"https://www.google.com/maps/search/?api=1&query=44.6717072,12.2421379",,,,beach
osm,node/960134295,Lido Spina Viale Verdi,https://www.openstreetmap.org/node/960134295,,,,,,44.6388597,12.2527582,,,,,,,,False,,ok,2026-06-01T14:12:38Z,"https://www.google.com/maps/search/?api=1&query=44.6388597,12.2527582",,,,beach
osm,node/960134296,Lido Pomposa - Spina Tour,https://www.openstreetmap.org/node/960134296,,,,,,44.7191688,12.2367176,,,,,,,,False,,ok,2026-06-01T14:12:38Z,"https://www.google.com/maps/search/?api=1&query=44.7191688,12.2367176",,,,beach
osm,node/960134299,Lido degli Scacchi - Alpi Centrali,https://www.openstreetmap.org/node/960134299,,,,,,44.713034,12.237291,,,,,,,,False,,ok,2026-06-01T14:12:38Z,"https://www.google.com/maps/search/?api=1&query=44.713034,12.237291",,,,beach
osm,node/960134304,Lido Estensi Logonovo,https://www.openstreetmap.org/node/960134304,,,,,,44.6606379,12.2428221,,,,,,,,False,,ok,2026-06-01T14:12:38Z,"https://www.google.com/maps/search/?api=1&query=44.6606379,12.2428221",,,,beach
osm,node/960134307,Lido Spina Viale Puccini,https://www.openstreetmap.org/node/960134307,,,,,,44.6368507,12.2506017,,,,,,,,False,,ok,2026-06-01T14:12:38Z,"https://www.google.com/maps/search/?api=1&query=44.6368507,12.2506017",,,,beach
osm,node/960134309,Lido Scacchi - Bar Adriatico,https://www.openstreetmap.org/node/960134309,,,,,,44.7072553,12.2379736,,,,,,,,False,,ok,2026-06-01T14:12:38Z,"https://www.google.com/maps/search/?api=1&query=44.7072553,12.2379736",,,,beach
osm,node/960134310,Lido Estensi Viale Degli Ulivi,https://www.openstreetmap.org/node/960134310,,,,,,44.6627994,12.2406607,,,,,,,,False,,ok,2026-06-01T14:12:38Z,"https://www.google.com/maps/search/?api=1&query=44.6627994,12.2406607",,,,beach
osm,node/960134313,Lido Spina Viale Verdi,https://www.openstreetmap.org/node/960134313,,,,,,44.6385186,12.2526995,,,,,,,,False,,ok,2026-06-01T14:12:38Z,"https://www.google.com/maps/search/?api=1&query=44.6385186,12.2526995",,,,beach
osm,node/960134316,Lido Spina Barracuda,https://www.openstreetmap.org/node/960134316,,,,,,44.6553125,12.2411769,,,,,,,,False,,ok,2026-06-01T14:12:38Z,"https://www.google.com/maps/search/?api=1&query=44.6553125,12.2411769",,,,beach
osm,node/960134319,Lido degli Scacchi,https://www.openstreetmap.org/node/960134319,,,,,44022,44.7079683,12.2387502,,,,,,,,False,,ok,2026-06-01T14:12:38Z,"https://www.google.com/maps/search/?api=1&query=44.7079683,12.2387502",,,,beach
osm,node/960134320,Lido Spina Caravel Gallia,https://www.openstreetmap.org/node/960134320,,,,,,44.6498935,12.2483784,,,,,,,,False,,ok,2026-06-01T14:12:38Z,"https://www.google.com/maps/search/?api=1&query=44.6498935,12.2483784",,,,beach
osm,node/960134325,Lido Spina Caravel-Gallia,https://www.openstreetmap.org/node/960134325,,,,,,44.6498631,12.2482143,,,,,,,,False,,ok,2026-06-01T14:12:38Z,"https://www.google.com/maps/search/?api=1&query=44.6498631,12.2482143",,,,beach
osm,node/960134328,Lido Pomposa - Spina Tour,https://www.openstreetmap.org/node/960134328,,,,,,44.7190442,12.2369156,,,,,,,,False,,ok,2026-06-01T14:12:38Z,"https://www.google.com/maps/search/?api=1&query=44.7190442,12.2369156",,,,beach
osm,node/960134330,Lido Spina Fieramosca,https://www.openstreetmap.org/node/960134330,,,,,,44.6401422,12.2516866,,,,,,,,False,,ok,2026-06-01T14:12:38Z,"https://www.google.com/maps/search/?api=1&query=44.6401422,12.2516866",,,,beach
osm,node/960134334,Lido Di Spina Viale Degli Etruschi-Romea,https://www.openstreetmap.org/node/960134334,,,,,,44.6402516,12.2385912,,,,,,,,False,,ok,2026-06-01T14:12:38Z,"https://www.google.com/maps/search/?api=1&query=44.6402516,12.2385912",,,,beach
osm,node/960134337,Lido Spina Agenzia Brunetti,https://www.openstreetmap.org/node/960134337,,,,,,44.6450369,12.2498956,,,,,,,,False,,ok,2026-06-01T14:12:38Z,"https://www.google.com/maps/search/?api=1&query=44.6450369,12.2498956",,,,beach
osm,node/960134341,Lido Spina Barracuda,https://www.openstreetmap.org/node/960134341,,,,,,44.6549776,12.2409473,,,,,,,,False,,ok,2026-06-01T14:12:38Z,"https://www.google.com/maps/search/?api=1&query=44.6549776,12.2409473",,,,beach
osm,node/960134348,Lido Spina Aroldo,https://www.openstreetmap.org/node/960134348,,,,,,44.6587248,12.244846,,,,,,,,False,,ok,2026-06-01T14:12:38Z,"https://www.google.com/maps/search/?api=1&query=44.6587248,12.244846",,,,beach
osm,node/960134351,Lido Spina La Meridiana,https://www.openstreetmap.org/node/960134351,,,,,,44.6426225,12.249607,,,,,,,,False,,ok,2026-06-01T14:12:38Z,"https://www.google.com/maps/search/?api=1&query=44.6426225,12.249607",,,,beach
osm,node/960134356,Lido Spina Agenzia Brunetti,https://www.openstreetmap.org/node/960134356,,,,,,44.6449584,12.2500724,,,,,,,,False,,ok,2026-06-01T14:12:38Z,"https://www.google.com/maps/search/?api=1&query=44.6449584,12.2500724",,,,beach
osm,node/960134359,Lido Di Spina Viale Degli Etruschi,https://www.openstreetmap.org/node/960134359,,,,,,44.6411918,12.2467898,,,,,,,,False,,ok,2026-06-01T14:12:38Z,"https://www.google.com/maps/search/?api=1&query=44.6411918,12.2467898",,,,beach
osm,node/960134364,Lido Spina Bar Del Moro,https://www.openstreetmap.org/node/960134364,,,,,,44.6516285,12.2477385,,,,,,,,False,,ok,2026-06-01T14:12:38Z,"https://www.google.com/maps/search/?api=1&query=44.6516285,12.2477385",,,,beach
osm,node/960134402,Lido Spina Fieramosca,https://www.openstreetmap.org/node/960134402,,,,,,44.6401746,12.2515151,,,,,,,,False,,ok,2026-06-01T14:12:38Z,"https://www.google.com/maps/search/?api=1&query=44.6401746,12.2515151",,,,beach
osm,node/960134404,Lido degli Scacchi - Alpi Centrali,https://www.openstreetmap.org/node/960134404,,,,,,44.7136105,12.2375671,,,,,,,,False,,ok,2026-06-01T14:12:38Z,"https://www.google.com/maps/search/?api=1&query=44.7136105,12.2375671",,,,beach
osm,node/960134408,Lido Estensi Logonovo,https://www.openstreetmap.org/node/960134408,,,,,,44.6607401,12.2426741,,,,,,,,False,,ok,2026-06-01T14:12:38Z,"https://www.google.com/maps/search/?api=1&query=44.6607401,12.2426741",,,,beach
osm,node/960134420,Lido Estensi Chiesa,https://www.openstreetmap.org/node/960134420,,,,,,44.6667632,12.2404468,,,,,,,,False,,ok,2026-06-01T14:12:38Z,"https://www.google.com/maps/search/?api=1&query=44.6667632,12.2404468",,,,beach
osm,node/960134431,Lido Spina Aroldo,https://www.openstreetmap.org/node/960134431,,,,,,44.6585722,12.2447421,,,,,,,,False,,ok,2026-06-01T14:12:38Z,"https://www.google.com/maps/search/?api=1&query=44.6585722,12.2447421",,,,beach
osm,node/960134437,Bagno Astor,https://www.openstreetmap.org/node/960134437,,,,,,44.6818854,12.240753,,,,,,,,False,,ok,2026-06-01T14:12:38Z,"https://www.google.com/maps/search/?api=1&query=44.6818854,12.240753",,,,beach
osm,node/960134443,Lido Di Spina Viale Degli Etruschi-Romea,https://www.openstreetmap.org/node/960134443,,,,,,44.6403727,12.2383775,,,,,,,,False,,ok,2026-06-01T14:12:38Z,"https://www.google.com/maps/search/?api=1&query=44.6403727,12.2383775",,,,beach
osm,node/960134448,Lido Estensi Chiesa,https://www.openstreetmap.org/node/960134448,,,,,,44.666439,12.2403266,,,,,,,,False,,ok,2026-06-01T14:12:38Z,"https://www.google.com/maps/search/?api=1&query=44.666439,12.2403266",,,,beach
osm,node/960134450,Lido Estensi - Manzoni,https://www.openstreetmap.org/node/960134450,,,,,,44.6716577,12.2426372,,,,,,,,False,,ok,2026-06-01T14:12:38Z,"https://www.google.com/maps/search/?api=1&query=44.6716577,12.2426372",,,,beach
osm,node/960595361,Liboclà,https://www.openstreetmap.org/node/960595361,,,,,,41.6340788,12.4451556,beach_resort,,,,+39 06 9158007,,,False,,ok,2026-06-01T14:12:38Z,"https://www.google.com/maps/search/?api=1&query=41.6340788,12.4451556",,,,beach
osm,node/961377384,Bagnolo,https://www.openstreetmap.org/node/961377384,,,,,,45.323802,11.0494421,,,,,,,,False,,ok,2026-06-01T14:12:38Z,"https://www.google.com/maps/search/?api=1&query=45.323802,11.0494421",,,,beach
osm,node/983478093,Renazzo - Stabilimento,https://www.openstreetmap.org/node/983478093,,,,,,44.7666429,11.3076526,,,,,,,,False,,ok,2026-06-01T14:12:38Z,"https://www.google.com/maps/search/?api=1&query=44.7666429,11.3076526",,,,beach
osm,node/983479048,Renazzo - Stabilimento,https://www.openstreetmap.org/node/983479048,,,,,,44.7663032,11.3076416,,,,,,,,False,,ok,2026-06-01T14:12:38Z,"https://www.google.com/maps/search/?api=1&query=44.7663032,11.3076416",,,,beach
osm,node/985365965,Lido,https://www.openstreetmap.org/node/985365965,,,,,,45.6037159,13.7735292,hotel,,,,,,,False,,ok,2026-06-01T14:12:38Z,"https://www.google.com/maps/search/?api=1&query=45.6037159,13.7735292",,,,beach
osm,node/1037281633,Lido di Bodio Lomnago,https://www.openstreetmap.org/node/1037281633,,,,,,45.7949555,8.7562142,information,,,,,,,False,,ok,2026-06-01T14:12:38Z,"https://www.google.com/maps/search/?api=1&query=45.7949555,8.7562142",,,,beach
osm,node/1067781010,Lido Nazioni Bagno Cris,https://www.openstreetmap.org/node/1067781010,,,,,,44.7419799,12.2437252,,,,,,,,False,,ok,2026-06-01T14:12:38Z,"https://www.google.com/maps/search/?api=1&query=44.7419799,12.2437252",,,,beach
osm,node/1080341196,Garbagnina,https://www.openstreetmap.org/node/1080341196,,,,,,44.7102801,8.7082191,,,,,,,,False,,ok,2026-06-01T14:12:38Z,"https://www.google.com/maps/search/?api=1&query=44.7102801,8.7082191",,,,beach
osm,node/1080412173,Bagno Rosa,https://www.openstreetmap.org/node/1080412173,,,,,,43.6166685,10.2895501,beach_resort,,,,,,,False,,ok,2026-06-01T14:12:38Z,"https://www.google.com/maps/search/?api=1&query=43.6166685,10.2895501",,,,beach
osm,node/1080412249,Bagno Guardia di Finanza ed Accademia Navale,https://www.openstreetmap.org/node/1080412249,,,,,,43.6136832,10.2892891,beach_resort,,,,,,,False,,ok,2026-06-01T14:12:38Z,"https://www.google.com/maps/search/?api=1&query=43.6136832,10.2892891",,,,beach
osm,node/1080412342,Bagno Fiorella,https://www.openstreetmap.org/node/1080412342,,,,,,43.6171003,10.2895741,beach_resort,,,,,,,False,,ok,2026-06-01T14:12:38Z,"https://www.google.com/maps/search/?api=1&query=43.6171003,10.2895741",,,,beach
osm,node/1080412406,Bagno Florida,https://www.openstreetmap.org/node/1080412406,,,,,,43.6211518,10.2893336,beach_resort,,,,,,,False,,ok,2026-06-01T14:12:38Z,"https://www.google.com/maps/search/?api=1&query=43.6211518,10.2893336",,,,beach
osm,node/1096497490,Palidoro stazione,https://www.openstreetmap.org/node/1096497490,,,,,,41.9258659,12.1834771,,,,,,,,False,,ok,2026-06-01T14:12:38Z,"https://www.google.com/maps/search/?api=1&query=41.9258659,12.1834771",,,,beach
osm,node/1101181944,Bagno Vignoni,https://www.openstreetmap.org/node/1101181944,,,,,,43.0282887,11.6250797,,,,,,,,False,,ok,2026-06-01T14:12:38Z,"https://www.google.com/maps/search/?api=1&query=43.0282887,11.6250797",,,,beach
osm,node/1108721191,Lido di Capoliveri,https://www.openstreetmap.org/node/1108721191,,,,,,42.7620666,10.3624942,,,,,,,,False,,ok,2026-06-01T14:12:38Z,"https://www.google.com/maps/search/?api=1&query=42.7620666,10.3624942",,,,beach
osm,node/1119791214,Forgaria - Bagni Anduins,https://www.openstreetmap.org/node/1119791214,,,,,,46.2035067,12.9640482,,,,,,,,False,,ok,2026-06-01T14:12:38Z,"https://www.google.com/maps/search/?api=1&query=46.2035067,12.9640482",,,,beach
osm,node/1131363488,Lido Lago,https://www.openstreetmap.org/node/1131363488,,,,,,40.5517966,14.9057241,,,,,,,,False,,ok,2026-06-01T14:12:38Z,"https://www.google.com/maps/search/?api=1&query=40.5517966,14.9057241",,,,beach
osm,node/1165090098,Lido di Pomposa,https://www.openstreetmap.org/node/1165090098,,,,,44022,44.7164138,12.2385379,,,,,,,,False,,ok,2026-06-01T14:12:38Z,"https://www.google.com/maps/search/?api=1&query=44.7164138,12.2385379",,,,beach
osm,node/1166342882,Settebagni,https://www.openstreetmap.org/node/1166342882,,,,,,42.0062734,12.5199987,,,,,,,,False,,ok,2026-06-01T14:12:38Z,"https://www.google.com/maps/search/?api=1&query=42.0062734,12.5199987",,,,beach
osm,node/1166343047,Settebagni,https://www.openstreetmap.org/node/1166343047,,,,,,42.0062672,12.5201559,,,,,,,,False,,ok,2026-06-01T14:12:38Z,"https://www.google.com/maps/search/?api=1&query=42.0062672,12.5201559",,,,beach
osm,node/1166343271,Settebagni,https://www.openstreetmap.org/node/1166343271,,,,,,42.0062732,12.5200472,,,,,,,,False,,ok,2026-06-01T14:12:38Z,"https://www.google.com/maps/search/?api=1&query=42.0062732,12.5200472",,,,beach
osm,node/1179499343,Bagnolo,https://www.openstreetmap.org/node/1179499343,,,,,,43.9146813,11.0609136,,,,,,,,False,,ok,2026-06-01T14:12:38Z,"https://www.google.com/maps/search/?api=1&query=43.9146813,11.0609136",,,,beach
osm,node/1185809850,Mistral,https://www.openstreetmap.org/node/1185809850,,,,,,43.6400306,10.2867356,beach_resort,,,,,,,False,,ok,2026-06-01T14:12:38Z,"https://www.google.com/maps/search/?api=1&query=43.6400306,10.2867356",,,,beach
osm,node/1215857939,Bagni,https://www.openstreetmap.org/node/1215857939,,,,,,46.4114346,10.9573087,,,,,,,,False,,ok,2026-06-01T14:12:38Z,"https://www.google.com/maps/search/?api=1&query=46.4114346,10.9573087",,,,beach
osm,node/1216620316,Via Rubens Vesima F. Bagni Janua,https://www.openstreetmap.org/node/1216620316,,,,,,44.416209,8.7147565,,,,,,,,False,,ok,2026-06-01T14:12:38Z,"https://www.google.com/maps/search/?api=1&query=44.416209,8.7147565",,,,beach
osm,node/1219644659,Bagno dell'aeronautica,https://www.openstreetmap.org/node/1219644659,,,,,,43.6379648,10.2872657,beach_resort,,,,,,,False,,ok,2026-06-01T14:12:38Z,"https://www.google.com/maps/search/?api=1&query=43.6379648,10.2872657",,,,beach
osm,node/1223817884,Salomonsbrunn - Bagni di Salomone,https://www.openstreetmap.org/node/1223817884,,,,,,46.822953,12.0824655,,,,,,,,False,,ok,2026-06-01T14:12:38Z,"https://www.google.com/maps/search/?api=1&query=46.822953,12.0824655",,,,beach
osm,node/1223818116,Salomonsbrunn - Bagni di Salomone,https://www.openstreetmap.org/node/1223818116,,,,,,46.8224847,12.0826176,,,,,,,,False,,ok,2026-06-01T14:12:38Z,"https://www.google.com/maps/search/?api=1&query=46.8224847,12.0826176",,,,beach
osm,node/1223818355,Salomonsbrunn - Bagni di Salomone,https://www.openstreetmap.org/node/1223818355,,,,,,46.822522,12.0825232,,,,,,,,False,,ok,2026-06-01T14:12:38Z,"https://www.google.com/maps/search/?api=1&query=46.822522,12.0825232",,,,beach
osm,node/1235234909,Bagni di Contursi,https://www.openstreetmap.org/node/1235234909,,,,,,40.6898507,15.2528689,,,,,,,,False,,ok,2026-06-01T14:12:38Z,"https://www.google.com/maps/search/?api=1&query=40.6898507,15.2528689",,,,beach
osm,node/1242168765,Camping lido sabbie d’oro,https://www.openstreetmap.org/node/1242168765,,,,,,41.9050892,15.3533274,camp_site,,,,+39 329 182 0119,,,False,,ok,2026-06-01T14:12:38Z,"https://www.google.com/maps/search/?api=1&query=41.9050892,15.3533274",,https://www.facebook.com/Campingsabbiedoro,,beach
osm,node/1242247182,Lido Sirena,https://www.openstreetmap.org/node/1242247182,,,,,,41.9162408,15.3293846,restaurant,,,,,,,False,,ok,2026-06-01T14:12:38Z,"https://www.google.com/maps/search/?api=1&query=41.9162408,15.3293846",,,,beach
osm,node/1255272160,Lido San Giovanni,https://www.openstreetmap.org/node/1255272160,,,,,,40.5719125,8.3186447,,,,,,,,False,,ok,2026-06-01T14:12:38Z,"https://www.google.com/maps/search/?api=1&query=40.5719125,8.3186447",,,,beach
osm,node/1260514271,Lido Azzurro,https://www.openstreetmap.org/node/1260514271,,,,,,39.0463859,17.14586,,,,,,,,False,,ok,2026-06-01T14:12:38Z,"https://www.google.com/maps/search/?api=1&query=39.0463859,17.14586",,,,beach
osm,node/1262184724,Stabilimento GTT Tortona,https://www.openstreetmap.org/node/1262184724,,,,,,45.0742599,7.7053574,,,,,,,,False,,ok,2026-06-01T14:12:38Z,"https://www.google.com/maps/search/?api=1&query=45.0742599,7.7053574",,,,beach
osm,node/1262189469,Scarmagno (SP82-Stabilimento),https://www.openstreetmap.org/node/1262189469,,,,,,45.3798477,7.8576641,,,,,,,,False,,ok,2026-06-01T14:12:38Z,"https://www.google.com/maps/search/?api=1&query=45.3798477,7.8576641",,,,beach
osm,node/1262195004,Scarmagno (SP82-Stabilimento),https://www.openstreetmap.org/node/1262195004,,,,,,45.3798482,7.8574252,,,,,,,,False,,ok,2026-06-01T14:12:38Z,"https://www.google.com/maps/search/?api=1&query=45.3798482,7.8574252",,,,beach
osm,node/1262195691,Ivrea (v. Cigliano/casc. Bagnod),https://www.openstreetmap.org/node/1262195691,,,,,,45.4579555,7.907567,,,,,,,,False,,ok,2026-06-01T14:12:38Z,"https://www.google.com/maps/search/?api=1&query=45.4579555,7.907567",,,,beach
osm,node/1262196903,Stabilimento GTT Venaria,https://www.openstreetmap.org/node/1262196903,,,,,,45.1159097,7.6535577,,,,,,,,False,,ok,2026-06-01T14:12:38Z,"https://www.google.com/maps/search/?api=1&query=45.1159097,7.6535577",,,,beach
osm,node/1262204674,Stabilimento GTT Tortona,https://www.openstreetmap.org/node/1262204674,,,,,,45.0747955,7.7051461,,,,,,,,False,,ok,2026-06-01T14:12:38Z,"https://www.google.com/maps/search/?api=1&query=45.0747955,7.7051461",,,,beach
osm,node/1262212410,Stabilimento GTT Venaria,https://www.openstreetmap.org/node/1262212410,,,,,,45.1157088,7.6535882,,,,,,,,False,,ok,2026-06-01T14:12:38Z,"https://www.google.com/maps/search/?api=1&query=45.1157088,7.6535882",,,,beach
osm,node/1263997534,Bagnolo,https://www.openstreetmap.org/node/1263997534,,,,,,42.6312512,13.2316352,,,,,,,,False,,ok,2026-06-01T14:12:38Z,"https://www.google.com/maps/search/?api=1&query=42.6312512,13.2316352",,,,beach
osm,node/1264080931,Lido,https://www.openstreetmap.org/node/1264080931,,,,,,46.019798,8.6793325,restaurant,,,,,,,False,,ok,2026-06-01T14:12:38Z,"https://www.google.com/maps/search/?api=1&query=46.019798,8.6793325",,,,beach
osm,node/1264989524,Bagnoy,https://www.openstreetmap.org/node/1264989524,,,,,,45.8113462,7.5665918,,,,,,,,False,,ok,2026-06-01T14:12:38Z,"https://www.google.com/maps/search/?api=1&query=45.8113462,7.5665918",,,,beach
osm,node/1267021666,Bagni,https://www.openstreetmap.org/node/1267021666,,,,,,44.2053626,9.9619675,,,,,,,,False,,ok,2026-06-01T14:12:38Z,"https://www.google.com/maps/search/?api=1&query=44.2053626,9.9619675",,,,beach
osm,node/1268796618,Bagni Pubblici,https://www.openstreetmap.org/node/1268796618,,,,,,45.7693071,11.7358423,toilets,,,,,,,False,,ok,2026-06-01T14:12:38Z,"https://www.google.com/maps/search/?api=1&query=45.7693071,11.7358423",,,,beach
osm,node/1269194721,Catanzaro Lido,https://www.openstreetmap.org/node/1269194721,,,,,,38.8218097,16.6130039,,,,,,https://www.rfi.it/it/stazioni/catanzaro-lido.html,,False,,ok,2026-06-01T14:12:38Z,"https://www.google.com/maps/search/?api=1&query=38.8218097,16.6130039",,,,beach
osm,node/1271008824,Bagnolo,https://www.openstreetmap.org/node/1271008824,,,,,,45.3571502,11.3732061,,,,,,,,False,,ok,2026-06-01T14:12:38Z,"https://www.google.com/maps/search/?api=1&query=45.3571502,11.3732061",,,,beach
osm,node/1272898196,Principe d'Abruzzo,https://www.openstreetmap.org/node/1272898196,,,,,,42.5668813,14.104896,beach_resort,,,,,,,False,,ok,2026-06-01T14:12:38Z,"https://www.google.com/maps/search/?api=1&query=42.5668813,14.104896",,,,beach
osm,node/1272898240,Lo squalo,https://www.openstreetmap.org/node/1272898240,,,,,,42.5665623,14.1052037,beach_resort,,,,,,,False,,ok,2026-06-01T14:12:38Z,"https://www.google.com/maps/search/?api=1&query=42.5665623,14.1052037",,,,beach
osm,node/1272898257,Moby Dick,https://www.openstreetmap.org/node/1272898257,,,,,,42.5691837,14.1029972,beach_resort,,,,,,,False,,ok,2026-06-01T14:12:38Z,"https://www.google.com/maps/search/?api=1&query=42.5691837,14.1029972",,,,beach
osm,node/1272898283,Ippocampo Beach,https://www.openstreetmap.org/node/1272898283,,,,,,42.5677001,14.1043115,beach_resort,,,,,,,False,,ok,2026-06-01T14:12:38Z,"https://www.google.com/maps/search/?api=1&query=42.5677001,14.1043115",,,,beach
osm,node/1281698192,bagno asciutto di Benikulà,https://www.openstreetmap.org/node/1281698192,,,,,,36.7765523,11.9851071,attraction,,,,,,,False,,ok,2026-06-01T14:12:38Z,"https://www.google.com/maps/search/?api=1&query=36.7765523,11.9851071",,,,beach
osm,node/1285360575,Bagno Luisa,https://www.openstreetmap.org/node/1285360575,,,,,,44.5051798,12.2802615,restaurant,,,,,,,False,,ok,2026-06-01T14:12:38Z,"https://www.google.com/maps/search/?api=1&query=44.5051798,12.2802615",,,,beach
osm,node/1288392449,Bar Lido Ristorante,https://www.openstreetmap.org/node/1288392449,,,,,,46.1357779,9.3627617,restaurant,,,,,,,False,,ok,2026-06-01T14:12:38Z,"https://www.google.com/maps/search/?api=1&query=46.1357779,9.3627617",,,,beach
osm,node/1288809489,Lido Ariston Sales,https://www.openstreetmap.org/node/1288809489,"Via Isola Provaglio 8, Stagno Lombardo",Stagno Lombardo,,,26049,45.071543,10.0466023,restaurant,,,,,,,False,,ok,2026-06-01T14:12:38Z,"https://www.google.com/maps/search/?api=1&query=45.071543,10.0466023",,,,beach
osm,node/1304617253,Bagno Alma,https://www.openstreetmap.org/node/1304617253,,,,,,43.6252342,10.2892803,beach_resort,,,,,,,False,,ok,2026-06-01T14:12:38Z,"https://www.google.com/maps/search/?api=1&query=43.6252342,10.2892803",,,,beach
osm,node/1304617271,Bagno Siria,https://www.openstreetmap.org/node/1304617271,,,,,,43.6245078,10.2886523,beach_resort,,,,,,,False,,ok,2026-06-01T14:12:38Z,"https://www.google.com/maps/search/?api=1&query=43.6245078,10.2886523",,,,beach
osm,node/1304617310,Bagno Vittoria,https://www.openstreetmap.org/node/1304617310,,,,,,43.6260097,10.2890331,beach_resort,,,,,,,False,,ok,2026-06-01T14:12:38Z,"https://www.google.com/maps/search/?api=1&query=43.6260097,10.2890331",,,,beach
osm,node/1304617314,Bagno Europa,https://www.openstreetmap.org/node/1304617314,,,,,,43.6230069,10.2888892,beach_resort,,,,,,,False,,ok,2026-06-01T14:12:38Z,"https://www.google.com/maps/search/?api=1&query=43.6230069,10.2888892",,,,beach
osm,node/1304617315,Bagno Golf,https://www.openstreetmap.org/node/1304617315,,,,,,43.6224064,10.2892724,beach_resort,,,,,,,False,,ok,2026-06-01T14:12:38Z,"https://www.google.com/maps/search/?api=1&query=43.6224064,10.2892724",,,,beach
osm,node/1312466137,Catanzaro Lido,https://www.openstreetmap.org/node/1312466137,,,,,,38.821682,16.6129626,,,,,,,,False,,ok,2026-06-01T14:12:38Z,"https://www.google.com/maps/search/?api=1&query=38.821682,16.6129626",,,,beach
osm,node/1312488909,Catanzaro Lido,https://www.openstreetmap.org/node/1312488909,,,,,,38.8218967,16.6129314,,,,,,,,False,,ok,2026-06-01T14:12:38Z,"https://www.google.com/maps/search/?api=1&query=38.8218967,16.6129314",,,,beach
osm,node/1313418605,Stabilimento balneare Paracadutisti,https://www.openstreetmap.org/node/1313418605,,,,,,43.6128755,10.2895932,beach_resort,,,,,,,False,,ok,2026-06-01T14:12:38Z,"https://www.google.com/maps/search/?api=1&query=43.6128755,10.2895932",,,,beach
osm,node/1318912739,Bad Gfrill - Bagni di Caprile,https://www.openstreetmap.org/node/1318912739,,,,,,46.5387742,11.1273696,,,,,,,,False,,ok,2026-06-01T14:12:38Z,"https://www.google.com/maps/search/?api=1&query=46.5387742,11.1273696",,,,beach
osm,node/1321082504,Ex Stabilimento Angelini,https://www.openstreetmap.org/node/1321082504,,,,,,43.6058205,13.486999,,,,,,,,False,,ok,2026-06-01T14:12:38Z,"https://www.google.com/maps/search/?api=1&query=43.6058205,13.486999",,,,beach
osm,node/1323357960,Bagni di Lusnizza / Lužnice / Lussnitz / Lusniz,https://www.openstreetmap.org/node/1323357960,,,,,,46.5021176,13.3776961,,,,,,,,False,,ok,2026-06-01T14:12:38Z,"https://www.google.com/maps/search/?api=1&query=46.5021176,13.3776961",,,,beach
osm,node/1351501163,Lido Pizzo;Matino,https://www.openstreetmap.org/node/1351501163,,,,,,40.0138562,18.0490563,,,,,,,,False,,ok,2026-06-01T14:12:38Z,"https://www.google.com/maps/search/?api=1&query=40.0138562,18.0490563",,,,beach
osm,node/1354247794,L'Antico Lido,https://www.openstreetmap.org/node/1354247794,,,,,,45.8604213,8.6085033,restaurant,,,,,,,False,,ok,2026-06-01T14:12:38Z,"https://www.google.com/maps/search/?api=1&query=45.8604213,8.6085033",,,,beach
osm,node/1364537294,Le 3 Palme,https://www.openstreetmap.org/node/1364537294,,,,,,42.4949431,14.1840926,beach_resort,,,,,,,False,,ok,2026-06-01T14:12:38Z,"https://www.google.com/maps/search/?api=1&query=42.4949431,14.1840926",,,,beach
osm,node/1365279137,Lido Scacchi - Via Cima Vignola,https://www.openstreetmap.org/node/1365279137,,,,,,44.7080171,12.2347648,,,,,,,,False,,ok,2026-06-01T14:12:38Z,"https://www.google.com/maps/search/?api=1&query=44.7080171,12.2347648",,,,beach
osm,node/1365660716,Bagni del Masino,https://www.openstreetmap.org/node/1365660716,,,,,,46.2449924,9.5976572,,,,,,,,False,,ok,2026-06-01T14:12:38Z,"https://www.google.com/maps/search/?api=1&query=46.2449924,9.5976572",,,,beach
osm,node/1366380487,Lido Scacchi - Via Monte San Michele,https://www.openstreetmap.org/node/1366380487,,,,,,44.7113127,12.2364925,,,,,,,,False,,ok,2026-06-01T14:12:38Z,"https://www.google.com/maps/search/?api=1&query=44.7113127,12.2364925",,,,beach
osm,node/1372462632,Chalet Baloo,https://www.openstreetmap.org/node/1372462632,,,,,,42.984822,13.8732726,beach_resort; restaurant,,,,,,,False,,ok,2026-06-01T14:12:38Z,"https://www.google.com/maps/search/?api=1&query=42.984822,13.8732726",,,,beach
osm,node/1383686816,Playa Solero,https://www.openstreetmap.org/node/1383686816,,,,,,43.6175352,13.4290617,beach_resort,,,,,,,False,,ok,2026-06-01T14:12:38Z,"https://www.google.com/maps/search/?api=1&query=43.6175352,13.4290617",,,,beach
osm,node/1388316497,Bagni Ducali,https://www.openstreetmap.org/node/1388316497,,,,,,44.8257586,11.6305867,attraction,,,,,,,False,,ok,2026-06-01T14:12:38Z,"https://www.google.com/maps/search/?api=1&query=44.8257586,11.6305867",,,,beach
osm,node/1392064096,Bagnolo,https://www.openstreetmap.org/node/1392064096,,,,,,42.8410943,11.6143756,,,,,,,,False,,ok,2026-06-01T14:12:38Z,"https://www.google.com/maps/search/?api=1&query=42.8410943,11.6143756",,,,beach
osm,node/1395428147,Tortoreto Lido,https://www.openstreetmap.org/node/1395428147,,,,,,42.8039627,13.9432708,,,,,,,,False,,ok,2026-06-01T14:12:38Z,"https://www.google.com/maps/search/?api=1&query=42.8039627,13.9432708",,,,beach
osm,node/1402619651,P.le Stazione del Lido (RL),https://www.openstreetmap.org/node/1402619651,,,,,,41.7331696,12.2831541,,,,,,,,False,,ok,2026-06-01T14:12:38Z,"https://www.google.com/maps/search/?api=1&query=41.7331696,12.2831541",,,,beach
osm,node/1402622811,Cardinal Ginnasi/Staz.ne Lido,https://www.openstreetmap.org/node/1402622811,,,,,,41.7322287,12.2820594,,,,,,,,False,,ok,2026-06-01T14:12:38Z,"https://www.google.com/maps/search/?api=1&query=41.7322287,12.2820594",,,,beach
osm,node/1403666069,Lido Tevere,https://www.openstreetmap.org/node/1403666069,,,,,,43.0921553,12.4505995,nightclub,,,,,,,False,,ok,2026-06-01T14:12:38Z,"https://www.google.com/maps/search/?api=1&query=43.0921553,12.4505995",,,,beach
osm,node/1420849997,Torre in Pietra - Palidoro,https://www.openstreetmap.org/node/1420849997,,,,,,41.9242726,12.1833367,,,,,,https://www.rfi.it/it/stazioni/torre-in-pietra-palidoro.html,,False,,ok,2026-06-01T14:12:38Z,"https://www.google.com/maps/search/?api=1&query=41.9242726,12.1833367",,,,beach
osm,node/1429349520,Bagno Haiti,https://www.openstreetmap.org/node/1429349520,,,,,,44.6563819,12.2504325,beach_resort,,,,,,,False,,ok,2026-06-01T14:12:38Z,"https://www.google.com/maps/search/?api=1&query=44.6563819,12.2504325",,,,beach
osm,node/1429349522,Bagno Trocadero,https://www.openstreetmap.org/node/1429349522,,,,,,44.6545484,12.2508648,beach_resort,,,,,,,False,,ok,2026-06-01T14:12:38Z,"https://www.google.com/maps/search/?api=1&query=44.6545484,12.2508648",,,,beach
osm,node/1431727205,Camaiore Lido-Capezzano,https://www.openstreetmap.org/node/1431727205,,,,,,43.9118072,10.2477174,,,,,,https://www.rfi.it/it/stazioni/camaiore-lido-capezzano.html,,False,,ok,2026-06-01T14:12:38Z,"https://www.google.com/maps/search/?api=1&query=43.9118072,10.2477174",,,,beach
osm,node/1432170312,Lido delle Bionde,https://www.openstreetmap.org/node/1432170312,,,,,,45.4988858,10.6072492,bar,,,,,,,False,,ok,2026-06-01T14:12:38Z,"https://www.google.com/maps/search/?api=1&query=45.4988858,10.6072492",,,,beach
osm,node/1432901078,Pizzeria al Lido,https://www.openstreetmap.org/node/1432901078,Via Carpanè 14,,,,31020,45.9848398,12.2162717,restaurant,,,,+390438562030,,,False,,ok,2026-06-01T14:12:38Z,"https://www.google.com/maps/search/?api=1&query=45.9848398,12.2162717",,,,beach
osm,node/1444628543,Gualchiera (Bagnolo),https://www.openstreetmap.org/node/1444628543,,,,,,43.5650302,12.0183436,,,,,,,,False,,ok,2026-06-01T14:12:38Z,"https://www.google.com/maps/search/?api=1&query=43.5650302,12.0183436",,,,beach
osm,node/1446849710,Cavallo Arredo Bagno,https://www.openstreetmap.org/node/1446849710,,,,,,44.4078065,7.4421159,,,,,,,,False,,ok,2026-06-01T14:12:38Z,"https://www.google.com/maps/search/?api=1&query=44.4078065,7.4421159",,,,beach
osm,node/1458100909,Lido 3 stelle,https://www.openstreetmap.org/node/1458100909,,,,,,41.8571463,16.1745499,beach_resort,,,,,,,False,,ok,2026-06-01T14:12:38Z,"https://www.google.com/maps/search/?api=1&query=41.8571463,16.1745499",,,,beach
osm,node/1459907282,Comuffo Renzo arredo bagno,https://www.openstreetmap.org/node/1459907282,Riviera San Nicolò 18,,,,,45.4233323,12.3771811,,,,,,,"Mo-Th 08:00-12:00, 13:00-19:00",False,,ok,2026-06-01T14:12:38Z,"https://www.google.com/maps/search/?api=1&query=45.4233323,12.3771811",,,,beach
osm,node/1460728702,Isolotto Beach Club,https://www.openstreetmap.org/node/1460728702,"Strada Provinciale Panoramica di Porto Ercole 4, Monte Argentario",Monte Argentario,,,58018,42.3860177,11.2083883,beach_resort,,,,+393783041245,https://www.isolottobeachclub.com/,09:00-19:00,False,,ok,2026-06-01T14:12:38Z,"https://www.google.com/maps/search/?api=1&query=42.3860177,11.2083883",https://www.instagram.com/isolottobeachclub/,https://www.facebook.com/IsolottoBeachClub/,,beach
osm,node/1463002296,Bagni Pizzeria Last Beach,https://www.openstreetmap.org/node/1463002296,"Lungomare di Pegli, Genova",Genova,,,,44.4248053,8.8171869,restaurant,,,,,,,False,,ok,2026-06-01T14:12:38Z,"https://www.google.com/maps/search/?api=1&query=44.4248053,8.8171869",,,,beach
osm,node/1463010431,Lido Fusaro,https://www.openstreetmap.org/node/1463010431,,,,,,40.8288802,14.0498377,,,,,,,,False,,ok,2026-06-01T14:12:38Z,"https://www.google.com/maps/search/?api=1&query=40.8288802,14.0498377",,,,beach
osm,node/1468345214,"Area di Sosta ""Stabilimento Termale Pietro D'Abano"" - Battaglia Terme",https://www.openstreetmap.org/node/1468345214,,,,,,45.2881461,11.7823702,information,,,,,,,False,,ok,2026-06-01T14:12:38Z,"https://www.google.com/maps/search/?api=1&query=45.2881461,11.7823702",,,,beach
osm,node/1468355832,Regina Elena - Stabilimento,https://www.openstreetmap.org/node/1468355832,,,,,,38.2027951,13.3262249,,,,,,,,False,,ok,2026-06-01T14:12:38Z,"https://www.google.com/maps/search/?api=1&query=38.2027951,13.3262249",,,,beach
osm,node/1468381389,Casalecchio Lido,https://www.openstreetmap.org/node/1468381389,,,,,,44.4702852,11.2773986,,,,,,,,False,,ok,2026-06-01T14:12:38Z,"https://www.google.com/maps/search/?api=1&query=44.4702852,11.2773986",,,,beach
osm,node/1468381397,Casalecchio Lido,https://www.openstreetmap.org/node/1468381397,,,,,,44.4690514,11.277562,,,,,,,,False,,ok,2026-06-01T14:12:38Z,"https://www.google.com/maps/search/?api=1&query=44.4690514,11.277562",,,,beach
osm,node/1472139082,bagni2,https://www.openstreetmap.org/node/1472139082,,,,,,41.107938,16.879545,toilets,,,,,,,False,,ok,2026-06-01T14:12:38Z,"https://www.google.com/maps/search/?api=1&query=41.107938,16.879545",,,,beach
osm,node/1472139148,bagni1,https://www.openstreetmap.org/node/1472139148,,,,,,41.1085564,16.8792339,toilets,,,,,,,False,,ok,2026-06-01T14:12:38Z,"https://www.google.com/maps/search/?api=1&query=41.1085564,16.8792339",,,,beach
osm,node/1482525663,Ristorante Bagno Valbona,https://www.openstreetmap.org/node/1482525663,,,,,,42.7671588,10.8570371,restaurant,,,,+39 0564 934418,,,False,,ok,2026-06-01T14:12:38Z,"https://www.google.com/maps/search/?api=1&query=42.7671588,10.8570371",,,,beach
