source_platform,source_venue_id,venue_name,venue_url,address,city,latitude,longitude,categories,price_tier,rating,rating_count,phone,website,opening_hours,has_menu,menu_url,extraction_status,retrieved_at,venue_type,nil_quartiere
comune_milano,ckan_PE_26062,Bar Piazza BANDIERA (F.LLI) 13,https://dati.comune.milano.it/dataset/PE/26062,"Piazza BANDIERA (F.LLI) 13, 20129, Milano",Milano,45.470853000000005,9.211369500000018,"g - Bar pasticceria, bar gelateria, cremeria, creperia e simili;e - Bar gastronomici e simili",,,,,,,False,,no_menu,2026-06-02T01:05:34.125009Z,bar,BUENOS AIRES - PORTA VENEZIA - PORTA MONFORTE
comune_milano,ckan_PE_24514,Bar Via MUSSI GIUSEPPE 13,https://dati.comune.milano.it/dataset/PE/24514,"Via MUSSI GIUSEPPE 13, 20154, Milano",Milano,45.48293100000001,9.166477500000013,e - Bar gastronomici e simili,,,,,,,False,,no_menu,2026-06-02T01:05:34.125047Z,bar,SARPI
comune_milano,ckan_PE_26065,Bar Via PALIZZI FILIPPO 119,https://dati.comune.milano.it/dataset/PE/26065,"Via PALIZZI FILIPPO 119, 20157, Milano",Milano,45.508437000000015,9.133658999999994,e - Bar gastronomici e simili;f - Bar caffè e simili,,,,,,,False,,no_menu,2026-06-02T01:05:34.125059Z,cafe,QUARTO OGGIARO - VIALBA - MUSOCCO
comune_milano,ckan_PE_29968,Bar Via PAOLI ALESSANDRO 2,https://dati.comune.milano.it/dataset/PE/29968,"Via PAOLI ALESSANDRO 2, 20124, Milano",Milano,45.485352000000006,9.19551150000001,"f - Bar caffè e simili;g - Bar pasticceria, bar gelateria, cremeria, creperia e simili",,,,,,,False,,no_menu,2026-06-02T01:05:34.125074Z,cafe,PORTA GARIBALDI - PORTA NUOVA
comune_milano,ckan_PE_26071,Bar Largo CROCETTA (DELLA) 2,https://dati.comune.milano.it/dataset/PE/26071,"Largo CROCETTA (DELLA) 2, 20122, Milano",Milano,45.455895,9.195412500000003,e - Bar gastronomici e simili,,,,,,,False,,no_menu,2026-06-02T01:05:34.125082Z,bar,PORTA VIGENTINA - PORTA LODOVICA
comune_milano,ckan_PE_31034,Bar Via BRESSAN (F.LLI) 44,https://dati.comune.milano.it/dataset/PE/31034,"Via BRESSAN (F.LLI) 44, 20126, Milano",Milano,45.510435,9.218722500000013,"c - Tavole calde,self service, fast food e simili;e - Bar gastronomici e simili;f - Bar caffè e simili",,,,,,,False,,no_menu,2026-06-02T01:05:34.125092Z,cafe,GORLA - PRECOTTO
comune_milano,ckan_PE_30471,Bar Viale MONTE NERO 51,https://dati.comune.milano.it/dataset/PE/30471,"Viale MONTE NERO 51, 20135, Milano",Milano,45.458811,9.205956000000015,e - Bar gastronomici e simili,,,,,,,False,,no_menu,2026-06-02T01:05:34.125106Z,bar,GUASTALLA
comune_milano,ckan_PE_30460,Bar Via DE CRISTOFORIS CARLO,https://dati.comune.milano.it/dataset/PE/30460,"Via DE CRISTOFORIS CARLO, 20124, Milano",Milano,45.481638021999984,9.189369745679999,"a - Ristorante, trattoria, osteria con cucina e simili;b - Ristorante, trattoria, osteria con cucina tipica;f - Bar caffè e simili;g - Bar pasticceria, bar gelateria, cremeria, creperia e simili;h - Wine bar, birreria, pub enoteche, caffetteria, sala da te e simili",,,,,,,False,,no_menu,2026-06-02T01:05:34.125115Z,cafe,PORTA GARIBALDI - PORTA NUOVA
comune_milano,ckan_PE_30851,Bar Via FORZE ARMATE (DELLE) 70,https://dati.comune.milano.it/dataset/PE/30851,"Via FORZE ARMATE (DELLE) 70, 20147, Milano",Milano,45.463131000000004,9.12910500000001,"g - Bar pasticceria, bar gelateria, cremeria, creperia e simili",,,,,,,False,,no_menu,2026-06-02T01:05:34.125131Z,cafe,BANDE NERE
comune_milano,ckan_PE_27326,Bar Via GREGORIO (SAN) 40,https://dati.comune.milano.it/dataset/PE/27326,"Via GREGORIO (SAN) 40, 20124, Milano",Milano,45.48091500000001,9.201928500000008,e - Bar gastronomici e simili;f - Bar caffè e simili,,,,,,,False,,no_menu,2026-06-02T01:05:34.125138Z,cafe,STAZIONE CENTRALE - PONTE SEVESO
comune_milano,ckan_PE_24545,Bar Piazza CITTA' DI LOMBARDIA 1,https://dati.comune.milano.it/dataset/PE/24545,"Piazza CITTA' DI LOMBARDIA 1, 20124, Milano",Milano,45.487026000000014,9.19575900000001,e - Bar gastronomici e simili,,,,,,,False,,no_menu,2026-06-02T01:05:34.125147Z,bar,PORTA GARIBALDI - PORTA NUOVA
comune_milano,ckan_PE_24546,Bar Via PIERLUIGI GIOVANNI DA PALESTRINA 32,https://dati.comune.milano.it/dataset/PE/24546,"Via PIERLUIGI GIOVANNI DA PALESTRINA 32, 20124, Milano",Milano,45.487386000000015,9.209794500000015,f - Bar caffè e simili,,,,,,,False,,no_menu,2026-06-02T01:05:34.125153Z,cafe,STAZIONE CENTRALE - PONTE SEVESO
comune_milano,ckan_PE_24602,Bar Via BONFADINI ROMUALDO 101,https://dati.comune.milano.it/dataset/PE/24602,"Via BONFADINI ROMUALDO 101, 20138, Milano",Milano,45.444816,9.246438000000012,e - Bar gastronomici e simili,,,,,,,False,,no_menu,2026-06-02T01:05:34.125163Z,bar,TALIEDO - MORSENCHIO - Q.RE FORLANINI
comune_milano,ckan_PE_25633,Bar Via SANSOVINO 30,https://dati.comune.milano.it/dataset/PE/25633,"Via SANSOVINO 30, 20133, Milano",Milano,45.479096999999996,9.220855499999999,"a - Ristorante, trattoria, osteria con cucina e simili;c - Tavole calde,self service, fast food e simili;f - Bar caffè e simili;i - Disco bar, america bar, locali serali e simili",,,,,,,False,,no_menu,2026-06-02T01:05:34.125170Z,cafe,BUENOS AIRES - PORTA VENEZIA - PORTA MONFORTE
comune_milano,ckan_PE_25634,Bar Ripa PORTA TICINESE (DI) 9,https://dati.comune.milano.it/dataset/PE/25634,"Ripa PORTA TICINESE (DI) 9, 20143, Milano",Milano,45.45197999999999,9.176643000000013,"g - Bar pasticceria, bar gelateria, cremeria, creperia e simili",,,,,,,False,,no_menu,2026-06-02T01:05:34.125177Z,cafe,PORTA TICINESE - CONCHETTA
comune_milano,ckan_PE_25984,Bar Via MONTEBELLO 7,https://dati.comune.milano.it/dataset/PE/25984,"Via MONTEBELLO 7, 20121, Milano",Milano,45.47529900000001,9.18913950000001,f - Bar caffè e simili,,,,,,,False,,no_menu,2026-06-02T01:05:34.125185Z,cafe,BRERA
comune_milano,ckan_PE_24883,Bar Via NEGROLI 23,https://dati.comune.milano.it/dataset/PE/24883,"Via NEGROLI 23, 20133, Milano",Milano,45.46490399999999,9.232312500000006,"a - Ristorante, trattoria, osteria con cucina e simili;d - Pizzerie e simili;f - Bar caffè e simili",,,,,,,False,,no_menu,2026-06-02T01:05:34.125193Z,cafe,CORSICA
comune_milano,ckan_PE_24885,Bar Via GALLARATE 107,https://dati.comune.milano.it/dataset/PE/24885,"Via GALLARATE 107, 20151, Milano",Milano,45.496386,9.1332405,e - Bar gastronomici e simili,,,,,,,False,,no_menu,2026-06-02T01:05:34.125200Z,bar,VILLAPIZZONE - CAGNOLA - BOLDINASCO
comune_milano,ckan_PE_25734,Bar Ripa PORTA TICINESE (DI) 5,https://dati.comune.milano.it/dataset/PE/25734,"Ripa PORTA TICINESE (DI) 5, 20143, Milano",Milano,45.452061000000015,9.177106500000008,e - Bar gastronomici e simili,,,,,,,False,,no_menu,2026-06-02T01:05:34.125214Z,bar,PORTA TICINESE - CONCHETTA
comune_milano,ckan_PE_26410,Bar Viale MONTE SANTO 10,https://dati.comune.milano.it/dataset/PE/26410,"Viale MONTE SANTO 10, 20124, Milano",Milano,45.48010500000001,9.193580999999995,"f - Bar caffè e simili;g - Bar pasticceria, bar gelateria, cremeria, creperia e simili",,,,,,,False,,no_menu,2026-06-02T01:05:34.125222Z,cafe,PORTA GARIBALDI - PORTA NUOVA
comune_milano,ckan_PE_24528,Bar Viale DORIA ANDREA 4,https://dati.comune.milano.it/dataset/PE/24528,"Viale DORIA ANDREA 4, 20124, Milano",Milano,45.484812000000005,9.207054,"a - Ristorante, trattoria, osteria con cucina e simili;f - Bar caffè e simili",,,,,,,False,,no_menu,2026-06-02T01:05:34.125235Z,cafe,STAZIONE CENTRALE - PONTE SEVESO
comune_milano,ckan_PE_25731,Bar Via WASHINGTON GIORGIO 11,https://dati.comune.milano.it/dataset/PE/25731,"Via WASHINGTON GIORGIO 11, 20146, Milano",Milano,45.46472399999999,9.155331000000018,"h - Wine bar, birreria, pub enoteche, caffetteria, sala da te e simili",,,,,,,False,,no_menu,2026-06-02T01:05:34.125241Z,pub,PORTA MAGENTA
comune_milano,ckan_PE_24721,Bar Ripa PORTA TICINESE (DI) 63,https://dati.comune.milano.it/dataset/PE/24721,"Ripa PORTA TICINESE (DI) 63, 20143, Milano",Milano,45.45071100000001,9.170599500000009,"f - Bar caffè e simili;h - Wine bar, birreria, pub enoteche, caffetteria, sala da te e simili",,,,,,,False,,no_menu,2026-06-02T01:05:34.125250Z,cafe,PORTA TICINESE - CONCHETTA
comune_milano,ckan_PE_26275,Bar Via SOLARI ANDREA 23,https://dati.comune.milano.it/dataset/PE/26275,"Via SOLARI ANDREA 23, 20144, Milano",Milano,45.45549,9.164231999999998,e - Bar gastronomici e simili,,,,,,,False,,no_menu,2026-06-02T01:05:34.125257Z,bar,PORTA GENOVA
comune_milano,ckan_PE_24208,Bar Via IMBRIANI (DEGLI) 1,https://dati.comune.milano.it/dataset/PE/24208,"Via IMBRIANI (DEGLI) 1, 20158, Milano",Milano,45.496971,9.170622000000009,f - Bar caffè e simili,,,,,,,False,,no_menu,2026-06-02T01:05:34.125265Z,cafe,BOVISA
comune_milano,ckan_PE_27250,Bar Via BROGGI GIUSEPPE 13,https://dati.comune.milano.it/dataset/PE/27250,"Via BROGGI GIUSEPPE 13, 20129, Milano",Milano,45.47786400000001,9.211036500000006,"a - Ristorante, trattoria, osteria con cucina e simili;g - Bar pasticceria, bar gelateria, cremeria, creperia e simili;h - Wine bar, birreria, pub enoteche, caffetteria, sala da te e simili",,,,,,,False,,no_menu,2026-06-02T01:05:34.125272Z,cafe,BUENOS AIRES - PORTA VENEZIA - PORTA MONFORTE
comune_milano,ckan_PE_24562,Bar Via ANDREOLI DON GIUSEPPE 23,https://dati.comune.milano.it/dataset/PE/24562,"Via ANDREOLI DON GIUSEPPE 23, 20158, Milano",Milano,45.503478,9.1618335,e - Bar gastronomici e simili,,,,,,,False,,no_menu,2026-06-02T01:05:34.125280Z,bar,BOVISA
comune_milano,ckan_PE_24566,Bar Via SCIESA AMATORE 6,https://dati.comune.milano.it/dataset/PE/24566,"Via SCIESA AMATORE 6, 20135, Milano",Milano,45.461331,9.209326500000003,e - Bar gastronomici e simili,,,,,,,False,,no_menu,2026-06-02T01:05:34.125287Z,bar,XXII MARZO
comune_milano,ckan_PE_24570,Bar Viale CAMPANIA 12,https://dati.comune.milano.it/dataset/PE/24570,"Viale CAMPANIA 12, 20133, Milano",Milano,45.463491000000005,9.22421700000001,"e - Bar gastronomici e simili;f - Bar caffè e simili;g - Bar pasticceria, bar gelateria, cremeria, creperia e simili",,,,,,,False,,no_menu,2026-06-02T01:05:34.125295Z,cafe,CORSICA
comune_milano,ckan_PE_24572,Bar Piazzale LOTTO LORENZO 14,https://dati.comune.milano.it/dataset/PE/24572,"Piazzale LOTTO LORENZO 14, 20148, Milano",Milano,45.480636000000004,9.143478000000016,"a - Ristorante, trattoria, osteria con cucina e simili;f - Bar caffè e simili",,,,,,,False,,no_menu,2026-06-02T01:05:34.125302Z,cafe,DE ANGELI - MONTE ROSA
comune_milano,ckan_PE_29021,Bar Via MISSAGLIA (DEI) 13,https://dati.comune.milano.it/dataset/PE/29021,"Via MISSAGLIA (DEI) 13, 20142, Milano",Milano,45.42669000000001,9.178803000000016,"c - Tavole calde,self service, fast food e simili;f - Bar caffè e simili;g - Bar pasticceria, bar gelateria, cremeria, creperia e simili",,,,,,,False,,no_menu,2026-06-02T01:05:34.125313Z,cafe,STADERA - CHIESA ROSSA - Q.RE TORRETTA - CONCA FALLATA
comune_milano,ckan_PE_24581,Bar Viale SABOTINO 13,https://dati.comune.milano.it/dataset/PE/24581,"Viale SABOTINO 13, 20135, Milano",Milano,45.45102600000001,9.198819000000015,"g - Bar pasticceria, bar gelateria, cremeria, creperia e simili",,,,,,,False,,no_menu,2026-06-02T01:05:34.125319Z,cafe,PTA ROMANA
comune_milano,ckan_PE_25992,Bar Via CASSINARI BRUNO 2,https://dati.comune.milano.it/dataset/PE/25992,"Via CASSINARI BRUNO 2, 20138, Milano",Milano,45.43580700000001,9.240831000000014,"f - Bar caffè e simili;c - Tavole calde,self service, fast food e simili",,,,,,,False,,no_menu,2026-06-02T01:05:34.125326Z,cafe,ROGOREDO - SANTA GIULIA
comune_milano,ckan_PE_28259,Bar Via GUARNERI (DEI) 24,https://dati.comune.milano.it/dataset/PE/28259,"Via GUARNERI (DEI) 24, 20141, Milano",Milano,45.42615000000001,9.204349500000006,f - Bar caffè e simili,,,,,,,False,,no_menu,2026-06-02T01:05:34.125333Z,cafe,VIGENTINO - Q.RE FATIMA
comune_milano,ckan_C-PE_12699,Bar Alzaia NAVIGLIO PAVESE 10,https://dati.comune.milano.it/dataset/C-PE/12699,"Alzaia NAVIGLIO PAVESE 10, 20143, Milano",Milano,45.450863999999996,9.177574499999992,"a - Ristorante, trattoria, osteria con cucina e simili;i - Disco bar, america bar, locali serali e simili",,,,,,,False,,no_menu,2026-06-02T01:05:34.125345Z,cocktail_bar,PORTA TICINESE - CONCHETTA
comune_milano,ckan_C-PE_12719,Bar Via GIOIA MELCHIORRE 141,https://dati.comune.milano.it/dataset/C-PE/12719,"Via GIOIA MELCHIORRE 141, 20125, Milano",Milano,45.49518900000001,9.207134999999994,"e - Bar gastronomici e simili;g - Bar pasticceria, bar gelateria, cremeria, creperia e simili;a - Ristorante, trattoria, osteria con cucina e simili",,,,,,,False,,no_menu,2026-06-02T01:05:34.125357Z,bar,MACIACHINI - MAGGIOLINA
comune_milano,ckan_C-PE_12737,Bar Viale BEZZI ERGISTO 82,https://dati.comune.milano.it/dataset/C-PE/12737,"Viale BEZZI ERGISTO 82, 20146, Milano",Milano,45.46058400000001,9.148927500000013,f - Bar caffè e simili,,,,,,,False,,no_menu,2026-06-02T01:05:34.125367Z,cafe,BANDE NERE
comune_milano,ckan_C-PE_13698,Bar Via CADOLINI GIOVANNI 39,https://dati.comune.milano.it/dataset/C-PE/13698,"Via CADOLINI GIOVANNI 39, 20137, Milano",Milano,45.44697600000001,9.221557500000017,e - Bar gastronomici e simili,,,,,,,False,,no_menu,2026-06-02T01:05:34.125377Z,bar,UMBRIA - MOLISE - CALVAIRATE
comune_milano,ckan_C-PE_12138,Bar Via MERAVIGLI 2,https://dati.comune.milano.it/dataset/C-PE/12138,"Via MERAVIGLI 2, 20123, Milano",Milano,45.466002,9.184733999999992,"a - Ristorante, trattoria, osteria con cucina e simili;e - Bar gastronomici e simili;f - Bar caffè e simili",,,,,,,False,,no_menu,2026-06-02T01:05:34.125385Z,cafe,DUOMO
comune_milano,ckan_C-PE_12142,Bar Largo DONEGANI GUIDO 1,https://dati.comune.milano.it/dataset/C-PE/12142,"Largo DONEGANI GUIDO 1, 20121, Milano",Milano,45.47522699999999,9.194373000000013,"a - Ristorante, trattoria, osteria con cucina e simili;c - Tavole calde,self service, fast food e simili;d - Pizzerie e simili;e - Bar gastronomici e simili;h - Wine bar, birreria, pub enoteche, caffetteria, sala da te e simili;f - Bar caffè e simili",,,,,,,False,,no_menu,2026-06-02T01:05:34.125394Z,cafe,BRERA
comune_milano,ckan_C-PE_12163,Bar Via COSTA ANDREA 3,https://dati.comune.milano.it/dataset/C-PE/12163,"Via COSTA ANDREA 3, 20131, Milano",Milano,45.486774,9.218547000000001,e - Bar gastronomici e simili,,,,,,,False,,no_menu,2026-06-02T01:05:34.125401Z,bar,LORETO - CASORETTO - NOLO
comune_milano,ckan_C-PE_12184,Bar Viale MONTE NERO 34,https://dati.comune.milano.it/dataset/C-PE/12184,"Viale MONTE NERO 34, 20135, Milano",Milano,45.455967000000015,9.204975000000019,"a - Ristorante, trattoria, osteria con cucina e simili;h - Wine bar, birreria, pub enoteche, caffetteria, sala da te e simili",,,,,,,False,,no_menu,2026-06-02T01:05:34.125408Z,pub,PTA ROMANA
comune_milano,ckan_C-PE_13198,Bar Piazza EUSTORGIO (SANT') 2,https://dati.comune.milano.it/dataset/C-PE/13198,"Piazza EUSTORGIO (SANT') 2, 20122, Milano",Milano,45.45323100000002,9.180499499999996,"c - Tavole calde,self service, fast food e simili;g - Bar pasticceria, bar gelateria, cremeria, creperia e simili",,,,,,,False,,no_menu,2026-06-02T01:05:34.125417Z,cafe,PORTA TICINESE - CONCA DEL NAVIGLIO
comune_milano,ckan_C-PE_13217,Bar Via ROVIGO 11,https://dati.comune.milano.it/dataset/C-PE/13217,"Via ROVIGO 11, 20132, Milano",Milano,45.50615100000002,9.245780999999994,e - Bar gastronomici e simili;f - Bar caffè e simili,,,,,,,False,,no_menu,2026-06-02T01:05:34.125424Z,cafe,PADOVA - TURRO - CRESCENZAGO
comune_milano,ckan_C-PE_16289,Bar Piazzale ISTRIA 1,https://dati.comune.milano.it/dataset/C-PE/16289,"Piazzale ISTRIA 1, 20159, Milano",Milano,45.501273,9.197226,f - Bar caffè e simili,,,,,,,False,,no_menu,2026-06-02T01:05:34.125430Z,cafe,MACIACHINI - MAGGIOLINA
comune_milano,ckan_PE_30670,Bar Via CANONICA LUIGI 74,https://dati.comune.milano.it/dataset/PE/30670,"Via CANONICA LUIGI 74, 20154, Milano",Milano,45.480654000000015,9.170887499999992,"e - Bar gastronomici e simili;f - Bar caffè e simili;g - Bar pasticceria, bar gelateria, cremeria, creperia e simili",,,,,,,False,,no_menu,2026-06-02T01:05:34.125449Z,cafe,SARPI
comune_milano,ckan_C-PE_17781,Bar Via MURAT GIOACCHINO 70,https://dati.comune.milano.it/dataset/C-PE/17781,"Via MURAT GIOACCHINO 70, 20159, Milano",Milano,45.501750000000015,9.190034999999995,"e - Bar gastronomici e simili;f - Bar caffè e simili;g - Bar pasticceria, bar gelateria, cremeria, creperia e simili",,,,,,,False,,no_menu,2026-06-02T01:05:34.125458Z,cafe,MACIACHINI - MAGGIOLINA
comune_milano,ckan_C-PE_17794,Bar Via MARSALA 2,https://dati.comune.milano.it/dataset/C-PE/17794,"Via MARSALA 2, 20121, Milano",Milano,45.478376999999995,9.187942499999991,"a - Ristorante, trattoria, osteria con cucina e simili;f - Bar caffè e simili",,,,,,,False,,no_menu,2026-06-02T01:05:34.125465Z,cafe,BRERA
comune_milano,ckan_C-PE_17802,Bar Via MARCO (SAN) 2,https://dati.comune.milano.it/dataset/C-PE/17802,"Via MARCO (SAN) 2, 20121, Milano",Milano,45.473535,9.188001000000014,"h - Wine bar, birreria, pub enoteche, caffetteria, sala da te e simili",,,,,,,False,,no_menu,2026-06-02T01:05:34.125474Z,pub,BRERA
comune_milano,ckan_C-PE_17830,Bar Via NEGROLI 39,https://dati.comune.milano.it/dataset/C-PE/17830,"Via NEGROLI 39, 20133, Milano",Milano,45.46616399999999,9.232308000000018,f - Bar caffè e simili;e - Bar gastronomici e simili,,,,,,,False,,no_menu,2026-06-02T01:05:34.125484Z,cafe,CORSICA
comune_milano,ckan_C-PE_17854,Bar Via BIANCHI MOSE' 103,https://dati.comune.milano.it/dataset/C-PE/17854,"Via BIANCHI MOSE' 103, 20149, Milano",Milano,45.476145,9.144135000000006,f - Bar caffè e simili,,,,,,,False,,no_menu,2026-06-02T01:05:34.125492Z,cafe,DE ANGELI - MONTE ROSA
comune_milano,ckan_PE_25345,Bar Via PRESTINARI MARCELLO 5,https://dati.comune.milano.it/dataset/PE/25345,"Via PRESTINARI MARCELLO 5, 20158, Milano",Milano,45.50079600000001,9.166778999999991,"g - Bar pasticceria, bar gelateria, cremeria, creperia e simili",,,,,,,False,,no_menu,2026-06-02T01:05:34.125499Z,cafe,BOVISA
comune_milano,ckan_C-PE_13726,Bar Viale ABRUZZI 33,https://dati.comune.milano.it/dataset/C-PE/13726,"Viale ABRUZZI 33, 20131, Milano",Milano,45.47862000000001,9.216801000000004,"h - Wine bar, birreria, pub enoteche, caffetteria, sala da te e simili",,,,,,,False,,no_menu,2026-06-02T01:05:34.125506Z,pub,BUENOS AIRES - PORTA VENEZIA - PORTA MONFORTE
comune_milano,ckan_PE_30805,Bar Via VENINI GIULIO E CORRADO 52,https://dati.comune.milano.it/dataset/PE/30805,"Via VENINI GIULIO E CORRADO 52, 20127, Milano",Milano,45.49170599999999,9.216193500000003,e - Bar gastronomici e simili;f - Bar caffè e simili,,,,,,,False,,no_menu,2026-06-02T01:05:34.125515Z,cafe,LORETO - CASORETTO - NOLO
comune_milano,ckan_PE_30938,Bar Via VIGEVANO 1,https://dati.comune.milano.it/dataset/PE/30938,"Via VIGEVANO 1, 20144, Milano",Milano,45.45269999999999,9.175756500000006,e - Bar gastronomici e simili;f - Bar caffè e simili,,,,,,,False,,no_menu,2026-06-02T01:05:34.125523Z,cafe,PORTA TICINESE - CONCHETTA
comune_milano,ckan_PE_23964,Bar Corso EUROPA 18,https://dati.comune.milano.it/dataset/PE/23964,"Corso EUROPA 18, 20122, Milano",Milano,45.464957999999996,9.197343000000018,e - Bar gastronomici e simili;f - Bar caffè e simili;d - Pizzerie e simili,,,,,,,False,,no_menu,2026-06-02T01:05:34.125530Z,cafe,DUOMO
comune_milano,ckan_PE_25960,Bar Via FORLANINI CARLO 5,https://dati.comune.milano.it/dataset/PE/25960,"Via FORLANINI CARLO 5, 20133, Milano",Milano,45.471879,9.231155999999999,f - Bar caffè e simili,,,,,,,False,,no_menu,2026-06-02T01:05:34.125548Z,cafe,CITTA' STUDI
comune_milano,ckan_C-PE_14637,Bar Viale BRIANZA 6,https://dati.comune.milano.it/dataset/C-PE/14637,"Viale BRIANZA 6, 20127, Milano",Milano,45.486693,9.215302500000007,f - Bar caffè e simili,,,,,,,False,,no_menu,2026-06-02T01:05:34.125555Z,cafe,LORETO - CASORETTO - NOLO
comune_milano,ckan_C-PE_13262,Bar Corso COMO 10,https://dati.comune.milano.it/dataset/C-PE/13262,"Corso COMO 10, 20154, Milano",Milano,45.48191400000002,9.187443000000002,"a - Ristorante, trattoria, osteria con cucina e simili;f - Bar caffè e simili",,,,,,,False,,no_menu,2026-06-02T01:05:34.125566Z,cafe,PORTA GARIBALDI - PORTA NUOVA
comune_milano,ckan_C-PE_14170,Bar Via IMBRIANI (DEGLI) 30,https://dati.comune.milano.it/dataset/C-PE/14170,"Via IMBRIANI (DEGLI) 30, 20158, Milano",Milano,45.49989600000001,9.168552000000005,"a - Ristorante, trattoria, osteria con cucina e simili;f - Bar caffè e simili",,,,,,,False,,no_menu,2026-06-02T01:05:34.125583Z,cafe,BOVISA
comune_milano,ckan_C-PE_14178,Bar Via ROGOREDO 117,https://dati.comune.milano.it/dataset/C-PE/14178,"Via ROGOREDO 117, 20138, Milano",Milano,45.42606900000001,9.251464499999997,"a - Ristorante, trattoria, osteria con cucina e simili;f - Bar caffè e simili",,,,,,,False,,no_menu,2026-06-02T01:05:34.125590Z,cafe,TRIULZO SUPERIORE
comune_milano,ckan_C-PE_14181,Bar Via PONTE SEVESO 33,https://dati.comune.milano.it/dataset/C-PE/14181,"Via PONTE SEVESO 33, 20125, Milano",Milano,45.489879,9.205038000000002,"c - Tavole calde,self service, fast food e simili;e - Bar gastronomici e simili;f - Bar caffè e simili",,,,,,,False,,no_menu,2026-06-02T01:05:34.125597Z,cafe,STAZIONE CENTRALE - PONTE SEVESO
comune_milano,ckan_C-PE_16420,Bar Viale PREMUDA 44,https://dati.comune.milano.it/dataset/C-PE/16420,"Viale PREMUDA 44, 20129, Milano",Milano,45.46691100000001,9.207369,"g - Bar pasticceria, bar gelateria, cremeria, creperia e simili;c - Tavole calde,self service, fast food e simili;a - Ristorante, trattoria, osteria con cucina e simili;e - Bar gastronomici e simili;f - Bar caffè e simili",,,,,,,False,,no_menu,2026-06-02T01:05:34.125609Z,cafe,XXII MARZO
comune_milano,ckan_C-PE_16485,Bar Piazza OTTO NOVEMBRE 6,https://dati.comune.milano.it/dataset/C-PE/16485,"Piazza OTTO NOVEMBRE 6, 20129, Milano",Milano,45.474309000000005,9.21087,f - Bar caffè e simili,,,,,,,False,,no_menu,2026-06-02T01:05:34.125619Z,cafe,BUENOS AIRES - PORTA VENEZIA - PORTA MONFORTE
comune_milano,ckan_C-PE_16536,Bar Via CENISIO 37,https://dati.comune.milano.it/dataset/C-PE/16536,"Via CENISIO 37, 20154, Milano",Milano,45.487431000000015,9.167323500000009,"a - Ristorante, trattoria, osteria con cucina e simili;h - Wine bar, birreria, pub enoteche, caffetteria, sala da te e simili",,,,,,,False,,no_menu,2026-06-02T01:05:34.125626Z,pub,SARPI
comune_milano,ckan_C-PE_16564,Bar Corso SEMPIONE 5,https://dati.comune.milano.it/dataset/C-PE/16564,"Corso SEMPIONE 5, 20145, Milano",Milano,45.47673900000001,9.170594999999992,e - Bar gastronomici e simili,,,,,,,False,,no_menu,2026-06-02T01:05:34.125638Z,bar,PAGANO
comune_milano,ckan_C-PE_17972,Bar Piazza VIGILI DEL FUOCO 14,https://dati.comune.milano.it/dataset/C-PE/17972,"Piazza VIGILI DEL FUOCO 14, 20134, Milano",Milano,45.47876400000001,9.247293000000013,f - Bar caffè e simili,,,,,,,False,,no_menu,2026-06-02T01:05:34.125651Z,cafe,LAMBRATE - ORTICA
comune_milano,ckan_C-PE_17989,Bar Piazza CARO TITO LUCREZIO 1,https://dati.comune.milano.it/dataset/C-PE/17989,"Piazza CARO TITO LUCREZIO 1, 20136, Milano",Milano,45.449415000000016,9.183541500000018,"a - Ristorante, trattoria, osteria con cucina e simili;e - Bar gastronomici e simili;f - Bar caffè e simili",,,,,,,False,,no_menu,2026-06-02T01:05:34.125663Z,cafe,PORTA TICINESE - CONCA DEL NAVIGLIO
comune_milano,ckan_C-PE_18011,Bar Via PINAROLI GIACOMO 3,https://dati.comune.milano.it/dataset/C-PE/18011,"Via PINAROLI GIACOMO 3, 20135, Milano",Milano,45.45875699999999,9.213155999999998,e - Bar gastronomici e simili,,,,,,,False,,no_menu,2026-06-02T01:05:34.125674Z,bar,XXII MARZO
comune_milano,ckan_C-PE_14644,Bar Viale MONTE CENERI 14,https://dati.comune.milano.it/dataset/C-PE/14644,"Viale MONTE CENERI 14, 20155, Milano",Milano,45.49312800000001,9.155821500000002,e - Bar gastronomici e simili,,,,,,,False,,no_menu,2026-06-02T01:05:34.125685Z,bar,VILLAPIZZONE - CAGNOLA - BOLDINASCO
comune_milano,ckan_C-PE_14645,Bar Via FARA GUSTAVO 5,https://dati.comune.milano.it/dataset/C-PE/14645,"Via FARA GUSTAVO 5, 20124, Milano",Milano,45.482157,9.197626500000013,"g - Bar pasticceria, bar gelateria, cremeria, creperia e simili",,,,,,,False,,no_menu,2026-06-02T01:05:34.125692Z,cafe,PORTA GARIBALDI - PORTA NUOVA
comune_milano,ckan_C-PE_14704-1,Bar Via GIAMBELLINO 90,https://dati.comune.milano.it/dataset/C-PE/14704-1,"Via GIAMBELLINO 90, 20146, Milano",Milano,45.44879399999999,9.142370999999997,"d - Pizzerie e simili;a - Ristorante, trattoria, osteria con cucina e simili;e - Bar gastronomici e simili;f - Bar caffè e simili",,,,,,,False,,no_menu,2026-06-02T01:05:34.125703Z,cafe,GIAMBELLINO
comune_milano,ckan_C-PE_14721,Bar Via GREGORIO (SAN) 45,https://dati.comune.milano.it/dataset/C-PE/14721,"Via GREGORIO (SAN) 45, 20124, Milano",Milano,45.480564000000015,9.202157999999997,e - Bar gastronomici e simili,,,,,,,False,,no_menu,2026-06-02T01:05:34.125711Z,bar,STAZIONE CENTRALE - PONTE SEVESO
comune_milano,ckan_PE_29192,Bar Via MARCO D'AGRATE 23,https://dati.comune.milano.it/dataset/PE/29192,"Via MARCO D'AGRATE 23, 20139, Milano",Milano,45.43679700000001,9.213034499999992,"d - Pizzerie e simili;a - Ristorante, trattoria, osteria con cucina e simili;e - Bar gastronomici e simili;f - Bar caffè e simili",,,,,,,False,,no_menu,2026-06-02T01:05:34.125729Z,cafe,SCALO ROMANA
comune_milano,ckan_C-PE_16605,Bar Via GALDINO (SAN) 5,https://dati.comune.milano.it/dataset/C-PE/16605,"Via GALDINO (SAN) 5, 20154, Milano",Milano,45.486819,9.166967999999997,"a - Ristorante, trattoria, osteria con cucina e simili;h - Wine bar, birreria, pub enoteche, caffetteria, sala da te e simili;f - Bar caffè e simili",,,,,,,False,,no_menu,2026-06-02T01:05:34.125736Z,cafe,SARPI
comune_milano,ckan_C-PE_16639,Bar Corso GENOVA 11,https://dati.comune.milano.it/dataset/C-PE/16639,"Corso GENOVA 11, 20123, Milano",Milano,45.45756,9.176229000000006,e - Bar gastronomici e simili,,,,,,,False,,no_menu,2026-06-02T01:05:34.125743Z,bar,PORTA TICINESE - CONCA DEL NAVIGLIO
comune_milano,ckan_C-PE_16673,Bar Viale SABOTINO 24,https://dati.comune.milano.it/dataset/C-PE/16673,"Viale SABOTINO 24, 20135, Milano",Milano,45.450818999999996,9.201492000000002,"e - Bar gastronomici e simili;f - Bar caffè e simili;g - Bar pasticceria, bar gelateria, cremeria, creperia e simili",,,,,,,False,,no_menu,2026-06-02T01:05:34.125752Z,cafe,PTA ROMANA
comune_milano,ckan_C-PE_18214,Bar Via BERTOLAZZI CARLO 20,https://dati.comune.milano.it/dataset/C-PE/18214,"Via BERTOLAZZI CARLO 20, 20134, Milano",Milano,45.484083,9.241092000000009,f - Bar caffè e simili,,,,,,,False,,no_menu,2026-06-02T01:05:34.125763Z,cafe,LAMBRATE - ORTICA
comune_milano,ckan_C-PE_18235,Bar Corso COMO 12,https://dati.comune.milano.it/dataset/C-PE/18235,"Corso COMO 12, 20154, Milano",Milano,45.48217500000001,9.187528500000013,"a - Ristorante, trattoria, osteria con cucina e simili;d - Pizzerie e simili;i - Disco bar, america bar, locali serali e simili",,,,,,,False,,no_menu,2026-06-02T01:05:34.125771Z,cocktail_bar,PORTA GARIBALDI - PORTA NUOVA
comune_milano,ckan_C-PE_18272,Bar Via MELZI D'ERIL FRANCESCO 3,https://dati.comune.milano.it/dataset/C-PE/18272,"Via MELZI D'ERIL FRANCESCO 3, 20154, Milano",Milano,45.477738000000016,9.174149999999997,"a - Ristorante, trattoria, osteria con cucina e simili;f - Bar caffè e simili",,,,,,,False,,no_menu,2026-06-02T01:05:34.125783Z,cafe,SARPI
comune_milano,ckan_C-PE_18292,Bar Piazzetta PATTARI 2,https://dati.comune.milano.it/dataset/C-PE/18292,"Piazzetta PATTARI 2, 20122, Milano",Milano,45.464597999999995,9.193815,"a - Ristorante, trattoria, osteria con cucina e simili;f - Bar caffè e simili",,,,,,,False,,no_menu,2026-06-02T01:05:34.125792Z,cafe,DUOMO
comune_milano,ckan_C-PE_18294,Bar Piazza VETRA 21,https://dati.comune.milano.it/dataset/C-PE/18294,"Piazza VETRA 21, 20123, Milano",Milano,45.45718200000002,9.183186000000006,e - Bar gastronomici e simili,,,,,,,False,,no_menu,2026-06-02T01:05:34.125798Z,bar,DUOMO
comune_milano,ckan_C-PE_18327,Bar Via PIETRASANTA 14,https://dati.comune.milano.it/dataset/C-PE/18327,"Via PIETRASANTA 14, 20141, Milano",Milano,45.443906999999996,9.196222500000005,f - Bar caffè e simili,,,,,,,False,,no_menu,2026-06-02T01:05:34.125807Z,cafe,MORIVIONE
comune_milano,ckan_C-PE_11570,Bar Via CREMA 4,https://dati.comune.milano.it/dataset/C-PE/11570,"Via CREMA 4, 20135, Milano",Milano,45.450548999999995,9.202320000000014,f - Bar caffè e simili,,,,,,,False,,no_menu,2026-06-02T01:05:34.125813Z,cafe,PTA ROMANA
comune_milano,ckan_C-PE_11609,Bar Via ADELCHI 5,https://dati.comune.milano.it/dataset/C-PE/11609,"Via ADELCHI 5, 20131, Milano",Milano,45.485648999999995,9.231543000000016,"e - Bar gastronomici e simili;h - Wine bar, birreria, pub enoteche, caffetteria, sala da te e simili",,,,,,,False,,no_menu,2026-06-02T01:05:34.125823Z,bar,CITTA' STUDI
comune_milano,ckan_C-PE_11623,Bar Via PALMANOVA 59,https://dati.comune.milano.it/dataset/C-PE/11623,"Via PALMANOVA 59, 20132, Milano",Milano,45.49590900000001,9.23519250000001,f - Bar caffè e simili,,,,,,,False,,no_menu,2026-06-02T01:05:34.125831Z,cafe,PADOVA - TURRO - CRESCENZAGO
comune_milano,ckan_C-PE_11629,Bar Via OREFICI 2,https://dati.comune.milano.it/dataset/C-PE/11629,"Via OREFICI 2, 20123, Milano",Milano,45.464022,9.188149500000009,"a - Ristorante, trattoria, osteria con cucina e simili;f - Bar caffè e simili",,,,,,,False,,no_menu,2026-06-02T01:05:34.125839Z,cafe,DUOMO
comune_milano,ckan_C-PE_11678,Bar Via GRATOSOGLIO 60,https://dati.comune.milano.it/dataset/C-PE/11678,"Via GRATOSOGLIO 60, 20142, Milano",Milano,45.413775000000015,9.170239500000008,"g - Bar pasticceria, bar gelateria, cremeria, creperia e simili;e - Bar gastronomici e simili",,,,,,,False,,no_menu,2026-06-02T01:05:34.125848Z,bar,GRATOSOGLIO - Q.RE MISSAGLIA - Q.RE TERRAZZE
comune_milano,ckan_C-PE_14792,Bar Via LUSSU EMILIO 6,https://dati.comune.milano.it/dataset/C-PE/14792,"Via LUSSU EMILIO 6, 20128, Milano",Milano,45.51745500000001,9.244989000000004,f - Bar caffè e simili,,,,,,,False,,no_menu,2026-06-02T01:05:34.125862Z,cafe,ADRIANO
comune_milano,ckan_PE_27797,Bar Corso GARIBALDI GIUSEPPE 115,https://dati.comune.milano.it/dataset/PE/27797,"Corso GARIBALDI GIUSEPPE 115, 20121, Milano",Milano,45.47912400000001,9.185625000000016,"c - Tavole calde,self service, fast food e simili;e - Bar gastronomici e simili",,,,,,,False,,no_menu,2026-06-02T01:05:34.125871Z,bar,BRERA
comune_milano,ckan_C-PE_16723,Bar Corso PORTA ROMANA (DI) 128,https://dati.comune.milano.it/dataset/C-PE/16723,"Corso PORTA ROMANA (DI) 128, 20122, Milano",Milano,45.45281700000001,9.200866500000018,e - Bar gastronomici e simili,,,,,,,False,,no_menu,2026-06-02T01:05:34.125882Z,bar,PORTA VIGENTINA - PORTA LODOVICA
comune_milano,ckan_C-PE_16743,Bar Via PALEOCAPA PIETRO 1,https://dati.comune.milano.it/dataset/C-PE/16743,"Via PALEOCAPA PIETRO 1, 20121, Milano",Milano,45.468909,9.176202000000018,";a - Ristorante, trattoria, osteria con cucina e simili;g - Bar pasticceria, bar gelateria, cremeria, creperia e simili",,,,,,,False,,no_menu,2026-06-02T01:05:34.125889Z,cafe,MAGENTA - S. VITTORE
comune_milano,ckan_C-PE_16756,Bar Via ROMANO GIULIO 5,https://dati.comune.milano.it/dataset/C-PE/16756,"Via ROMANO GIULIO 5, 20135, Milano",Milano,45.448803,9.198202500000008,e - Bar gastronomici e simili;f - Bar caffè e simili,,,,,,,False,,no_menu,2026-06-02T01:05:34.125896Z,cafe,PTA ROMANA
comune_milano,ckan_C-PE_16760,Bar Piazza VENTICINQUE APRILE 5,https://dati.comune.milano.it/dataset/C-PE/16760,"Piazza VENTICINQUE APRILE 5, 20154, Milano",Milano,45.48088799999999,9.186097500000017,"a - Ristorante, trattoria, osteria con cucina e simili;d - Pizzerie e simili;f - Bar caffè e simili",,,,,,,False,,no_menu,2026-06-02T01:05:34.125904Z,cafe,BRERA
comune_milano,ckan_C-PE_11128,Bar Viale MONZA 106,https://dati.comune.milano.it/dataset/C-PE/11128,"Viale MONZA 106, 20127, Milano",Milano,45.499562999999995,9.22094100000001,f - Bar caffè e simili,,,,,,,False,,no_menu,2026-06-02T01:05:34.125920Z,cafe,PADOVA - TURRO - CRESCENZAGO
comune_milano,ckan_C-PE_13854,Bar Via PIERLUIGI GIOVANNI DA PALESTRINA 4,https://dati.comune.milano.it/dataset/C-PE/13854,"Via PIERLUIGI GIOVANNI DA PALESTRINA 4, 20124, Milano",Milano,45.485082000000006,9.214371,"a - Ristorante, trattoria, osteria con cucina e simili;f - Bar caffè e simili",,,,,,,False,,no_menu,2026-06-02T01:05:34.125931Z,cafe,BUENOS AIRES - PORTA VENEZIA - PORTA MONFORTE
comune_milano,ckan_C-PE_13867,Bar Via PINTURICCHIO 19,https://dati.comune.milano.it/dataset/C-PE/13867,"Via PINTURICCHIO 19, 20133, Milano",Milano,45.47716199999999,9.221138999999994,f - Bar caffè e simili,,,,,,,False,,no_menu,2026-06-02T01:05:34.125939Z,cafe,BUENOS AIRES - PORTA VENEZIA - PORTA MONFORTE
comune_milano,ckan_C-PE_13889,Bar Via SAVARE' MANLIO E GIOACCHINO 1,https://dati.comune.milano.it/dataset/C-PE/13889,"Via SAVARE' MANLIO E GIOACCHINO 1, 20122, Milano",Milano,45.46248299999999,9.2035305,"a - Ristorante, trattoria, osteria con cucina e simili;f - Bar caffè e simili",,,,,,,False,,no_menu,2026-06-02T01:05:34.125947Z,cafe,GUASTALLA
comune_milano,ckan_C-PE_13893,Bar Via SACCO LUIGI 4,https://dati.comune.milano.it/dataset/C-PE/13893,"Via SACCO LUIGI 4, 20146, Milano",Milano,45.465732,9.151208999999994,"a - Ristorante, trattoria, osteria con cucina e simili;e - Bar gastronomici e simili",,,,,,,False,,no_menu,2026-06-02T01:05:34.125953Z,bar,PORTA MAGENTA
comune_milano,ckan_C-PE_13898,Bar Viale MONTE NERO 15,https://dati.comune.milano.it/dataset/C-PE/13898,"Viale MONTE NERO 15, 20135, Milano",Milano,45.454769999999996,9.203813999999994,"f - Bar caffè e simili;g - Bar pasticceria, bar gelateria, cremeria, creperia e simili",,,,,,,False,,no_menu,2026-06-02T01:05:34.125959Z,cafe,GUASTALLA
comune_milano,ckan_C-PE_13913,Bar Via RAVIZZA CARLO 21,https://dati.comune.milano.it/dataset/C-PE/13913,"Via RAVIZZA CARLO 21, 20149, Milano",Milano,45.46894499999999,9.150263999999993,e - Bar gastronomici e simili;f - Bar caffè e simili,,,,,,,False,,no_menu,2026-06-02T01:05:34.125968Z,cafe,DE ANGELI - MONTE ROSA
comune_milano,ckan_C-PE_13918,Bar Via CROCE ROSSA 2,https://dati.comune.milano.it/dataset/C-PE/13918,"Via CROCE ROSSA 2, 20121, Milano",Milano,45.470358000000004,9.192519000000004,"a - Ristorante, trattoria, osteria con cucina e simili;f - Bar caffè e simili;i - Disco bar, america bar, locali serali e simili",,,,,,,False,,no_menu,2026-06-02T01:05:34.125976Z,cafe,BRERA
comune_milano,ckan_PE_25343,Bar Via LESSONA MICHELE 1,https://dati.comune.milano.it/dataset/PE/25343,"Via LESSONA MICHELE 1, 20157, Milano",Milano,45.513116999999994,9.136484999999993,e - Bar gastronomici e simili,,,,,,,False,,no_menu,2026-06-02T01:05:34.125983Z,bar,QUARTO OGGIARO - VIALBA - MUSOCCO
comune_milano,ckan_C-PE_14895,Bar Via MARONCELLI PIETRO 8,https://dati.comune.milano.it/dataset/C-PE/14895,"Via MARONCELLI PIETRO 8, 20154, Milano",Milano,45.482562,9.183699000000018,"a - Ristorante, trattoria, osteria con cucina e simili;i - Disco bar, america bar, locali serali e simili",,,,,,,False,,no_menu,2026-06-02T01:05:34.125996Z,cocktail_bar,PORTA GARIBALDI - PORTA NUOVA
comune_milano,ckan_C-PE_15010,Bar Via CONSOLE MARCELLO 2,https://dati.comune.milano.it/dataset/C-PE/15010,"Via CONSOLE MARCELLO 2, 20156, Milano",Milano,45.49914000000001,9.150255000000016,f - Bar caffè e simili,,,,,,,False,,no_menu,2026-06-02T01:05:34.126007Z,cafe,VILLAPIZZONE - CAGNOLA - BOLDINASCO
comune_milano,ckan_PE_27798,Bar Via BERGOGNONE AMBROGIO DA FOSSANO 31,https://dati.comune.milano.it/dataset/PE/27798,"Via BERGOGNONE AMBROGIO DA FOSSANO 31, 20144, Milano",Milano,45.45398700000001,9.163903500000004,"c - Tavole calde,self service, fast food e simili;e - Bar gastronomici e simili",,,,,,,False,,no_menu,2026-06-02T01:05:34.126014Z,bar,PORTA GENOVA
comune_milano,ckan_C-PE_12292,Bar Via ARISTOTELE 15,https://dati.comune.milano.it/dataset/C-PE/12292,"Via ARISTOTELE 15, 20128, Milano",Milano,45.50587200000001,9.224369999999993,f - Bar caffè e simili,,,,,,,False,,no_menu,2026-06-02T01:05:34.126037Z,cafe,GORLA - PRECOTTO
comune_milano,ckan_C-PE_12309,Bar Via MERAVIGLI 13,https://dati.comune.milano.it/dataset/C-PE/12309,"Via MERAVIGLI 13, 20123, Milano",Milano,45.465678,9.182029499999999,"e - Bar gastronomici e simili;f - Bar caffè e simili;c - Tavole calde,self service, fast food e simili",,,,,,,False,,no_menu,2026-06-02T01:05:34.126044Z,cafe,DUOMO
comune_milano,ckan_C-PE_12364,Bar Via ARNALDO DA BRESCIA 1,https://dati.comune.milano.it/dataset/C-PE/12364,"Via ARNALDO DA BRESCIA 1, 20159, Milano",Milano,45.49017599999999,9.183001500000017,"a - Ristorante, trattoria, osteria con cucina e simili;d - Pizzerie e simili;f - Bar caffè e simili",,,,,,,False,,no_menu,2026-06-02T01:05:34.126055Z,cafe,ISOLA
comune_milano,ckan_C-PE_15022,Bar Via FERRUCCI FRANCESCO 11,https://dati.comune.milano.it/dataset/C-PE/15022,"Via FERRUCCI FRANCESCO 11, 20145, Milano",Milano,45.478260000000006,9.162549000000013,f - Bar caffè e simili,,,,,,,False,,no_menu,2026-06-02T01:05:34.126065Z,cafe,PAGANO
comune_milano,ckan_C-PE_16921,Bar Alzaia NAVIGLIO GRANDE 12,https://dati.comune.milano.it/dataset/C-PE/16921,"Alzaia NAVIGLIO GRANDE 12, 20144, Milano",Milano,45.452088,9.175351500000005,"a - Ristorante, trattoria, osteria con cucina e simili;f - Bar caffè e simili",,,,,,,False,,no_menu,2026-06-02T01:05:34.126085Z,cafe,PORTA TICINESE - CONCHETTA
comune_milano,ckan_C-PE_16933,Bar Via TULIPANI (DEI) 18,https://dati.comune.milano.it/dataset/C-PE/16933,"Via TULIPANI (DEI) 18, 20146, Milano",Milano,45.449963999999994,9.137614500000012,"g - Bar pasticceria, bar gelateria, cremeria, creperia e simili;f - Bar caffè e simili",,,,,,,False,,no_menu,2026-06-02T01:05:34.126094Z,cafe,GIAMBELLINO
comune_milano,ckan_C-PE_16935,Bar Via TROILO ETTORE 14,https://dati.comune.milano.it/dataset/C-PE/16935,"Via TROILO ETTORE 14, 20136, Milano",Milano,45.44622900000002,9.177691500000009,e - Bar gastronomici e simili,,,,,,,False,,no_menu,2026-06-02T01:05:34.126101Z,bar,PORTA TICINESE - CONCA DEL NAVIGLIO
comune_milano,ckan_C-PE_16944,Bar Via ROSSI PELLEGRINO 57,https://dati.comune.milano.it/dataset/C-PE/16944,"Via ROSSI PELLEGRINO 57, 20161, Milano",Milano,45.511425,9.175162499999999,f - Bar caffè e simili,,,,,,,False,,no_menu,2026-06-02T01:05:34.126109Z,cafe,AFFORI
comune_milano,ckan_C-PE_16958,Bar Via OMBONI GIOVANNI 4,https://dati.comune.milano.it/dataset/C-PE/16958,"Via OMBONI GIOVANNI 4, 20129, Milano",Milano,45.477171,9.209155500000008,"a - Ristorante, trattoria, osteria con cucina e simili;b - Ristorante, trattoria, osteria con cucina tipica;d - Pizzerie e simili;f - Bar caffè e simili;g - Bar pasticceria, bar gelateria, cremeria, creperia e simili",,,,,,,False,,no_menu,2026-06-02T01:05:34.126119Z,cafe,BUENOS AIRES - PORTA VENEZIA - PORTA MONFORTE
comune_milano,ckan_C-PE_16996,Bar Via ZOIA (F.LLI) 95,https://dati.comune.milano.it/dataset/C-PE/16996,"Via ZOIA (F.LLI) 95, 20153, Milano",Milano,45.47081700000001,9.1094985,"f - Bar caffè e simili;g - Bar pasticceria, bar gelateria, cremeria, creperia e simili",,,,,,,False,,no_menu,2026-06-02T01:05:34.126127Z,cafe,QUARTO CAGNINO
comune_milano,ckan_PE_25753,Bar Via TONALE 12,https://dati.comune.milano.it/dataset/PE/25753,"Via TONALE 12, 20125, Milano",Milano,45.488799,9.203224500000005,"f - Bar caffè e simili;e - Bar gastronomici e simili;g - Bar pasticceria, bar gelateria, cremeria, creperia e simili",,,,,,,False,,no_menu,2026-06-02T01:05:34.126135Z,cafe,STAZIONE CENTRALE - PONTE SEVESO
comune_milano,ckan_C-PE_17021,Bar Via SANZIO RAFFAELLO 4,https://dati.comune.milano.it/dataset/C-PE/17021,"Via SANZIO RAFFAELLO 4, 20149, Milano",Milano,45.46946700000001,9.153715500000004,"h - Wine bar, birreria, pub enoteche, caffetteria, sala da te e simili",,,,,,,False,,no_menu,2026-06-02T01:05:34.126143Z,pub,DE ANGELI - MONTE ROSA
comune_milano,ckan_C-PE_17033,Bar Via SPALLANZANI LAZZARO 40,https://dati.comune.milano.it/dataset/C-PE/17033,"Via SPALLANZANI LAZZARO 40, 20129, Milano",Milano,45.47795400000001,9.209380500000009,"a - Ristorante, trattoria, osteria con cucina e simili;f - Bar caffè e simili",,,,,,,False,,no_menu,2026-06-02T01:05:34.126149Z,cafe,BUENOS AIRES - PORTA VENEZIA - PORTA MONFORTE
comune_milano,ckan_C-PE_17040,Bar Via PALMANOVA 147,https://dati.comune.milano.it/dataset/C-PE/17040,"Via PALMANOVA 147, 20132, Milano",Milano,45.50363999999999,9.245281500000004,f - Bar caffè e simili,,,,,,,False,,no_menu,2026-06-02T01:05:34.126155Z,cafe,PADOVA - TURRO - CRESCENZAGO
comune_milano,ckan_C-PE_13364,Bar Corso COMO 10,https://dati.comune.milano.it/dataset/C-PE/13364,"Corso COMO 10, 20154, Milano",Milano,45.48191400000002,9.187443000000002,f - Bar caffè e simili,,,,,,,False,,no_menu,2026-06-02T01:05:34.126168Z,cafe,PORTA GARIBALDI - PORTA NUOVA
comune_milano,ckan_C-PE_13380,Bar Via SANZIO RAFFAELLO 16,https://dati.comune.milano.it/dataset/C-PE/13380,"Via SANZIO RAFFAELLO 16, 20149, Milano",Milano,45.46856700000001,9.152343000000002,"e - Bar gastronomici e simili;h - Wine bar, birreria, pub enoteche, caffetteria, sala da te e simili",,,,,,,False,,no_menu,2026-06-02T01:05:34.126178Z,bar,DE ANGELI - MONTE ROSA
comune_milano,ckan_C-PE_13393,Bar Piazza SCALA (DELLA) 5,https://dati.comune.milano.it/dataset/C-PE/13393,"Piazza SCALA (DELLA) 5, 20121, Milano",Milano,45.46706399999999,9.189076499999999,e - Bar gastronomici e simili;f - Bar caffè e simili,,,,,,,False,,no_menu,2026-06-02T01:05:34.126187Z,cafe,BRERA
comune_milano,ckan_PE_29216,Bar Via ARGELATI FILIPPO 1,https://dati.comune.milano.it/dataset/PE/29216,"Via ARGELATI FILIPPO 1, 20143, Milano",Milano,45.451404,9.174213000000009,e - Bar gastronomici e simili,,,,,,,False,,no_menu,2026-06-02T01:05:34.126193Z,bar,PORTA TICINESE - CONCHETTA
comune_milano,ckan_C-PE_13407,Bar Via IMBONATI CARLO 74,https://dati.comune.milano.it/dataset/C-PE/13407,"Via IMBONATI CARLO 74, 20159, Milano",Milano,45.504774,9.180324000000013,f - Bar caffè e simili,,,,,,,False,,no_menu,2026-06-02T01:05:34.126207Z,cafe,DERGANO
comune_milano,ckan_C-PE_12786,Bar Piazzale LAGOSTA 2,https://dati.comune.milano.it/dataset/C-PE/12786,"Piazzale LAGOSTA 2, 20124, Milano",Milano,45.48878100000002,9.190683000000007,e - Bar gastronomici e simili,,,,,,,False,,no_menu,2026-06-02T01:05:34.126218Z,bar,ISOLA
comune_milano,ckan_C-PE_12804,Bar Via SCIESA AMATORE 3,https://dati.comune.milano.it/dataset/C-PE/12804,"Via SCIESA AMATORE 3, 20135, Milano",Milano,45.461601,9.209587499999998,f - Bar caffè e simili;e - Bar gastronomici e simili,,,,,,,False,,no_menu,2026-06-02T01:05:34.126228Z,cafe,XXII MARZO
comune_milano,ckan_C-PE_12840,Bar Alzaia NAVIGLIO PAVESE 50,https://dati.comune.milano.it/dataset/C-PE/12840,"Alzaia NAVIGLIO PAVESE 50, 20143, Milano",Milano,45.44613000000001,9.176431500000007,"h - Wine bar, birreria, pub enoteche, caffetteria, sala da te e simili",,,,,,,False,,no_menu,2026-06-02T01:05:34.126241Z,pub,PORTA TICINESE - CONCHETTA
comune_milano,ckan_PE_25151,Bar Via POLESINE 39,https://dati.comune.milano.it/dataset/PE/25151,"Via POLESINE 39, 20139, Milano",Milano,45.43983,9.223492499999992,e - Bar gastronomici e simili,,,,,,,False,,no_menu,2026-06-02T01:05:34.126249Z,bar,LODI - CORVETTO
comune_milano,ckan_C-PE_15220,Bar Via PIERLUIGI GIOVANNI DA PALESTRINA 12,https://dati.comune.milano.it/dataset/C-PE/15220,"Via PIERLUIGI GIOVANNI DA PALESTRINA 12, 20124, Milano",Milano,45.48549600000001,9.213551999999993,f - Bar caffè e simili,,,,,,,False,,no_menu,2026-06-02T01:05:34.126262Z,cafe,BUENOS AIRES - PORTA VENEZIA - PORTA MONFORTE
comune_milano,ckan_C-PE_17105,Bar Via MAC MAHON 107,https://dati.comune.milano.it/dataset/C-PE/17105,"Via MAC MAHON 107, 20155, Milano",Milano,45.49641299999999,9.154349999999994,f - Bar caffè e simili,,,,,,,False,,no_menu,2026-06-02T01:05:34.126282Z,cafe,VILLAPIZZONE - CAGNOLA - BOLDINASCO
comune_milano,ckan_C-PE_17142,Bar Via LANZONE 30A,https://dati.comune.milano.it/dataset/C-PE/17142,"Via LANZONE 30A, 20123, Milano",Milano,45.46108799999999,9.175554000000005,e - Bar gastronomici e simili,,,,,,,False,,no_menu,2026-06-02T01:05:34.126291Z,bar,DUOMO
comune_milano,ckan_C-PE_17144,Bar Via TARAMELLI TORQUATO 70,https://dati.comune.milano.it/dataset/C-PE/17144,"Via TARAMELLI TORQUATO 70, 20124, Milano",Milano,45.49437900000001,9.195925500000016,"f - Bar caffè e simili;g - Bar pasticceria, bar gelateria, cremeria, creperia e simili",,,,,,,False,,no_menu,2026-06-02T01:05:34.126297Z,cafe,MACIACHINI - MAGGIOLINA
comune_milano,ckan_C-PE_14273,Bar Via PISONI GASTONE 1,https://dati.comune.milano.it/dataset/C-PE/14273,"Via PISONI GASTONE 1, 20121, Milano",Milano,45.470808000000005,9.193144500000017,"a - Ristorante, trattoria, osteria con cucina e simili;f - Bar caffè e simili",,,,,,,False,,no_menu,2026-06-02T01:05:34.126308Z,cafe,BRERA
comune_milano,ckan_C-PE_14283,Bar Via PUSIANO 6,https://dati.comune.milano.it/dataset/C-PE/14283,"Via PUSIANO 6, 20132, Milano",Milano,45.49923900000002,9.240642000000008,"a - Ristorante, trattoria, osteria con cucina e simili;d - Pizzerie e simili;g - Bar pasticceria, bar gelateria, cremeria, creperia e simili",,,,,,,False,,no_menu,2026-06-02T01:05:34.126315Z,cafe,CIMIANO - ROTTOLE - Q.RE FELTRE
comune_milano,ckan_C-PE_14324,Bar Via VITRUVIO 8,https://dati.comune.milano.it/dataset/C-PE/14324,"Via VITRUVIO 8, 20124, Milano",Milano,45.480861000000004,9.209767499999998,f - Bar caffè e simili,,,,,,,False,,no_menu,2026-06-02T01:05:34.126327Z,cafe,BUENOS AIRES - PORTA VENEZIA - PORTA MONFORTE
comune_milano,ckan_PE_25532,Bar Viale BEATRICE D'ESTE 48,https://dati.comune.milano.it/dataset/PE/25532,"Viale BEATRICE D'ESTE 48, 20122, Milano",Milano,45.451728,9.196123499999999,"h - Wine bar, birreria, pub enoteche, caffetteria, sala da te e simili",,,,,,,False,,no_menu,2026-06-02T01:05:34.126344Z,pub,PORTA VIGENTINA - PORTA LODOVICA
comune_milano,ckan_C-PE_17196,Bar Via SCHIAFFINO SIMONE 21,https://dati.comune.milano.it/dataset/C-PE/17196,"Via SCHIAFFINO SIMONE 21, 20158, Milano",Milano,45.506214,9.165752999999995,"a - Ristorante, trattoria, osteria con cucina e simili;d - Pizzerie e simili;h - Wine bar, birreria, pub enoteche, caffetteria, sala da te e simili",,,,,,,False,,no_menu,2026-06-02T01:05:34.126364Z,pub,BOVISA
comune_milano,ckan_C-PE_17203,Bar Viale CORSICA 12,https://dati.comune.milano.it/dataset/C-PE/17203,"Viale CORSICA 12, 20137, Milano",Milano,45.461997,9.225265500000006,f - Bar caffè e simili,,,,,,,False,,no_menu,2026-06-02T01:05:34.126371Z,cafe,CORSICA
comune_milano,ckan_C-PE_17212,Bar Via NOVATI FRANCESCO 4,https://dati.comune.milano.it/dataset/C-PE/17212,"Via NOVATI FRANCESCO 4, 20123, Milano",Milano,45.460260000000005,9.177052500000002,"c - Tavole calde,self service, fast food e simili;e - Bar gastronomici e simili;f - Bar caffè e simili",,,,,,,False,,no_menu,2026-06-02T01:05:34.126378Z,cafe,DUOMO
comune_milano,ckan_C-PE_17233,Bar Via GROSOTTO 7,https://dati.comune.milano.it/dataset/C-PE/17233,"Via GROSOTTO 7, 20149, Milano",Milano,45.490815,9.14656500000001,e - Bar gastronomici e simili,,,,,,,False,,no_menu,2026-06-02T01:05:34.126385Z,bar,VILLAPIZZONE - CAGNOLA - BOLDINASCO
comune_milano,ckan_C-PE_17307,Bar Via BOTTICELLI SANDRO 2,https://dati.comune.milano.it/dataset/C-PE/17307,"Via BOTTICELLI SANDRO 2, 20133, Milano",Milano,45.473247000000015,9.22444200000001,f - Bar caffè e simili,,,,,,,False,,no_menu,2026-06-02T01:05:34.126395Z,cafe,CITTA' STUDI
comune_milano,ckan_C-PE_17013,Bar Viale MILLE (DEI) 70,https://dati.comune.milano.it/dataset/C-PE/17013,"Viale MILLE (DEI) 70, 20129, Milano",Milano,45.47141100000002,9.2174895,f - Bar caffè e simili,,,,,,,False,,no_menu,2026-06-02T01:05:34.126401Z,cafe,BUENOS AIRES - PORTA VENEZIA - PORTA MONFORTE
comune_milano,ckan_C-PE_17320,Bar Ripa PORTA TICINESE (DI) 57,https://dati.comune.milano.it/dataset/C-PE/17320,"Ripa PORTA TICINESE (DI) 57, 20143, Milano",Milano,45.45094499999999,9.171715500000005,e - Bar gastronomici e simili,,,,,,,False,,no_menu,2026-06-02T01:05:34.126409Z,bar,PORTA TICINESE - CONCHETTA
comune_milano,ckan_C-PE_11162,Bar Via ROMAGNOSI GIAN DOMENICO 4,https://dati.comune.milano.it/dataset/C-PE/11162,"Via ROMAGNOSI GIAN DOMENICO 4, 20121, Milano",Milano,45.46867499999999,9.190318500000018,e - Bar gastronomici e simili;f - Bar caffè e simili,,,,,,,False,,no_menu,2026-06-02T01:05:34.126419Z,cafe,BRERA
comune_milano,ckan_C-PE_11163,Bar Viale JENNER EDOARDO 16,https://dati.comune.milano.it/dataset/C-PE/11163,"Viale JENNER EDOARDO 16, 20159, Milano",Milano,45.497439000000014,9.1823895,"a - Ristorante, trattoria, osteria con cucina e simili;f - Bar caffè e simili",,,,,,,False,,no_menu,2026-06-02T01:05:34.126426Z,cafe,DERGANO
comune_milano,ckan_C-PE_11164,Bar Via TOLMEZZO 5,https://dati.comune.milano.it/dataset/C-PE/11164,"Via TOLMEZZO 5, 20132, Milano",Milano,45.492579000000006,9.232906500000013,e - Bar gastronomici e simili;f - Bar caffè e simili,,,,,,,False,,no_menu,2026-06-02T01:05:34.126433Z,cafe,CIMIANO - ROTTOLE - Q.RE FELTRE
comune_milano,ckan_C-PE_11166,Bar Via BOCCACCIO GIOVANNI 4,https://dati.comune.milano.it/dataset/C-PE/11166,"Via BOCCACCIO GIOVANNI 4, 20123, Milano",Milano,45.467883,9.174177000000014,"a - Ristorante, trattoria, osteria con cucina e simili;f - Bar caffè e simili",,,,,,,False,,no_menu,2026-06-02T01:05:34.126441Z,cafe,MAGENTA - S. VITTORE
comune_milano,ckan_C-PE_11189,Bar Via VIVAIO 20,https://dati.comune.milano.it/dataset/C-PE/11189,"Via VIVAIO 20, 20122, Milano",Milano,45.47002499999999,9.2038455,"e - Bar gastronomici e simili;f - Bar caffè e simili;g - Bar pasticceria, bar gelateria, cremeria, creperia e simili",,,,,,,False,,no_menu,2026-06-02T01:05:34.126448Z,cafe,GUASTALLA
comune_milano,ckan_C-PE_11229,Bar Via MONCUCCO 26,https://dati.comune.milano.it/dataset/C-PE/11229,"Via MONCUCCO 26, 20142, Milano",Milano,45.43962300000001,9.166198500000007,"a - Ristorante, trattoria, osteria con cucina e simili;d - Pizzerie e simili;f - Bar caffè e simili",,,,,,,False,,no_menu,2026-06-02T01:05:34.126462Z,cafe,MONCUCCO - SAN CRISTOFORO
comune_milano,ckan_C-PE_11287,Bar Via DE AMICIS EDMONDO 22,https://dati.comune.milano.it/dataset/C-PE/11287,"Via DE AMICIS EDMONDO 22, 20123, Milano",Milano,45.458658000000014,9.178398000000016,f - Bar caffè e simili,,,,,,,False,,no_menu,2026-06-02T01:05:34.126473Z,cafe,DUOMO
comune_milano,ckan_C-PE_17377,Bar Via CASTALDI PANFILO 35,https://dati.comune.milano.it/dataset/C-PE/17377,"Via CASTALDI PANFILO 35, 20124, Milano",Milano,45.476046,9.204628500000013,"e - Bar gastronomici e simili;f - Bar caffè e simili;h - Wine bar, birreria, pub enoteche, caffetteria, sala da te e simili",,,,,,,False,,no_menu,2026-06-02T01:05:34.126490Z,cafe,BUENOS AIRES - PORTA VENEZIA - PORTA MONFORTE
comune_milano,ckan_C-PE_17391,Bar Piazza GOBETTI PIETRO 8,https://dati.comune.milano.it/dataset/C-PE/17391,"Piazza GOBETTI PIETRO 8, 20131, Milano",Milano,45.48540600000001,9.233460000000008,e - Bar gastronomici e simili,,,,,,,False,,no_menu,2026-06-02T01:05:34.126498Z,bar,CITTA' STUDI
comune_milano,ckan_PE_24669,Bar Corso VENTIDUE MARZO 36,https://dati.comune.milano.it/dataset/PE/24669,"Corso VENTIDUE MARZO 36, 20135, Milano",Milano,45.46201500000001,9.218830499999996,f - Bar caffè e simili,,,,,,,False,,no_menu,2026-06-02T01:05:34.126507Z,cafe,XXII MARZO
comune_milano,ckan_C-PE_17410,Bar Via CASTALDI PANFILO 42,https://dati.comune.milano.it/dataset/C-PE/17410,"Via CASTALDI PANFILO 42, 20124, Milano",Milano,45.47552400000001,9.205443000000002,"a - Ristorante, trattoria, osteria con cucina e simili;f - Bar caffè e simili",,,,,,,False,,no_menu,2026-06-02T01:05:34.126514Z,cafe,BUENOS AIRES - PORTA VENEZIA - PORTA MONFORTE
comune_milano,ckan_C-PE_12383,Bar Via FAUCHE' GIOVANNI BATTISTA 15,https://dati.comune.milano.it/dataset/C-PE/12383,"Via FAUCHE' GIOVANNI BATTISTA 15, 20154, Milano",Milano,45.485487000000006,9.164191500000015,"a - Ristorante, trattoria, osteria con cucina e simili;b - Ristorante, trattoria, osteria con cucina tipica;e - Bar gastronomici e simili",,,,,,,False,,no_menu,2026-06-02T01:05:34.126522Z,bar,SARPI
comune_milano,ckan_C-PE_12429,Bar Via EUSTACHI BARTOLOMEO 8,https://dati.comune.milano.it/dataset/C-PE/12429,"Via EUSTACHI BARTOLOMEO 8, 20129, Milano",Milano,45.47418300000001,9.214969499999995,f - Bar caffè e simili,,,,,,,False,,no_menu,2026-06-02T01:05:34.126537Z,cafe,BUENOS AIRES - PORTA VENEZIA - PORTA MONFORTE
comune_milano,ckan_C-PE_15434,Bar Via BELLEZZA GIOVANNI 1,https://dati.comune.milano.it/dataset/C-PE/15434,"Via BELLEZZA GIOVANNI 1, 20136, Milano",Milano,45.448443,9.197176500000012,"e - Bar gastronomici e simili;g - Bar pasticceria, bar gelateria, cremeria, creperia e simili",,,,,,,False,,no_menu,2026-06-02T01:05:34.126551Z,bar,PORTA VIGENTINA - PORTA LODOVICA
comune_milano,ckan_PE_25082,Bar Viale UNGHERIA 28,https://dati.comune.milano.it/dataset/PE/25082,"Viale UNGHERIA 28, 20138, Milano",Milano,45.445752,9.247950000000003,e - Bar gastronomici e simili,,,,,,,False,,no_menu,2026-06-02T01:05:34.126558Z,bar,TALIEDO - MORSENCHIO - Q.RE FORLANINI
comune_milano,ckan_PE_25084,Bar Via PISTRUCCI SCIPIONE 26,https://dati.comune.milano.it/dataset/PE/25084,"Via PISTRUCCI SCIPIONE 26, 20137, Milano",Milano,45.45376200000001,9.219177000000002,"e - Bar gastronomici e simili;g - Bar pasticceria, bar gelateria, cremeria, creperia e simili",,,,,,,False,,no_menu,2026-06-02T01:05:34.126564Z,bar,UMBRIA - MOLISE - CALVAIRATE
comune_milano,ckan_PE_25086,Bar Viale RESTELLI FRANCESCO 6,https://dati.comune.milano.it/dataset/PE/25086,"Viale RESTELLI FRANCESCO 6, 20124, Milano",Milano,45.48710700000001,9.195475500000015,"a - Ristorante, trattoria, osteria con cucina e simili;f - Bar caffè e simili",,,,,,,False,,no_menu,2026-06-02T01:05:34.126570Z,cafe,PORTA GARIBALDI - PORTA NUOVA
comune_milano,ckan_C-PE_15440,Bar Via MENOTTI CIRO 16,https://dati.comune.milano.it/dataset/C-PE/15440,"Via MENOTTI CIRO 16, 20129, Milano",Milano,45.470349,9.213408000000015,e - Bar gastronomici e simili,,,,,,,False,,no_menu,2026-06-02T01:05:34.126578Z,bar,BUENOS AIRES - PORTA VENEZIA - PORTA MONFORTE
comune_milano,ckan_C-PE_15461,Bar Corso VENEZIA 13,https://dati.comune.milano.it/dataset/C-PE/15461,"Corso VENEZIA 13, 20121, Milano",Milano,45.46821600000001,9.198562500000008,"a - Ristorante, trattoria, osteria con cucina e simili;d - Pizzerie e simili;f - Bar caffè e simili",,,,,,,False,,no_menu,2026-06-02T01:05:34.126586Z,cafe,DUOMO
comune_milano,ckan_C-PE_17436,Bar Ripa PORTA TICINESE (DI) 9,https://dati.comune.milano.it/dataset/C-PE/17436,"Ripa PORTA TICINESE (DI) 9, 20143, Milano",Milano,45.45197999999999,9.176643000000013,"c - Tavole calde,self service, fast food e simili;e - Bar gastronomici e simili;f - Bar caffè e simili",,,,,,,False,,no_menu,2026-06-02T01:05:34.126593Z,cafe,PORTA TICINESE - CONCHETTA
comune_milano,ckan_PE_25357,Bar Via UNIONE (DELL') 7,https://dati.comune.milano.it/dataset/PE/25357,"Via UNIONE (DELL') 7, 20122, Milano",Milano,45.461646,9.187699500000008,"e - Bar gastronomici e simili;f - Bar caffè e simili;g - Bar pasticceria, bar gelateria, cremeria, creperia e simili",,,,,,,False,,no_menu,2026-06-02T01:05:34.126616Z,cafe,DUOMO
comune_milano,ckan_PE_25077,Bar Via MONTE PALOMBINO 10,https://dati.comune.milano.it/dataset/PE/25077,"Via MONTE PALOMBINO 10, 20138, Milano",Milano,45.432153,9.244520999999992,"f - Bar caffè e simili;g - Bar pasticceria, bar gelateria, cremeria, creperia e simili",,,,,,,False,,no_menu,2026-06-02T01:05:34.126625Z,cafe,ROGOREDO - SANTA GIULIA
comune_milano,ckan_PE_25378,Bar Via PERINI CARLO 9,https://dati.comune.milano.it/dataset/PE/25378,"Via PERINI CARLO 9, 20157, Milano",Milano,45.50992200000002,9.139572000000015,e - Bar gastronomici e simili,,,,,,,False,,no_menu,2026-06-02T01:05:34.126634Z,bar,QUARTO OGGIARO - VIALBA - MUSOCCO
comune_milano,ckan_C-PE_13452,Bar Via GREGORIO (SAN) 1,https://dati.comune.milano.it/dataset/C-PE/13452,"Via GREGORIO (SAN) 1, 20124, Milano",Milano,45.477791999999994,9.207868500000018,"f - Bar caffè e simili;c - Tavole calde,self service, fast food e simili",,,,,,,False,,no_menu,2026-06-02T01:05:34.126643Z,cafe,BUENOS AIRES - PORTA VENEZIA - PORTA MONFORTE
comune_milano,ckan_C-PE_13489,Bar Viale STELVIO 66,https://dati.comune.milano.it/dataset/C-PE/13489,"Viale STELVIO 66, 20159, Milano",Milano,45.495386999999994,9.1827945,"a - Ristorante, trattoria, osteria con cucina e simili;f - Bar caffè e simili",,,,,,,False,,no_menu,2026-06-02T01:05:34.126657Z,cafe,FARINI
comune_milano,ckan_C-PE_13498,Bar Via CAPPONI PIERO 1,https://dati.comune.milano.it/dataset/C-PE/13498,"Via CAPPONI PIERO 1, 20145, Milano",Milano,45.46811700000001,9.157014000000004,"e - Bar gastronomici e simili;g - Bar pasticceria, bar gelateria, cremeria, creperia e simili;c - Tavole calde,self service, fast food e simili",,,,,,,False,,no_menu,2026-06-02T01:05:34.126664Z,bar,PAGANO
comune_milano,ckan_C-PE_15467,Bar Via OVADA 22,https://dati.comune.milano.it/dataset/C-PE/15467,"Via OVADA 22, 20142, Milano",Milano,45.43580700000001,9.157873499999994,f - Bar caffè e simili,,,,,,,False,,no_menu,2026-06-02T01:05:34.126675Z,cafe,BARONA
comune_milano,ckan_C-PE_15473,Bar Via GIOIA MELCHIORRE 175,https://dati.comune.milano.it/dataset/C-PE/15473,"Via GIOIA MELCHIORRE 175, 20125, Milano",Milano,45.496161,9.207625500000006,e - Bar gastronomici e simili,,,,,,,False,,no_menu,2026-06-02T01:05:34.126680Z,bar,GRECO - SEGNANO
comune_milano,ckan_C-PE_15492,Bar Via FIAMMA GALVANO 36,https://dati.comune.milano.it/dataset/C-PE/15492,"Via FIAMMA GALVANO 36, 20129, Milano",Milano,45.466740000000016,9.21141,"c - Tavole calde,self service, fast food e simili;d - Pizzerie e simili;f - Bar caffè e simili",,,,,,,False,,no_menu,2026-06-02T01:05:34.126690Z,cafe,XXII MARZO
comune_milano,ckan_C-PE_15498,Bar Piazza BONOMELLI GEREMIA 4,https://dati.comune.milano.it/dataset/C-PE/15498,"Piazza BONOMELLI GEREMIA 4, 20139, Milano",Milano,45.441306,9.213880500000016,e - Bar gastronomici e simili,,,,,,,False,,no_menu,2026-06-02T01:05:34.126698Z,bar,LODI - CORVETTO
comune_milano,ckan_C-PE_17575,Bar Piazza MINNITI TITO 1,https://dati.comune.milano.it/dataset/C-PE/17575,"Piazza MINNITI TITO 1, 20159, Milano",Milano,45.487548000000004,9.188635500000004,e - Bar gastronomici e simili,,,,,,,False,,no_menu,2026-06-02T01:05:34.126713Z,bar,ISOLA
comune_milano,ckan_PE_25011,Bar Via PODGORA 10,https://dati.comune.milano.it/dataset/PE/25011,"Via PODGORA 10, 20122, Milano",Milano,45.46121400000001,9.203566499999994,e - Bar gastronomici e simili,,,,,,,False,,no_menu,2026-06-02T01:05:34.126733Z,bar,GUASTALLA
comune_milano,ckan_C-PE_17633,Bar Via SANZIO RAFFAELLO 2A,https://dati.comune.milano.it/dataset/C-PE/17633,"Via SANZIO RAFFAELLO 2A, 20149, Milano",Milano,45.469818000000004,9.154251000000016,"e - Bar gastronomici e simili;f - Bar caffè e simili;g - Bar pasticceria, bar gelateria, cremeria, creperia e simili",,,,,,,False,,no_menu,2026-06-02T01:05:34.126742Z,cafe,DE ANGELI - MONTE ROSA
comune_milano,ckan_C-PE_14360,Bar Viale ROMAGNA 37,https://dati.comune.milano.it/dataset/C-PE/14360,"Viale ROMAGNA 37, 20133, Milano",Milano,45.47458800000001,9.223362000000009,"a - Ristorante, trattoria, osteria con cucina e simili;f - Bar caffè e simili;h - Wine bar, birreria, pub enoteche, caffetteria, sala da te e simili",,,,,,,False,,no_menu,2026-06-02T01:05:34.126749Z,cafe,BUENOS AIRES - PORTA VENEZIA - PORTA MONFORTE
comune_milano,ckan_C-PE_14364,Bar Via BROGGINI BONAVENTURA 3,https://dati.comune.milano.it/dataset/C-PE/14364,"Via BROGGINI BONAVENTURA 3, 20152, Milano",Milano,45.46386900000002,9.092578500000002,"f - Bar caffè e simili;a - Ristorante, trattoria, osteria con cucina e simili",,,,,,,False,,no_menu,2026-06-02T01:05:34.126756Z,cafe,BAGGIO - Q.RE DEGLI OLMI - Q.RE VALSESIA
comune_milano,ckan_C-PE_14400,Bar Via STENDHAL ENRICO 49,https://dati.comune.milano.it/dataset/C-PE/14400,"Via STENDHAL ENRICO 49, 20144, Milano",Milano,45.455265,9.157895999999994,"h - Wine bar, birreria, pub enoteche, caffetteria, sala da te e simili",,,,,,,False,,no_menu,2026-06-02T01:05:34.126765Z,pub,PORTA GENOVA
comune_milano,ckan_C-PE_14412,Bar Via CUSANI 13,https://dati.comune.milano.it/dataset/C-PE/14412,"Via CUSANI 13, 20121, Milano",Milano,45.46853100000001,9.183379500000001,"a - Ristorante, trattoria, osteria con cucina e simili;e - Bar gastronomici e simili",,,,,,,False,,no_menu,2026-06-02T01:05:34.126774Z,bar,BRERA
comune_milano,ckan_C-PE_14446,Bar Via ZOIA (F.LLI) 43,https://dati.comune.milano.it/dataset/C-PE/14446,"Via ZOIA (F.LLI) 43, 20153, Milano",Milano,45.473967000000016,9.109300500000018,e - Bar gastronomici e simili,,,,,,,False,,no_menu,2026-06-02T01:05:34.126781Z,bar,QUARTO CAGNINO
comune_milano,ckan_C-PE_14458,Bar Piazza MARCO (SAN) 1,https://dati.comune.milano.it/dataset/C-PE/14458,"Piazza MARCO (SAN) 1, 20121, Milano",Milano,45.47316599999999,9.187703999999997,"f - Bar caffè e simili;a - Ristorante, trattoria, osteria con cucina e simili",,,,,,,False,,no_menu,2026-06-02T01:05:34.126789Z,cafe,BRERA
comune_milano,ckan_C-PE_15563,Bar Via IPPOCRATE 45,https://dati.comune.milano.it/dataset/C-PE/15563,"Via IPPOCRATE 45, 20161, Milano",Milano,45.52154100000001,9.164079000000015,"a - Ristorante, trattoria, osteria con cucina e simili;d - Pizzerie e simili;f - Bar caffè e simili",,,,,,,False,,no_menu,2026-06-02T01:05:34.126797Z,cafe,BOVISASCA
comune_milano,ckan_C-PE_15599,Bar Corso BUENOS AIRES 10,https://dati.comune.milano.it/dataset/C-PE/15599,"Corso BUENOS AIRES 10, 20124, Milano",Milano,45.476271,9.207103500000017,"h - Wine bar, birreria, pub enoteche, caffetteria, sala da te e simili",,,,,,,False,,no_menu,2026-06-02T01:05:34.126805Z,pub,BUENOS AIRES - PORTA VENEZIA - PORTA MONFORTE
comune_milano,ckan_C-PE_15637,Bar Viale BODIO LUIGI 16,https://dati.comune.milano.it/dataset/C-PE/15637,"Viale BODIO LUIGI 16, 20158, Milano",Milano,45.497331,9.169276499999995,e - Bar gastronomici e simili,,,,,,,False,,no_menu,2026-06-02T01:05:34.126813Z,bar,BOVISA
comune_milano,ckan_C-PE_15710,Bar Via SFORZA ASCANIO 47,https://dati.comune.milano.it/dataset/C-PE/15710,"Via SFORZA ASCANIO 47, 20136, Milano",Milano,45.447237,9.177138000000014,"a - Ristorante, trattoria, osteria con cucina e simili;f - Bar caffè e simili",,,,,,,False,,no_menu,2026-06-02T01:05:34.126824Z,cafe,PORTA TICINESE - CONCA DEL NAVIGLIO
comune_milano,ckan_PE_30984,Bar Via FORZE ARMATE (DELLE),https://dati.comune.milano.it/dataset/PE/30984,"Via FORZE ARMATE (DELLE), 20152, Milano",Milano,45.460798090999994,9.11717264486,"c - Tavole calde,self service, fast food e simili;e - Bar gastronomici e simili",,,,,,,False,,no_menu,2026-06-02T01:05:34.126838Z,bar,FORZE ARMATE
comune_milano,ckan_C-PE_15748,Bar Via GIUSTI GIUSEPPE 14,https://dati.comune.milano.it/dataset/C-PE/15748,"Via GIUSTI GIUSEPPE 14, 20154, Milano",Milano,45.480222,9.17710199999999,f - Bar caffè e simili,,,,,,,False,,no_menu,2026-06-02T01:05:34.126844Z,cafe,SARPI
comune_milano,ckan_C-PE_17647,Bar Viale CERTOSA 183,https://dati.comune.milano.it/dataset/C-PE/17647,"Viale CERTOSA 183, 20151, Milano",Milano,45.497691,9.134208000000001,e - Bar gastronomici e simili;f - Bar caffè e simili,,,,,,,False,,no_menu,2026-06-02T01:05:34.126855Z,cafe,VILLAPIZZONE - CAGNOLA - BOLDINASCO
comune_milano,ckan_C-PE_17692,Bar Via ARESE FRANCESCO 20,https://dati.comune.milano.it/dataset/C-PE/17692,"Via ARESE FRANCESCO 20, 20159, Milano",Milano,45.4914,9.18846450000001,e - Bar gastronomici e simili,,,,,,,False,,no_menu,2026-06-02T01:05:34.126869Z,bar,ISOLA
comune_milano,ckan_PE_28794,Bar Via NICCOLINI GIOVANNI BATTISTA 29,https://dati.comune.milano.it/dataset/PE/28794,"Via NICCOLINI GIOVANNI BATTISTA 29, 20154, Milano",Milano,45.482417999999996,9.17701199999999,"f - Bar caffè e simili;h - Wine bar, birreria, pub enoteche, caffetteria, sala da te e simili",,,,,,,False,,no_menu,2026-06-02T01:05:34.126876Z,cafe,SARPI
comune_milano,ckan_C-PE_11308,Bar Via D'OVIDIO FRANCESCO 8,https://dati.comune.milano.it/dataset/C-PE/11308,"Via D'OVIDIO FRANCESCO 8, 20131, Milano",Milano,45.480636000000004,9.2253015,e - Bar gastronomici e simili,,,,,,,False,,no_menu,2026-06-02T01:05:34.126885Z,bar,CITTA' STUDI
comune_milano,ckan_C-PE_11316,Bar Via TURATI FILIPPO 38,https://dati.comune.milano.it/dataset/C-PE/11316,"Via TURATI FILIPPO 38, 20121, Milano",Milano,45.476775,9.195637500000004,"a - Ristorante, trattoria, osteria con cucina e simili;f - Bar caffè e simili",,,,,,,False,,no_menu,2026-06-02T01:05:34.126892Z,cafe,BRERA
comune_milano,ckan_C-PE_11374,Bar Via SANZIO RAFFAELLO 24,https://dati.comune.milano.it/dataset/C-PE/11374,"Via SANZIO RAFFAELLO 24, 20149, Milano",Milano,45.467963999999995,9.1514205,"a - Ristorante, trattoria, osteria con cucina e simili;f - Bar caffè e simili",,,,,,,False,,no_menu,2026-06-02T01:05:34.126904Z,cafe,DE ANGELI - MONTE ROSA
comune_milano,ckan_C-PE_11385,Bar Via SANZIO RAFFAELLO 1,https://dati.comune.milano.it/dataset/C-PE/11385,"Via SANZIO RAFFAELLO 1, 20149, Milano",Milano,45.469566000000015,9.154512000000011,"a - Ristorante, trattoria, osteria con cucina e simili;f - Bar caffè e simili",,,,,,,False,,no_menu,2026-06-02T01:05:34.126912Z,cafe,DE ANGELI - MONTE ROSA
comune_milano,ckan_C-PE_11386,Bar Piazza ALESSANDRO (SANT') 3,https://dati.comune.milano.it/dataset/C-PE/11386,"Piazza ALESSANDRO (SANT') 3, 20123, Milano",Milano,45.46063800000002,9.186408,f - Bar caffè e simili,,,,,,,False,,no_menu,2026-06-02T01:05:34.126922Z,cafe,DUOMO
comune_milano,ckan_C-PE_15765,Bar Via WASHINGTON GIORGIO 104,https://dati.comune.milano.it/dataset/C-PE/15765,"Via WASHINGTON GIORGIO 104, 20146, Milano",Milano,45.454814999999996,9.154296000000016,"e - Bar gastronomici e simili;g - Bar pasticceria, bar gelateria, cremeria, creperia e simili",,,,,,,False,,no_menu,2026-06-02T01:05:34.126937Z,bar,PORTA GENOVA
comune_milano,ckan_C-PE_15808,Bar Via ROGOREDO 113,https://dati.comune.milano.it/dataset/C-PE/15808,"Via ROGOREDO 113, 20138, Milano",Milano,45.42651000000001,9.250991999999997,e - Bar gastronomici e simili;f - Bar caffè e simili,,,,,,,False,,no_menu,2026-06-02T01:05:34.126947Z,cafe,TRIULZO SUPERIORE
comune_milano,ckan_C-PE_15825,Bar Via PORPORA NICOLA ANTONIO 169,https://dati.comune.milano.it/dataset/C-PE/15825,"Via PORPORA NICOLA ANTONIO 169, 20131, Milano",Milano,45.48621600000001,9.233118000000019,f - Bar caffè e simili,,,,,,,False,,no_menu,2026-06-02T01:05:34.126955Z,cafe,LORETO - CASORETTO - NOLO
comune_milano,ckan_C-PE_15827,Bar Via CACCIATORI BENEDETTO 1,https://dati.comune.milano.it/dataset/C-PE/15827,"Via CACCIATORI BENEDETTO 1, 20153, Milano",Milano,45.471644999999995,9.109241999999995,"d - Pizzerie e simili;a - Ristorante, trattoria, osteria con cucina e simili;f - Bar caffè e simili",,,,,,,False,,no_menu,2026-06-02T01:05:34.126962Z,cafe,QUARTO CAGNINO
comune_milano,ckan_C-PE_18084,Bar Via ROVELLO 1,https://dati.comune.milano.it/dataset/C-PE/18084,"Via ROVELLO 1, 20121, Milano",Milano,45.466947000000005,9.184558500000009,"f - Bar caffè e simili;g - Bar pasticceria, bar gelateria, cremeria, creperia e simili",,,,,,,False,,no_menu,2026-06-02T01:05:34.126979Z,cafe,BRERA
comune_milano,ckan_C-PE_18191,Bar Piazzale SPORT (DELLO) 6,https://dati.comune.milano.it/dataset/C-PE/18191,"Piazzale SPORT (DELLO) 6, 20148, Milano",Milano,45.480474000000015,9.12964500000001,d - Pizzerie e simili;e - Bar gastronomici e simili,,,,,,,False,,no_menu,2026-06-02T01:05:34.126990Z,bar,STADIO - IPPODROMI
comune_milano,ckan_C-PE_12588,Bar Via REMBRANDT 12,https://dati.comune.milano.it/dataset/C-PE/12588,"Via REMBRANDT 12, 20148, Milano",Milano,45.46749600000001,9.138829500000014,f - Bar caffè e simili,,,,,,,False,,no_menu,2026-06-02T01:05:34.127001Z,cafe,SAN SIRO
comune_milano,ckan_C-PE_15917,Bar Piazza MARIA BELTRADE (SANTA) 1,https://dati.comune.milano.it/dataset/C-PE/15917,"Piazza MARIA BELTRADE (SANTA) 1, 20123, Milano",Milano,45.46273500000001,9.186511499999995,e - Bar gastronomici e simili;f - Bar caffè e simili,,,,,,,False,,no_menu,2026-06-02T01:05:34.127015Z,cafe,DUOMO
comune_milano,ckan_C-PE_15974,Bar Piazza GUARDI FRANCESCO 15,https://dati.comune.milano.it/dataset/C-PE/15974,"Piazza GUARDI FRANCESCO 15, 20133, Milano",Milano,45.47047499999999,9.227007000000015,f - Bar caffè e simili,,,,,,,False,,no_menu,2026-06-02T01:05:34.127029Z,cafe,CITTA' STUDI
comune_milano,ckan_C-PE_16001,Bar Piazza PIEMONTE 8,https://dati.comune.milano.it/dataset/C-PE/16001,"Piazza PIEMONTE 8, 20145, Milano",Milano,45.467010000000016,9.154768500000017,"a - Ristorante, trattoria, osteria con cucina e simili;f - Bar caffè e simili",,,,,,,False,,no_menu,2026-06-02T01:05:34.127043Z,cafe,DE ANGELI - MONTE ROSA
comune_milano,ckan_PE_25074,Bar Viale MURILLO SEBASTIANO BARTOLOMEO 33,https://dati.comune.milano.it/dataset/PE/25074,"Viale MURILLO SEBASTIANO BARTOLOMEO 33, 20149, Milano",Milano,45.47513699999999,9.143180999999998,d - Pizzerie e simili;f - Bar caffè e simili,,,,,,,False,,no_menu,2026-06-02T01:05:34.127050Z,cafe,SAN SIRO
comune_milano,ckan_C-PE_17731,Bar Via UNIONE (DELL') 1,https://dati.comune.milano.it/dataset/C-PE/17731,"Via UNIONE (DELL') 1, 20122, Milano",Milano,45.462411,9.187177500000018,e - Bar gastronomici e simili;f - Bar caffè e simili,,,,,,,False,,no_menu,2026-06-02T01:05:34.127059Z,cafe,DUOMO
comune_milano,ckan_C-PE_17762,Bar Via TUCIDIDE 56,https://dati.comune.milano.it/dataset/C-PE/17762,"Via TUCIDIDE 56, 20134, Milano",Milano,45.47051999999999,9.246050999999994,"h - Wine bar, birreria, pub enoteche, caffetteria, sala da te e simili",,,,,,,False,,no_menu,2026-06-02T01:05:34.127070Z,pub,PARCO FORLANINI - CAVRIANO
comune_milano,ckan_C-PE_17764,Bar Corso VENEZIA 41,https://dati.comune.milano.it/dataset/C-PE/17764,"Corso VENEZIA 41, 20121, Milano",Milano,45.470601000000016,9.200848500000006,"a - Ristorante, trattoria, osteria con cucina e simili;d - Pizzerie e simili;g - Bar pasticceria, bar gelateria, cremeria, creperia e simili",,,,,,,False,,no_menu,2026-06-02T01:05:34.127076Z,cafe,GUASTALLA
comune_milano,ckan_C-PE_17765,Bar Piazza GHIRLANDAIO DOMENICO 7,https://dati.comune.milano.it/dataset/C-PE/17765,"Piazza GHIRLANDAIO DOMENICO 7, 20148, Milano",Milano,45.46686600000001,9.145746000000003,"a - Ristorante, trattoria, osteria con cucina e simili;e - Bar gastronomici e simili;f - Bar caffè e simili;g - Bar pasticceria, bar gelateria, cremeria, creperia e simili",,,,,,,False,,no_menu,2026-06-02T01:05:34.127083Z,cafe,BANDE NERE
comune_milano,ckan_C-PE_13577,Bar Via TARTINI GIUSEPPE 15,https://dati.comune.milano.it/dataset/C-PE/13577,"Via TARTINI GIUSEPPE 15, 20158, Milano",Milano,45.504648,9.175846500000006,f - Bar caffè e simili,,,,,,,False,,no_menu,2026-06-02T01:05:34.127093Z,cafe,DERGANO
comune_milano,ckan_C-PE_13612,Bar Via LIPPI FILIPPINO 2,https://dati.comune.milano.it/dataset/C-PE/13612,"Via LIPPI FILIPPINO 2, 20131, Milano",Milano,45.47953799999999,9.221386499999994,"e - Bar gastronomici e simili;h - Wine bar, birreria, pub enoteche, caffetteria, sala da te e simili",,,,,,,False,,no_menu,2026-06-02T01:05:34.127100Z,bar,BUENOS AIRES - PORTA VENEZIA - PORTA MONFORTE
comune_milano,ckan_C-PE_13613,Bar Via GARIGLIANO 12,https://dati.comune.milano.it/dataset/C-PE/13613,"Via GARIGLIANO 12, 20159, Milano",Milano,45.488484,9.190192499999995,"f - Bar caffè e simili;a - Ristorante, trattoria, osteria con cucina e simili;h - Wine bar, birreria, pub enoteche, caffetteria, sala da te e simili;i - Disco bar, america bar, locali serali e simili",,,,,,,False,,no_menu,2026-06-02T01:05:34.127107Z,cafe,ISOLA
comune_milano,ckan_PE_25003,Bar Via FIAMMA GALVANO 36,https://dati.comune.milano.it/dataset/PE/25003,"Via FIAMMA GALVANO 36, 20129, Milano",Milano,45.466740000000016,9.21141,"a - Ristorante, trattoria, osteria con cucina e simili;f - Bar caffè e simili",,,,,,,False,,no_menu,2026-06-02T01:05:34.127118Z,cafe,XXII MARZO
comune_milano,ckan_PE_25004,Bar Via MONTEGANI LODOVICO 66,https://dati.comune.milano.it/dataset/PE/25004,"Via MONTEGANI LODOVICO 66, 20141, Milano",Milano,45.43212600000001,9.177502500000003,"e - Bar gastronomici e simili;f - Bar caffè e simili;g - Bar pasticceria, bar gelateria, cremeria, creperia e simili",,,,,,,False,,no_menu,2026-06-02T01:05:34.127132Z,cafe,STADERA - CHIESA ROSSA - Q.RE TORRETTA - CONCA FALLATA
comune_milano,ckan_C-PE_16018,Bar Via FLUMENDOSA 34,https://dati.comune.milano.it/dataset/C-PE/16018,"Via FLUMENDOSA 34, 20132, Milano",Milano,45.505413000000004,9.246735000000001,e - Bar gastronomici e simili,,,,,,,False,,no_menu,2026-06-02T01:05:34.127139Z,bar,PADOVA - TURRO - CRESCENZAGO
comune_milano,ckan_PE_25101,Bar Via BERTANI AGOSTINO 2,https://dati.comune.milano.it/dataset/PE/25101,"Via BERTANI AGOSTINO 2, 20154, Milano",Milano,45.47720699999999,9.174500999999992,"f - Bar caffè e simili;a - Ristorante, trattoria, osteria con cucina e simili;h - Wine bar, birreria, pub enoteche, caffetteria, sala da te e simili",,,,,,,False,,no_menu,2026-06-02T01:05:34.127157Z,cafe,SARPI
comune_milano,ckan_C-PE_17875,Bar Via IMPASTATO GIUSEPPE 20M01,https://dati.comune.milano.it/dataset/C-PE/17875,"Via IMPASTATO GIUSEPPE 20M01, 20138, Milano",Milano,45.429147,9.25628850000001,e - Bar gastronomici e simili;f - Bar caffè e simili,,,,,,,False,,no_menu,2026-06-02T01:05:34.127169Z,cafe,TRIULZO SUPERIORE
comune_milano,ckan_C-PE_17881,Bar Via TADINO ALESSANDRO 13,https://dati.comune.milano.it/dataset/C-PE/17881,"Via TADINO ALESSANDRO 13, 20124, Milano",Milano,45.47736900000001,9.205996499999998,e - Bar gastronomici e simili,,,,,,,False,,no_menu,2026-06-02T01:05:34.127174Z,bar,BUENOS AIRES - PORTA VENEZIA - PORTA MONFORTE
comune_milano,ckan_C-PE_17884,Bar Viale FAMAGOSTA 42,https://dati.comune.milano.it/dataset/C-PE/17884,"Viale FAMAGOSTA 42, 20142, Milano",Milano,45.437039999999996,9.162009000000012,f - Bar caffè e simili,,,,,,,False,,no_menu,2026-06-02T01:05:34.127183Z,cafe,BARONA
comune_milano,ckan_C-PE_17907,Bar Via CREMA 17,https://dati.comune.milano.it/dataset/C-PE/17907,"Via CREMA 17, 20135, Milano",Milano,45.449100000000016,9.202823999999993,"e - Bar gastronomici e simili;f - Bar caffè e simili;g - Bar pasticceria, bar gelateria, cremeria, creperia e simili",,,,,,,False,,no_menu,2026-06-02T01:05:34.127191Z,cafe,PTA ROMANA
comune_milano,ckan_C-PE_17911,Bar Via SCOGLIO DI QUARTO 3,https://dati.comune.milano.it/dataset/C-PE/17911,"Via SCOGLIO DI QUARTO 3, 20136, Milano",Milano,45.451854,9.178528499999999,"a - Ristorante, trattoria, osteria con cucina e simili;e - Bar gastronomici e simili",,,,,,,False,,no_menu,2026-06-02T01:05:34.127198Z,bar,PORTA TICINESE - CONCA DEL NAVIGLIO
comune_milano,ckan_C-PE_17919,Bar Via PAOLO (SAN) 15,https://dati.comune.milano.it/dataset/C-PE/17919,"Via PAOLO (SAN) 15, 20121, Milano",Milano,45.466443,9.19296,"a - Ristorante, trattoria, osteria con cucina e simili;f - Bar caffè e simili;g - Bar pasticceria, bar gelateria, cremeria, creperia e simili",,,,,,,False,,no_menu,2026-06-02T01:05:34.127204Z,cafe,DUOMO
comune_milano,ckan_C-PE_17930,Bar Via RUCELLAI BERNARDO 50,https://dati.comune.milano.it/dataset/C-PE/17930,"Via RUCELLAI BERNARDO 50, 20126, Milano",Milano,45.51113699999999,9.215329499999996,f - Bar caffè e simili;e - Bar gastronomici e simili,,,,,,,False,,no_menu,2026-06-02T01:05:34.127211Z,cafe,GORLA - PRECOTTO
comune_milano,ckan_C-PE_17935,Bar Via BANDELLO MATTEO 14,https://dati.comune.milano.it/dataset/C-PE/17935,"Via BANDELLO MATTEO 14, 20123, Milano",Milano,45.463761000000005,9.167183999999992,"a - Ristorante, trattoria, osteria con cucina e simili;f - Bar caffè e simili",,,,,,,False,,no_menu,2026-06-02T01:05:34.127220Z,cafe,MAGENTA - S. VITTORE
comune_milano,ckan_PE_26477,Bar Piazzale PORTA LODOVICA (DI) 5,https://dati.comune.milano.it/dataset/PE/26477,"Piazzale PORTA LODOVICA (DI) 5, 20136, Milano",Milano,45.45160200000001,9.186732000000006,e - Bar gastronomici e simili,,,,,,,False,,no_menu,2026-06-02T01:05:34.127230Z,bar,PORTA VIGENTINA - PORTA LODOVICA
comune_milano,ckan_C-PE_14508,Bar Via PIERO DELLA FRANCESCA 20,https://dati.comune.milano.it/dataset/C-PE/14508,"Via PIERO DELLA FRANCESCA 20, 20154, Milano",Milano,45.482877,9.165946500000018,e - Bar gastronomici e simili,,,,,,,False,,no_menu,2026-06-02T01:05:34.127240Z,bar,SARPI
comune_milano,ckan_C-PE_14628,Bar Piazza ROSARIO (DEL) 1,https://dati.comune.milano.it/dataset/C-PE/14628,"Piazza ROSARIO (DEL) 1, 20144, Milano",Milano,45.45516599999999,9.163404000000014,"e - Bar gastronomici e simili;g - Bar pasticceria, bar gelateria, cremeria, creperia e simili;c - Tavole calde,self service, fast food e simili",,,,,,,False,,no_menu,2026-06-02T01:05:34.127255Z,bar,PORTA GENOVA
comune_milano,ckan_C-PE_11436,Bar Via FABRIANO 3,https://dati.comune.milano.it/dataset/C-PE/11436,"Via FABRIANO 3, 20161, Milano",Milano,45.515466,9.176210999999995,e - Bar gastronomici e simili,,,,,,,False,,no_menu,2026-06-02T01:05:34.127261Z,bar,AFFORI
comune_milano,ckan_C-PE_16138,Bar Via FREIKOFEL 15,https://dati.comune.milano.it/dataset/C-PE/16138,"Via FREIKOFEL 15, 20138, Milano",Milano,45.431775000000016,9.245038499999993,"a - Ristorante, trattoria, osteria con cucina e simili;d - Pizzerie e simili;f - Bar caffè e simili",,,,,,,False,,no_menu,2026-06-02T01:05:34.127273Z,cafe,ROGOREDO - SANTA GIULIA
comune_milano,ckan_C-PE_16192,Bar Via RAVIZZA CARLO 6,https://dati.comune.milano.it/dataset/C-PE/16192,"Via RAVIZZA CARLO 6, 20149, Milano",Milano,45.467693999999995,9.15241499999999,"h - Wine bar, birreria, pub enoteche, caffetteria, sala da te e simili",,,,,,,False,,no_menu,2026-06-02T01:05:34.127288Z,pub,DE ANGELI - MONTE ROSA
comune_milano,ckan_C-PE_16236,Bar Piazzale ROSA GABRIELE 16,https://dati.comune.milano.it/dataset/C-PE/16236,"Piazzale ROSA GABRIELE 16, 20139, Milano",Milano,45.438129,9.224694,f - Bar caffè e simili,,,,,,,False,,no_menu,2026-06-02T01:05:34.127296Z,cafe,LODI - CORVETTO
comune_milano,ckan_C-PE_16250,Bar Via GROSSI TOMMASO 1,https://dati.comune.milano.it/dataset/C-PE/16250,"Via GROSSI TOMMASO 1, 20121, Milano",Milano,45.46553399999999,9.188909999999993,"a - Ristorante, trattoria, osteria con cucina e simili;e - Bar gastronomici e simili",,,,,,,False,,no_menu,2026-06-02T01:05:34.127303Z,bar,DUOMO
comune_milano,ckan_C-PE_18356,Bar Corso SEMPIONE 8,https://dati.comune.milano.it/dataset/C-PE/18356,"Corso SEMPIONE 8, 20154, Milano",Milano,45.477351,9.170599500000009,"a - Ristorante, trattoria, osteria con cucina e simili;f - Bar caffè e simili",,,,,,,False,,no_menu,2026-06-02T01:05:34.127315Z,cafe,SARPI
comune_milano,ckan_C-PE_18375,Bar Viale SARCA 91,https://dati.comune.milano.it/dataset/C-PE/18375,"Viale SARCA 91, 20125, Milano",Milano,45.51021,9.205227000000008,";d - Pizzerie e simili;f - Bar caffè e simili;a - Ristorante, trattoria, osteria con cucina e simili",,,,,,,False,,no_menu,2026-06-02T01:05:34.127325Z,cafe,GRECO - SEGNANO
comune_milano,ckan_C-PE_18415,Bar Via TORTONA 28,https://dati.comune.milano.it/dataset/C-PE/18415,"Via TORTONA 28, 20144, Milano",Milano,45.452889,9.166239000000019,"a - Ristorante, trattoria, osteria con cucina e simili;d - Pizzerie e simili;f - Bar caffè e simili",,,,,,,False,,no_menu,2026-06-02T01:05:34.127333Z,cafe,PORTA GENOVA
comune_milano,ckan_C-PE_18424,Bar Piazza ANGILBERTO II 2,https://dati.comune.milano.it/dataset/C-PE/18424,"Piazza ANGILBERTO II 2, 20139, Milano",Milano,45.43728300000001,9.21748500000001,e - Bar gastronomici e simili,,,,,,,False,,no_menu,2026-06-02T01:05:34.127340Z,bar,LODI - CORVETTO
comune_milano,ckan_C-PE_18435,Bar Viale MONTE NERO 28,https://dati.comune.milano.it/dataset/C-PE/18435,"Viale MONTE NERO 28, 20135, Milano",Milano,45.45546300000001,9.204682500000018,e - Bar gastronomici e simili;f - Bar caffè e simili,,,,,,,False,,no_menu,2026-06-02T01:05:34.127351Z,cafe,PTA ROMANA
comune_milano,ckan_C-PE_11459,Bar Via STAMIRA D'ANCONA 28,https://dati.comune.milano.it/dataset/C-PE/11459,"Via STAMIRA D'ANCONA 28, 20127, Milano",Milano,45.50160600000001,9.228505500000011,"d - Pizzerie e simili;f - Bar caffè e simili;i - Disco bar, america bar, locali serali e simili",,,,,,,False,,no_menu,2026-06-02T01:05:34.127359Z,cafe,PADOVA - TURRO - CRESCENZAGO
comune_milano,ckan_C-PE_12678,Bar Viale MONZA 112,https://dati.comune.milano.it/dataset/C-PE/12678,"Viale MONZA 112, 20127, Milano",Milano,45.49998600000001,9.2210805,e - Bar gastronomici e simili;f - Bar caffè e simili,,,,,,,False,,no_menu,2026-06-02T01:05:34.127376Z,cafe,PADOVA - TURRO - CRESCENZAGO
comune_milano,ckan_C-PE_12682,Bar Via TERRUGGIA GIOVANNI 26,https://dati.comune.milano.it/dataset/C-PE/12682,"Via TERRUGGIA GIOVANNI 26, 20162, Milano",Milano,45.51762600000001,9.188397000000009,"c - Tavole calde,self service, fast food e simili;f - Bar caffè e simili",,,,,,,False,,no_menu,2026-06-02T01:05:34.127383Z,cafe,NIGUARDA - CA' GRANDA - PRATO CENTENARO - Q.RE FULVIO TESTI
comune_milano,ckan_C-PE_6862,Bar Corso GENOVA 1,https://dati.comune.milano.it/dataset/C-PE/6862,"Corso GENOVA 1, 20123, Milano",Milano,45.45835199999999,9.177403499999997,"f - Bar caffè e simili;g - Bar pasticceria, bar gelateria, cremeria, creperia e simili",,,,,,,False,,no_menu,2026-06-02T01:05:34.127392Z,cafe,PORTA TICINESE - CONCA DEL NAVIGLIO
comune_milano,ckan_C-PE_6887,Bar Viale ARGONNE 54,https://dati.comune.milano.it/dataset/C-PE/6887,"Viale ARGONNE 54, 20133, Milano",Milano,45.467712000000006,9.232978500000002,e - Bar gastronomici e simili,,,,,,,False,,no_menu,2026-06-02T01:05:34.127400Z,bar,CORSICA
comune_milano,ckan_C-PE_7353,Bar Via ROSSI PELLEGRINO 81,https://dati.comune.milano.it/dataset/C-PE/7353,"Via ROSSI PELLEGRINO 81, 20161, Milano",Milano,45.51387299999999,9.173452499999996,e - Bar gastronomici e simili;f - Bar caffè e simili,,,,,,,False,,no_menu,2026-06-02T01:05:34.127412Z,cafe,AFFORI
comune_milano,ckan_C-PE_7166,Bar Via IMBRIANI (DEGLI) 31,https://dati.comune.milano.it/dataset/C-PE/7166,"Via IMBRIANI (DEGLI) 31, 20158, Milano",Milano,45.49964399999999,9.168462000000005,f - Bar caffè e simili,,,,,,,False,,no_menu,2026-06-02T01:05:34.127423Z,cafe,BOVISA
comune_milano,ckan_C-PE_7614,Bar Via SPARTACO 25,https://dati.comune.milano.it/dataset/C-PE/7614,"Via SPARTACO 25, 20135, Milano",Milano,45.45848699999999,9.211005,f - Bar caffè e simili,,,,,,,False,,no_menu,2026-06-02T01:05:34.127434Z,cafe,XXII MARZO
comune_milano,ckan_C-PE_7637,Bar Via MORA GIAN GIACOMO 9,https://dati.comune.milano.it/dataset/C-PE/7637,"Via MORA GIAN GIACOMO 9, 20123, Milano",Milano,45.45882,9.179613000000018,"a - Ristorante, trattoria, osteria con cucina e simili;d - Pizzerie e simili;f - Bar caffè e simili",,,,,,,False,,no_menu,2026-06-02T01:05:34.127443Z,cafe,DUOMO
comune_milano,ckan_C-PE_8736,Bar Via GIOVANNI SUL MURO (SAN) 4,https://dati.comune.milano.it/dataset/C-PE/8736,"Via GIOVANNI SUL MURO (SAN) 4, 20121, Milano",Milano,45.466587000000004,9.181035000000008,"f - Bar caffè e simili;g - Bar pasticceria, bar gelateria, cremeria, creperia e simili",,,,,,,False,,no_menu,2026-06-02T01:05:34.127452Z,cafe,DUOMO
comune_milano,ckan_C-PE_8746,Bar Via LORENTEGGIO 163,https://dati.comune.milano.it/dataset/C-PE/8746,"Via LORENTEGGIO 163, 20146, Milano",Milano,45.449783999999994,9.136525500000005,e - Bar gastronomici e simili,,,,,,,False,,no_menu,2026-06-02T01:05:34.127460Z,bar,GIAMBELLINO
comune_milano,ckan_C-PE_8760,Bar Via GOVONE GIUSEPPE 23,https://dati.comune.milano.it/dataset/C-PE/8760,"Via GOVONE GIUSEPPE 23, 20155, Milano",Milano,45.48917700000001,9.167417999999998,"h - Wine bar, birreria, pub enoteche, caffetteria, sala da te e simili;i - Disco bar, america bar, locali serali e simili",,,,,,,False,,no_menu,2026-06-02T01:05:34.127470Z,pub,GHISOLFA
comune_milano,ckan_C-PE_8775,Bar Via ALBANI FRANCESCO 42,https://dati.comune.milano.it/dataset/C-PE/8775,"Via ALBANI FRANCESCO 42, 20148, Milano",Milano,45.48093299999999,9.146456999999998,f - Bar caffè e simili,,,,,,,False,,no_menu,2026-06-02T01:05:34.127480Z,cafe,DE ANGELI - MONTE ROSA
comune_milano,ckan_C-PE_8776,Bar Viale MONTE CENERI 71,https://dati.comune.milano.it/dataset/C-PE/8776,"Viale MONTE CENERI 71, 20155, Milano",Milano,45.49083300000001,9.153089999999992,"f - Bar caffè e simili;e - Bar gastronomici e simili;g - Bar pasticceria, bar gelateria, cremeria, creperia e simili",,,,,,,False,,no_menu,2026-06-02T01:05:34.127486Z,cafe,GHISOLFA
comune_milano,ckan_C-PE_8805,Bar Via BRIOSCHI FRANCESCO 32,https://dati.comune.milano.it/dataset/C-PE/8805,"Via BRIOSCHI FRANCESCO 32, 20136, Milano",Milano,45.445266000000004,9.18060299999999,"f - Bar caffè e simili;h - Wine bar, birreria, pub enoteche, caffetteria, sala da te e simili",,,,,,,False,,no_menu,2026-06-02T01:05:34.127496Z,cafe,PORTA TICINESE - CONCA DEL NAVIGLIO
comune_milano,ckan_C-PE_10182,Bar Via SALMINI VITTORIO 1,https://dati.comune.milano.it/dataset/C-PE/10182,"Via SALMINI VITTORIO 1, 20135, Milano",Milano,45.45071999999999,9.203688,"h - Wine bar, birreria, pub enoteche, caffetteria, sala da te e simili;e - Bar gastronomici e simili;f - Bar caffè e simili",,,,,,,False,,no_menu,2026-06-02T01:05:34.127506Z,cafe,PTA ROMANA
comune_milano,ckan_C-PE_10204,Bar Via TERRUGGIA GIOVANNI 1,https://dati.comune.milano.it/dataset/C-PE/10204,"Via TERRUGGIA GIOVANNI 1, 20162, Milano",Milano,45.517077,9.190709999999996,"g - Bar pasticceria, bar gelateria, cremeria, creperia e simili",,,,,,,False,,no_menu,2026-06-02T01:05:34.127513Z,cafe,NIGUARDA - CA' GRANDA - PRATO CENTENARO - Q.RE FULVIO TESTI
comune_milano,ckan_C-PE_10250,Bar Corso BUENOS AIRES 60,https://dati.comune.milano.it/dataset/C-PE/10250,"Corso BUENOS AIRES 60, 20124, Milano",Milano,45.48204000000001,9.212805000000003,f - Bar caffè e simili,,,,,,,False,,no_menu,2026-06-02T01:05:34.127522Z,cafe,BUENOS AIRES - PORTA VENEZIA - PORTA MONFORTE
comune_milano,ckan_C-PE_10335,Bar Corso INDIPENDENZA 14,https://dati.comune.milano.it/dataset/C-PE/10335,"Corso INDIPENDENZA 14, 20129, Milano",Milano,45.46755000000002,9.213633000000016,e - Bar gastronomici e simili;f - Bar caffè e simili,,,,,,,False,,no_menu,2026-06-02T01:05:34.127532Z,cafe,XXII MARZO
comune_milano,ckan_C-PE_10358,Bar Via PALAZZI LAZZARO 6,https://dati.comune.milano.it/dataset/C-PE/10358,"Via PALAZZI LAZZARO 6, 20124, Milano",Milano,45.47655,9.205713000000003,e - Bar gastronomici e simili,,,,,,,False,,no_menu,2026-06-02T01:05:34.127538Z,bar,BUENOS AIRES - PORTA VENEZIA - PORTA MONFORTE
comune_milano,ckan_C-PE_5094,Bar Via MONTE SAN GENESIO 24,https://dati.comune.milano.it/dataset/C-PE/5094,"Via MONTE SAN GENESIO 24, 20158, Milano",Milano,45.50035500000001,9.1787985,f - Bar caffè e simili,,,,,,,False,,no_menu,2026-06-02T01:05:34.127547Z,cafe,DERGANO
comune_milano,ckan_C-PE_7388,Bar Corso MONFORTE 39,https://dati.comune.milano.it/dataset/C-PE/7388,"Corso MONFORTE 39, 20122, Milano",Milano,45.467693999999995,9.204642000000007,"c - Tavole calde,self service, fast food e simili;f - Bar caffè e simili",,,,,,,False,,no_menu,2026-06-02T01:05:34.127556Z,cafe,GUASTALLA
comune_milano,ckan_C-PE_7403,Bar Via NOVARA 62,https://dati.comune.milano.it/dataset/C-PE/7403,"Via NOVARA 62, 20147, Milano",Milano,45.470646000000016,9.123169500000017,e - Bar gastronomici e simili;f - Bar caffè e simili,,,,,,,False,,no_menu,2026-06-02T01:05:34.127563Z,cafe,STADIO - IPPODROMI
comune_milano,ckan_C-PE_7408,Bar Corso GARIBALDI GIUSEPPE 41,https://dati.comune.milano.it/dataset/C-PE/7408,"Corso GARIBALDI GIUSEPPE 41, 20121, Milano",Milano,45.47370599999999,9.183397500000012,"a - Ristorante, trattoria, osteria con cucina e simili;e - Bar gastronomici e simili;h - Wine bar, birreria, pub enoteche, caffetteria, sala da te e simili",,,,,,,False,,no_menu,2026-06-02T01:05:34.127573Z,bar,BRERA
comune_milano,ckan_C-PE_7643,Bar Viale JENNER EDOARDO 10,https://dati.comune.milano.it/dataset/C-PE/7643,"Viale JENNER EDOARDO 10, 20159, Milano",Milano,45.49749299999999,9.183127500000012,"a - Ristorante, trattoria, osteria con cucina e simili;d - Pizzerie e simili;f - Bar caffè e simili",,,,,,,False,,no_menu,2026-06-02T01:05:34.127582Z,cafe,DERGANO
comune_milano,ckan_C-PE_7660,Bar Piazzetta PATTARI 2,https://dati.comune.milano.it/dataset/C-PE/7660,"Piazzetta PATTARI 2, 20122, Milano",Milano,45.464597999999995,9.193815,"a - Ristorante, trattoria, osteria con cucina e simili;d - Pizzerie e simili;f - Bar caffè e simili",,,,,,,False,,no_menu,2026-06-02T01:05:34.127591Z,cafe,DUOMO
comune_milano,ckan_C-PE_7681,Bar Via FUSARO (DEL) 2,https://dati.comune.milano.it/dataset/C-PE/7681,"Via FUSARO (DEL) 2, 20146, Milano",Milano,45.46140299999999,9.152005500000001,f - Bar caffè e simili,,,,,,,False,,no_menu,2026-06-02T01:05:34.127604Z,cafe,PORTA MAGENTA
comune_milano,ckan_C-PE_8814,Bar Via PAISIELLO GIOVANNI 28,https://dati.comune.milano.it/dataset/C-PE/8814,"Via PAISIELLO GIOVANNI 28, 20131, Milano",Milano,45.481742999999994,9.220257000000004,"e - Bar gastronomici e simili;f - Bar caffè e simili;h - Wine bar, birreria, pub enoteche, caffetteria, sala da te e simili",,,,,,,False,,no_menu,2026-06-02T01:05:34.127611Z,cafe,BUENOS AIRES - PORTA VENEZIA - PORTA MONFORTE
comune_milano,ckan_C-PE_8819,Bar Via CASATI FELICE 44,https://dati.comune.milano.it/dataset/C-PE/8819,"Via CASATI FELICE 44, 20124, Milano",Milano,45.48064500000001,9.199736999999999,"a - Ristorante, trattoria, osteria con cucina e simili;d - Pizzerie e simili;f - Bar caffè e simili;g - Bar pasticceria, bar gelateria, cremeria, creperia e simili",,,,,,,False,,no_menu,2026-06-02T01:05:34.127620Z,cafe,STAZIONE CENTRALE - PONTE SEVESO
comune_milano,ckan_C-PE_8831,Bar Via BALDINUCCI FILIPPO 16,https://dati.comune.milano.it/dataset/C-PE/8831,"Via BALDINUCCI FILIPPO 16, 20158, Milano",Milano,45.50546700000001,9.175725,e - Bar gastronomici e simili;f - Bar caffè e simili,,,,,,,False,,no_menu,2026-06-02T01:05:34.127628Z,cafe,DERGANO
comune_milano,ckan_C-PE_8847,Bar Corso SEMPIONE 8,https://dati.comune.milano.it/dataset/C-PE/8847,"Corso SEMPIONE 8, 20154, Milano",Milano,45.477351,9.170599500000009,"a - Ristorante, trattoria, osteria con cucina e simili;e - Bar gastronomici e simili;f - Bar caffè e simili",,,,,,,False,,no_menu,2026-06-02T01:05:34.127637Z,cafe,SARPI
comune_milano,ckan_C-PE_5106,Bar Via CREMA 19,https://dati.comune.milano.it/dataset/C-PE/5106,"Via CREMA 19, 20135, Milano",Milano,45.448587,9.20300850000001,e - Bar gastronomici e simili;f - Bar caffè e simili,,,,,,,False,,no_menu,2026-06-02T01:05:34.127654Z,cafe,PTA ROMANA
comune_milano,ckan_C-PE_5108,Bar Viale ISONZO 4,https://dati.comune.milano.it/dataset/C-PE/5108,"Viale ISONZO 4, 20135, Milano",Milano,45.44715600000001,9.208894500000014,e - Bar gastronomici e simili;f - Bar caffè e simili,,,,,,,False,,no_menu,2026-06-02T01:05:34.127660Z,cafe,PTA ROMANA
comune_milano,ckan_C-PE_5111,Bar Viale ISONZO 28,https://dati.comune.milano.it/dataset/C-PE/5111,"Viale ISONZO 28, 20135, Milano",Milano,45.446967,9.204538500000012,"e - Bar gastronomici e simili;f - Bar caffè e simili;d - Pizzerie e simili;g - Bar pasticceria, bar gelateria, cremeria, creperia e simili;h - Wine bar, birreria, pub enoteche, caffetteria, sala da te e simili",,,,,,,False,,no_menu,2026-06-02T01:05:34.127671Z,cafe,PTA ROMANA
comune_milano,ckan_C-PE_5114,Bar Corso LODI 22,https://dati.comune.milano.it/dataset/C-PE/5114,"Corso LODI 22, 20135, Milano",Milano,45.44886600000001,9.207089999999994,f - Bar caffè e simili,,,,,,,False,,no_menu,2026-06-02T01:05:34.127680Z,cafe,PTA ROMANA
comune_milano,ckan_C-PE_5120,Bar Via PASSERONI GIAN CARLO 2,https://dati.comune.milano.it/dataset/C-PE/5120,"Via PASSERONI GIAN CARLO 2, 20135, Milano",Milano,45.449838,9.205227000000008,"c - Tavole calde,self service, fast food e simili;f - Bar caffè e simili",,,,,,,False,,no_menu,2026-06-02T01:05:34.127687Z,cafe,PTA ROMANA
comune_milano,ckan_C-PE_5265,Bar Via CAVALLOTTI FELICE 17,https://dati.comune.milano.it/dataset/C-PE/5265,"Via CAVALLOTTI FELICE 17, 20122, Milano",Milano,45.46368000000001,9.197140500000017,e - Bar gastronomici e simili;f - Bar caffè e simili,,,,,,,False,,no_menu,2026-06-02T01:05:34.127697Z,cafe,DUOMO
comune_milano,ckan_C-PE_5277,Bar Via DURINI 2,https://dati.comune.milano.it/dataset/C-PE/5277,"Via DURINI 2, 20122, Milano",Milano,45.463671000000005,9.197631000000001,e - Bar gastronomici e simili;f - Bar caffè e simili,,,,,,,False,,no_menu,2026-06-02T01:05:34.127704Z,cafe,DUOMO
comune_milano,ckan_C-PE_5281,Bar Via DURINI 28,https://dati.comune.milano.it/dataset/C-PE/5281,"Via DURINI 28, 20122, Milano",Milano,45.46562399999999,9.198337500000008,e - Bar gastronomici e simili,,,,,,,False,,no_menu,2026-06-02T01:05:34.127711Z,bar,DUOMO
comune_milano,ckan_C-PE_6399,Bar Via VAL DI FIEMME 36,https://dati.comune.milano.it/dataset/C-PE/6399,"Via VAL DI FIEMME 36, 20128, Milano",Milano,45.51035400000001,9.22972949999999,f - Bar caffè e simili,,,,,,,False,,no_menu,2026-06-02T01:05:34.127723Z,cafe,GORLA - PRECOTTO
comune_milano,ckan_C-PE_6402,Bar Via VALLAZZE 62,https://dati.comune.milano.it/dataset/C-PE/6402,"Via VALLAZZE 62, 20131, Milano",Milano,45.484227000000004,9.225580500000007,"a - Ristorante, trattoria, osteria con cucina e simili;f - Bar caffè e simili",,,,,,,False,,no_menu,2026-06-02T01:05:34.127734Z,cafe,CITTA' STUDI
comune_milano,ckan_C-PE_7689,Bar Via ROTTA PAOLO 10,https://dati.comune.milano.it/dataset/C-PE/7689,"Via ROTTA PAOLO 10, 20162, Milano",Milano,45.516366000000005,9.189486000000016,d - Pizzerie e simili;f - Bar caffè e simili,,,,,,,False,,no_menu,2026-06-02T01:05:34.127740Z,cafe,NIGUARDA - CA' GRANDA - PRATO CENTENARO - Q.RE FULVIO TESTI
comune_milano,ckan_C-PE_7696,Bar Viale ABRUZZI 23,https://dati.comune.milano.it/dataset/C-PE/7696,"Viale ABRUZZI 23, 20131, Milano",Milano,45.477333000000016,9.216827999999992,e - Bar gastronomici e simili,,,,,,,False,,no_menu,2026-06-02T01:05:34.127746Z,bar,BUENOS AIRES - PORTA VENEZIA - PORTA MONFORTE
comune_milano,ckan_C-PE_7697,Bar Piazza PREALPI 7,https://dati.comune.milano.it/dataset/C-PE/7697,"Piazza PREALPI 7, 20155, Milano",Milano,45.494388000000015,9.15248249999999,f - Bar caffè e simili;e - Bar gastronomici e simili,,,,,,,False,,no_menu,2026-06-02T01:05:34.127753Z,cafe,VILLAPIZZONE - CAGNOLA - BOLDINASCO
comune_milano,ckan_C-PE_7698,Bar Piazzale ISTRIA 1,https://dati.comune.milano.it/dataset/C-PE/7698,"Piazzale ISTRIA 1, 20159, Milano",Milano,45.501273,9.197226,f - Bar caffè e simili,,,,,,,False,,no_menu,2026-06-02T01:05:34.127758Z,cafe,MACIACHINI - MAGGIOLINA
comune_milano,ckan_PE_25002,Bar Via MORGAGNI GIOVANNI BATTISTA 28,https://dati.comune.milano.it/dataset/PE/25002,"Via MORGAGNI GIOVANNI BATTISTA 28, 20129, Milano",Milano,45.47898900000001,9.213551999999993,"e - Bar gastronomici e simili;f - Bar caffè e simili;h - Wine bar, birreria, pub enoteche, caffetteria, sala da te e simili",,,,,,,False,,no_menu,2026-06-02T01:05:34.127773Z,cafe,BUENOS AIRES - PORTA VENEZIA - PORTA MONFORTE
comune_milano,ckan_C-PE_8902,Bar Via EUSTACHI BARTOLOMEO 17,https://dati.comune.milano.it/dataset/C-PE/8902,"Via EUSTACHI BARTOLOMEO 17, 20129, Milano",Milano,45.47549699999999,9.214537500000006,"a - Ristorante, trattoria, osteria con cucina e simili;c - Tavole calde,self service, fast food e simili;e - Bar gastronomici e simili",,,,,,,False,,no_menu,2026-06-02T01:05:34.127780Z,bar,BUENOS AIRES - PORTA VENEZIA - PORTA MONFORTE
comune_milano,ckan_C-PE_8965,Bar Via MODICA 1,https://dati.comune.milano.it/dataset/C-PE/8965,"Via MODICA 1, 20143, Milano",Milano,45.439245,9.155223000000007,e - Bar gastronomici e simili;f - Bar caffè e simili,,,,,,,False,,no_menu,2026-06-02T01:05:34.127794Z,cafe,MONCUCCO - SAN CRISTOFORO
comune_milano,ckan_C-PE_6219,Bar Via ARCONATI COSTANZA 9,https://dati.comune.milano.it/dataset/C-PE/6219,"Via ARCONATI COSTANZA 9, 20135, Milano",Milano,45.457965,9.218627999999995,e - Bar gastronomici e simili,,,,,,,False,,no_menu,2026-06-02T01:05:34.127805Z,bar,UMBRIA - MOLISE - CALVAIRATE
comune_milano,ckan_C-PE_6229,Bar Via BATTISTI CESARE 1,https://dati.comune.milano.it/dataset/C-PE/6229,"Via BATTISTI CESARE 1, 20122, Milano",Milano,45.463266000000004,9.199376999999998,d - Pizzerie e simili;e - Bar gastronomici e simili,,,,,,,False,,no_menu,2026-06-02T01:05:34.127811Z,bar,GUASTALLA
comune_milano,ckan_C-PE_6254,Bar Via CARACCIOLO FRANCESCO 16,https://dati.comune.milano.it/dataset/C-PE/6254,"Via CARACCIOLO FRANCESCO 16, 20155, Milano",Milano,45.488574,9.157662000000016,e - Bar gastronomici e simili,,,,,,,False,,no_menu,2026-06-02T01:05:34.127821Z,bar,GHISOLFA
comune_milano,ckan_C-PE_6255,Bar Via SARZANA 40,https://dati.comune.milano.it/dataset/C-PE/6255,"Via SARZANA 40, 20159, Milano",Milano,45.503118,9.193270500000011,e - Bar gastronomici e simili,,,,,,,False,,no_menu,2026-06-02T01:05:34.127828Z,bar,MACIACHINI - MAGGIOLINA
comune_milano,ckan_C-PE_6624,Bar Via GROSSICH ANTONIO 17,https://dati.comune.milano.it/dataset/C-PE/6624,"Via GROSSICH ANTONIO 17, 20131, Milano",Milano,45.48236399999999,9.234112500000009,"b - Ristorante, trattoria, osteria con cucina tipica;f - Bar caffè e simili",,,,,,,False,,no_menu,2026-06-02T01:05:34.127839Z,cafe,CITTA' STUDI
comune_milano,ckan_C-PE_6428,Bar Via SACCHINI ANTONIO GASPARE 1,https://dati.comune.milano.it/dataset/C-PE/6428,"Via SACCHINI ANTONIO GASPARE 1, 20131, Milano",Milano,45.48455100000001,9.220099500000003,e - Bar gastronomici e simili;f - Bar caffè e simili,,,,,,,False,,no_menu,2026-06-02T01:05:34.127853Z,cafe,BUENOS AIRES - PORTA VENEZIA - PORTA MONFORTE
comune_milano,ckan_C-PE_7763,Bar Via PISACANE CARLO 57,https://dati.comune.milano.it/dataset/C-PE/7763,"Via PISACANE CARLO 57, 20129, Milano",Milano,45.473922000000016,9.210969000000006,"a - Ristorante, trattoria, osteria con cucina e simili;f - Bar caffè e simili",,,,,,,False,,no_menu,2026-06-02T01:05:34.127867Z,cafe,BUENOS AIRES - PORTA VENEZIA - PORTA MONFORTE
comune_milano,ckan_C-PE_7787,Bar Via TORCHIO (DEL) 8,https://dati.comune.milano.it/dataset/C-PE/7787,"Via TORCHIO (DEL) 8, 20123, Milano",Milano,45.460521,9.180540000000008,e - Bar gastronomici e simili,,,,,,,False,,no_menu,2026-06-02T01:05:34.127879Z,bar,DUOMO
comune_milano,ckan_PE_28087,Bar Via MOSCOVA (DELLA) 52,https://dati.comune.milano.it/dataset/PE/28087,"Via MOSCOVA (DELLA) 52, 20121, Milano",Milano,45.477711,9.185048999999992,"a - Ristorante, trattoria, osteria con cucina e simili;f - Bar caffè e simili",,,,,,,False,,no_menu,2026-06-02T01:05:34.127886Z,cafe,BRERA
comune_milano,ckan_PE_30649,Bar Via CHIUSA (DELLA),https://dati.comune.milano.it/dataset/PE/30649,"Via CHIUSA (DELLA), 20123, Milano",Milano,45.456728270999996,9.184370391149999,"a - Ristorante, trattoria, osteria con cucina e simili;e - Bar gastronomici e simili;f - Bar caffè e simili;h - Wine bar, birreria, pub enoteche, caffetteria, sala da te e simili",,,,,,,False,,no_menu,2026-06-02T01:05:34.127894Z,cafe,DUOMO
comune_milano,ckan_C-PE_8992,Bar Via MONTEGANI LODOVICO 5,https://dati.comune.milano.it/dataset/C-PE/8992,"Via MONTEGANI LODOVICO 5, 20141, Milano",Milano,45.43687800000001,9.178357500000004,"a - Ristorante, trattoria, osteria con cucina e simili;d - Pizzerie e simili;f - Bar caffè e simili",,,,,,,False,,no_menu,2026-06-02T01:05:34.127902Z,cafe,STADERA - CHIESA ROSSA - Q.RE TORRETTA - CONCA FALLATA
comune_milano,ckan_C-PE_9048,Bar Via MARCO (SAN) 34,https://dati.comune.milano.it/dataset/C-PE/9048,"Via MARCO (SAN) 34, 20121, Milano",Milano,45.477891,9.188977499999993,"g - Bar pasticceria, bar gelateria, cremeria, creperia e simili",,,,,,,False,,no_menu,2026-06-02T01:05:34.127929Z,cafe,BRERA
comune_milano,ckan_C-PE_9056,Bar Via VIGEVANO 2,https://dati.comune.milano.it/dataset/C-PE/9056,"Via VIGEVANO 2, 20144, Milano",Milano,45.452934,9.17547300000001,f - Bar caffè e simili,,,,,,,False,,no_menu,2026-06-02T01:05:34.127937Z,cafe,PORTA TICINESE - CONCHETTA
comune_milano,ckan_C-PE_6697,Bar Viale MONTE CENERI 78,https://dati.comune.milano.it/dataset/C-PE/6697,"Viale MONTE CENERI 78, 20155, Milano",Milano,45.49049099999999,9.151758000000001,f - Bar caffè e simili,,,,,,,False,,no_menu,2026-06-02T01:05:34.127947Z,cafe,VILLAPIZZONE - CAGNOLA - BOLDINASCO
comune_milano,ckan_C-PE_6734,Bar Via CILEA FRANCESCO 2,https://dati.comune.milano.it/dataset/C-PE/6734,"Via CILEA FRANCESCO 2, 20151, Milano",Milano,45.49752000000001,9.106258499999996,f - Bar caffè e simili;e - Bar gastronomici e simili,,,,,,,False,,no_menu,2026-06-02T01:05:34.127963Z,cafe,Q.RE GALLARATESE - Q.RE SAN LEONARDO - LAMPUGNANO
comune_milano,ckan_PE_24687,Bar Via TURCHINO (DEL) 13,https://dati.comune.milano.it/dataset/PE/24687,"Via TURCHINO (DEL) 13, 20137, Milano",Milano,45.45191700000001,9.22720050000001,f - Bar caffè e simili,,,,,,,False,,no_menu,2026-06-02T01:05:34.127969Z,cafe,ORTOMERCATO
