source_platform,source_venue_id,venue_name,venue_url,address,city,latitude,longitude,categories,price_tier,rating,rating_count,phone,website,opening_hours,has_menu,menu_url,extraction_status,retrieved_at,venue_type,nil_quartiere,_osm_amenity,_osm_cuisine,_match_distance_m,_match_method
comune_milano,ckan_PE_26062,Altrè,https://dati.comune.milano.it/dataset/PE/26062,"Piazza BANDIERA (F.LLI) 13, 20129, Milano",Milano,45.470853000000005,9.211369500000018,"g - Bar pasticceria, bar gelateria, cremeria, creperia e simili;e - Bar gastronomici e simili",,,,,,,False,,no_menu,2026-06-02T01:05:34.125009Z,bar,BUENOS AIRES - PORTA VENEZIA - PORTA MONFORTE,restaurant,,35.3,osm_geo_50m
comune_milano,ckan_PE_24514,La Birreria Italiana,https://dati.comune.milano.it/dataset/PE/24514,"Via MUSSI GIUSEPPE 13, 20154, Milano",Milano,45.48293100000001,9.166477500000013,e - Bar gastronomici e simili,,,,,,,False,,no_menu,2026-06-02T01:05:34.125047Z,bar,SARPI,restaurant,,30.0,osm_geo_50m
comune_milano,ckan_PE_26065,Crazy Moon,https://dati.comune.milano.it/dataset/PE/26065,"Via PALIZZI FILIPPO 119, 20157, Milano",Milano,45.508437000000015,9.133658999999994,e - Bar gastronomici e simili;f - Bar caffè e simili,,,,,,,False,,no_menu,2026-06-02T01:05:34.125059Z,cafe,QUARTO OGGIARO - VIALBA - MUSOCCO,bar,,46.2,osm_geo_50m
comune_milano,ckan_PE_26071,Caffè Napoli Crocetta,https://dati.comune.milano.it/dataset/PE/26071,"Largo CROCETTA (DELLA) 2, 20122, Milano",Milano,45.455895,9.195412500000003,e - Bar gastronomici e simili,,,,,,,False,,no_menu,2026-06-02T01:05:34.125082Z,bar,PORTA VIGENTINA - PORTA LODOVICA,cafe,,20.7,osm_geo_50m
comune_milano,ckan_PE_31034,Pizza D'ok,https://dati.comune.milano.it/dataset/PE/31034,"Via BRESSAN (F.LLI) 44, 20126, Milano",Milano,45.510435,9.218722500000013,"c - Tavole calde,self service, fast food e simili;e - Bar gastronomici e simili;f - Bar caffè e simili",,,,,www.pizzadokmilano.it/,,False,,no_menu,2026-06-02T01:05:34.125092Z,cafe,GORLA - PRECOTTO,restaurant,pizza,7.6,osm_geo_50m
comune_milano,ckan_PE_30471,Mom,https://dati.comune.milano.it/dataset/PE/30471,"Viale MONTE NERO 51, 20135, Milano",Milano,45.458811,9.205956000000015,e - Bar gastronomici e simili,,,,,,,False,,no_menu,2026-06-02T01:05:34.125106Z,bar,GUASTALLA,pub,,19.8,osm_geo_50m
comune_milano,ckan_PE_30851,Bar Al Brivido,https://dati.comune.milano.it/dataset/PE/30851,"Via FORZE ARMATE (DELLE) 70, 20147, Milano",Milano,45.463131000000004,9.12910500000001,"g - Bar pasticceria, bar gelateria, cremeria, creperia e simili",,,,,,,False,,no_menu,2026-06-02T01:05:34.125131Z,cafe,BANDE NERE,cafe,,12.4,osm_geo_50m
comune_milano,ckan_PE_27326,La Rosa dei Venti,https://dati.comune.milano.it/dataset/PE/27326,"Via GREGORIO (SAN) 40, 20124, Milano",Milano,45.48091500000001,9.201928500000008,e - Bar gastronomici e simili;f - Bar caffè e simili,,,,,,,False,,no_menu,2026-06-02T01:05:34.125138Z,cafe,STAZIONE CENTRALE - PONTE SEVESO,cafe,,5.8,osm_geo_50m
comune_milano,ckan_PE_24545,Sol y Luna,https://dati.comune.milano.it/dataset/PE/24545,"Piazza CITTA' DI LOMBARDIA 1, 20124, Milano",Milano,45.487026000000014,9.19575900000001,e - Bar gastronomici e simili,,,,+39 02 36638491,https://solylunamexicangrill.com/,,False,,no_menu,2026-06-02T01:05:34.125147Z,bar,PORTA GARIBALDI - PORTA NUOVA,restaurant,mexican,31.7,osm_geo_50m
comune_milano,ckan_PE_24546,Mai dire bar,https://dati.comune.milano.it/dataset/PE/24546,"Via PIERLUIGI GIOVANNI DA PALESTRINA 32, 20124, Milano",Milano,45.487386000000015,9.209794500000015,f - Bar caffè e simili,,,,+39 02 8287 5469,https://mai-dire-bar.eatbu.com/,,False,,no_menu,2026-06-02T01:05:34.125153Z,cafe,STAZIONE CENTRALE - PONTE SEVESO,cafe,coffee_shop;breakfast,1.5,osm_geo_50m
comune_milano,ckan_PE_24602,Bar Bonfadini,https://dati.comune.milano.it/dataset/PE/24602,"Via BONFADINI ROMUALDO 101, 20138, Milano",Milano,45.444816,9.246438000000012,e - Bar gastronomici e simili,,,,,,,False,,no_menu,2026-06-02T01:05:34.125163Z,bar,TALIEDO - MORSENCHIO - Q.RE FORLANINI,cafe,,14.2,osm_geo_50m
comune_milano,ckan_PE_25633,Milord,https://dati.comune.milano.it/dataset/PE/25633,"Via SANSOVINO 30, 20133, Milano",Milano,45.479096999999996,9.220855499999999,"a - Ristorante, trattoria, osteria con cucina e simili;c - Tavole calde,self service, fast food e simili;f - Bar caffè e simili;i - Disco bar, america bar, locali serali e simili",,,,,,,False,,no_menu,2026-06-02T01:05:34.125170Z,cafe,BUENOS AIRES - PORTA VENEZIA - PORTA MONFORTE,restaurant,italian,15.6,osm_geo_50m
comune_milano,ckan_PE_25634,Spritz,https://dati.comune.milano.it/dataset/PE/25634,"Ripa PORTA TICINESE (DI) 9, 20143, Milano",Milano,45.45197999999999,9.176643000000013,"g - Bar pasticceria, bar gelateria, cremeria, creperia e simili",,,,+390283390192,https://www.leggimenu.it/menu/spritznaviglimilano,,False,,no_menu,2026-06-02T01:05:34.125177Z,cafe,PORTA TICINESE - CONCHETTA,bar,,3.8,osm_geo_50m
comune_milano,ckan_PE_25984,Salotto Brera,https://dati.comune.milano.it/dataset/PE/25984,"Via MONTEBELLO 7, 20121, Milano",Milano,45.47529900000001,9.18913950000001,f - Bar caffè e simili,,,,+39 02 35954468,https://www.salottobrera.it/,,False,,no_menu,2026-06-02T01:05:34.125185Z,cafe,BRERA,restaurant,,7.3,osm_geo_50m
comune_milano,ckan_PE_24885,Cafè Soleil,https://dati.comune.milano.it/dataset/PE/24885,"Via GALLARATE 107, 20151, Milano",Milano,45.496386,9.1332405,e - Bar gastronomici e simili,,,,,,,False,,no_menu,2026-06-02T01:05:34.125200Z,bar,VILLAPIZZONE - CAGNOLA - BOLDINASCO,bar,,41.0,osm_geo_50m
comune_milano,ckan_PE_25734,Montesoprano,https://dati.comune.milano.it/dataset/PE/25734,"Ripa PORTA TICINESE (DI) 5, 20143, Milano",Milano,45.452061000000015,9.177106500000008,e - Bar gastronomici e simili,,,,,https://www.montesoprano.com/,,False,,no_menu,2026-06-02T01:05:34.125214Z,bar,PORTA TICINESE - CONCHETTA,restaurant,italian,2.2,osm_geo_50m
comune_milano,ckan_PE_26410,The Friends,https://dati.comune.milano.it/dataset/PE/26410,"Viale MONTE SANTO 10, 20124, Milano",Milano,45.48010500000001,9.193580999999995,"f - Bar caffè e simili;g - Bar pasticceria, bar gelateria, cremeria, creperia e simili",,,,+39 02 2900 5315,https://www.thefriendspubmilano.it,,False,,no_menu,2026-06-02T01:05:34.125222Z,cafe,PORTA GARIBALDI - PORTA NUOVA,pub,,16.9,osm_geo_50m
comune_milano,ckan_PE_25731,Snubar,https://dati.comune.milano.it/dataset/PE/25731,"Via WASHINGTON GIORGIO 11, 20146, Milano",Milano,45.46472399999999,9.155331000000018,"h - Wine bar, birreria, pub enoteche, caffetteria, sala da te e simili",,,,+39 02 45377861,,,False,,no_menu,2026-06-02T01:05:34.125241Z,pub,PORTA MAGENTA,restaurant,lebanese,26.2,osm_geo_50m
comune_milano,ckan_PE_24721,Pinch,https://dati.comune.milano.it/dataset/PE/24721,"Ripa PORTA TICINESE (DI) 63, 20143, Milano",Milano,45.45071100000001,9.170599500000009,"f - Bar caffè e simili;h - Wine bar, birreria, pub enoteche, caffetteria, sala da te e simili",,,,,https://www.pinchmilano.com/,,False,,no_menu,2026-06-02T01:05:34.125250Z,cafe,PORTA TICINESE - CONCHETTA,bar,,4.4,osm_geo_50m
comune_milano,ckan_PE_26275,Yifan,https://dati.comune.milano.it/dataset/PE/26275,"Via SOLARI ANDREA 23, 20144, Milano",Milano,45.45549,9.164231999999998,e - Bar gastronomici e simili,,,,+393398630794,https://yifanmilano.it/,,False,,no_menu,2026-06-02T01:05:34.125257Z,bar,PORTA GENOVA,restaurant,chinese;japanese;dessert;poke,20.9,osm_geo_50m
comune_milano,ckan_PE_24208,Blues cafè,https://dati.comune.milano.it/dataset/PE/24208,"Via IMBRIANI (DEGLI) 1, 20158, Milano",Milano,45.496971,9.170622000000009,f - Bar caffè e simili,,,,+39 02 82197892,,,False,,no_menu,2026-06-02T01:05:34.125265Z,cafe,BOVISA,cafe,,46.0,osm_geo_50m
comune_milano,ckan_PE_27250,Orsonero Coffee,https://dati.comune.milano.it/dataset/PE/27250,"Via BROGGI GIUSEPPE 13, 20129, Milano",Milano,45.47786400000001,9.211036500000006,"a - Ristorante, trattoria, osteria con cucina e simili;g - Bar pasticceria, bar gelateria, cremeria, creperia e simili;h - Wine bar, birreria, pub enoteche, caffetteria, sala da te e simili",,,,,,,False,,no_menu,2026-06-02T01:05:34.125272Z,cafe,BUENOS AIRES - PORTA VENEZIA - PORTA MONFORTE,cafe,,22.2,osm_geo_50m
comune_milano,ckan_PE_24562,Trattoria Bovisa,https://dati.comune.milano.it/dataset/PE/24562,"Via ANDREOLI DON GIUSEPPE 23, 20158, Milano",Milano,45.503478,9.1618335,e - Bar gastronomici e simili,,,,,,,False,,no_menu,2026-06-02T01:05:34.125280Z,bar,BOVISA,restaurant,italian;chinese,13.3,osm_geo_50m
comune_milano,ckan_PE_24566,Le Presine Volanti,https://dati.comune.milano.it/dataset/PE/24566,"Via SCIESA AMATORE 6, 20135, Milano",Milano,45.461331,9.209326500000003,e - Bar gastronomici e simili,,,,,,,False,,no_menu,2026-06-02T01:05:34.125287Z,bar,XXII MARZO,restaurant,kebab;tapas;soup,45.8,osm_geo_50m
comune_milano,ckan_PE_24570,Boom,https://dati.comune.milano.it/dataset/PE/24570,"Viale CAMPANIA 12, 20133, Milano",Milano,45.463491000000005,9.22421700000001,"e - Bar gastronomici e simili;f - Bar caffè e simili;g - Bar pasticceria, bar gelateria, cremeria, creperia e simili",,,,,,,False,,no_menu,2026-06-02T01:05:34.125295Z,cafe,CORSICA,bar,,42.5,osm_geo_50m
comune_milano,ckan_PE_24572,Picanha's,https://dati.comune.milano.it/dataset/PE/24572,"Piazzale LOTTO LORENZO 14, 20148, Milano",Milano,45.480636000000004,9.143478000000016,"a - Ristorante, trattoria, osteria con cucina e simili;f - Bar caffè e simili",,,,+39 02 39214408,http://www.picanhaschurrascaria.com/,,False,,no_menu,2026-06-02T01:05:34.125302Z,cafe,DE ANGELI - MONTE ROSA,restaurant,brazilian,14.6,osm_geo_50m
comune_milano,ckan_PE_29021,MaJuDa,https://dati.comune.milano.it/dataset/PE/29021,"Via MISSAGLIA (DEI) 13, 20142, Milano",Milano,45.42669000000001,9.178803000000016,"c - Tavole calde,self service, fast food e simili;f - Bar caffè e simili;g - Bar pasticceria, bar gelateria, cremeria, creperia e simili",,,,+39 02 2416 4767,,,False,,no_menu,2026-06-02T01:05:34.125313Z,cafe,STADERA - CHIESA ROSSA - Q.RE TORRETTA - CONCA FALLATA,cafe,coffee_shop;deli,42.1,osm_geo_50m
comune_milano,ckan_PE_24581,SuperPizza,https://dati.comune.milano.it/dataset/PE/24581,"Viale SABOTINO 13, 20135, Milano",Milano,45.45102600000001,9.198819000000015,"g - Bar pasticceria, bar gelateria, cremeria, creperia e simili",,,,,,,False,,no_menu,2026-06-02T01:05:34.125319Z,cafe,PTA ROMANA,restaurant,pizza,23.4,osm_geo_50m
comune_milano,ckan_PE_25992,So' Garden,https://dati.comune.milano.it/dataset/PE/25992,"Via CASSINARI BRUNO 2, 20138, Milano",Milano,45.43580700000001,9.240831000000014,"f - Bar caffè e simili;c - Tavole calde,self service, fast food e simili",,,,,,,False,,no_menu,2026-06-02T01:05:34.125326Z,cafe,ROGOREDO - SANTA GIULIA,restaurant,,11.7,osm_geo_50m
comune_milano,ckan_C-PE_12699,PS Cocktail & Beer,https://dati.comune.milano.it/dataset/C-PE/12699,"Alzaia NAVIGLIO PAVESE 10, 20143, Milano",Milano,45.450863999999996,9.177574499999992,"a - Ristorante, trattoria, osteria con cucina e simili;i - Disco bar, america bar, locali serali e simili",,,,+39 348 3148001,,,False,,no_menu,2026-06-02T01:05:34.125345Z,cocktail_bar,PORTA TICINESE - CONCHETTA,bar,,9.3,osm_geo_50m
comune_milano,ckan_C-PE_12719,Fei Yun Ge,https://dati.comune.milano.it/dataset/C-PE/12719,"Via GIOIA MELCHIORRE 141, 20125, Milano",Milano,45.49518900000001,9.207134999999994,"e - Bar gastronomici e simili;g - Bar pasticceria, bar gelateria, cremeria, creperia e simili;a - Ristorante, trattoria, osteria con cucina e simili",,,,+39 02 66985374,,,False,,no_menu,2026-06-02T01:05:34.125357Z,bar,MACIACHINI - MAGGIOLINA,restaurant,italian;chinese,16.8,osm_geo_50m
comune_milano,ckan_C-PE_12737,Fusion Restaurant Il Nuovo Secolo,https://dati.comune.milano.it/dataset/C-PE/12737,"Viale BEZZI ERGISTO 82, 20146, Milano",Milano,45.46058400000001,9.148927500000013,f - Bar caffè e simili,,,,+39 02 4982376,https://fusionrestaurantilnuovosecolo.it/,,False,,no_menu,2026-06-02T01:05:34.125367Z,cafe,BANDE NERE,restaurant,italian;chinese;sushi,45.5,osm_geo_50m
comune_milano,ckan_C-PE_12138,Hard Rock Cafe,https://dati.comune.milano.it/dataset/C-PE/12138,"Via MERAVIGLI 2, 20123, Milano",Milano,45.466002,9.184733999999992,"a - Ristorante, trattoria, osteria con cucina e simili;e - Bar gastronomici e simili;f - Bar caffè e simili",,,,+39 02 58124970,https://www.hardrockcafe.com/location/milan/,,False,,no_menu,2026-06-02T01:05:34.125385Z,cafe,DUOMO,restaurant,american,27.8,osm_geo_50m
comune_milano,ckan_C-PE_12142,NUI City Jungle Cafè,https://dati.comune.milano.it/dataset/C-PE/12142,"Largo DONEGANI GUIDO 1, 20121, Milano",Milano,45.47522699999999,9.194373000000013,"a - Ristorante, trattoria, osteria con cucina e simili;c - Tavole calde,self service, fast food e simili;d - Pizzerie e simili;e - Bar gastronomici e simili;h - Wine bar, birreria, pub enoteche, caffetteria, sala da te e simili;f - Bar caffè e simili",,,,,,,False,,no_menu,2026-06-02T01:05:34.125394Z,cafe,BRERA,restaurant,italian,34.5,osm_geo_50m
comune_milano,ckan_C-PE_12163,Mercurio,https://dati.comune.milano.it/dataset/C-PE/12163,"Via COSTA ANDREA 3, 20131, Milano",Milano,45.486774,9.218547000000001,e - Bar gastronomici e simili,,,,,,,False,,no_menu,2026-06-02T01:05:34.125401Z,bar,LORETO - CASORETTO - NOLO,cafe,,3.5,osm_geo_50m
comune_milano,ckan_C-PE_12184,Emipiace,https://dati.comune.milano.it/dataset/C-PE/12184,"Viale MONTE NERO 34, 20135, Milano",Milano,45.455967000000015,9.204975000000019,"a - Ristorante, trattoria, osteria con cucina e simili;h - Wine bar, birreria, pub enoteche, caffetteria, sala da te e simili",,,,,,,False,,no_menu,2026-06-02T01:05:34.125408Z,pub,PTA ROMANA,restaurant,,41.0,osm_geo_50m
comune_milano,ckan_C-PE_13198,California Bakery,https://dati.comune.milano.it/dataset/C-PE/13198,"Piazza EUSTORGIO (SANT') 2, 20122, Milano",Milano,45.45323100000002,9.180499499999996,"c - Tavole calde,self service, fast food e simili;g - Bar pasticceria, bar gelateria, cremeria, creperia e simili",,,,+39 02 83526866,https://californiabakery.it/,,False,,no_menu,2026-06-02T01:05:34.125417Z,cafe,PORTA TICINESE - CONCA DEL NAVIGLIO,restaurant,,22.8,osm_geo_50m
comune_milano,ckan_C-PE_16289,DCafé,https://dati.comune.milano.it/dataset/C-PE/16289,"Piazzale ISTRIA 1, 20159, Milano",Milano,45.501273,9.197226,f - Bar caffè e simili,,,,,,,False,,no_menu,2026-06-02T01:05:34.125430Z,cafe,MACIACHINI - MAGGIOLINA,cafe,,5.1,osm_geo_50m
comune_milano,ckan_PE_30670,cirispaccio,https://dati.comune.milano.it/dataset/PE/30670,"Via CANONICA LUIGI 74, 20154, Milano",Milano,45.480654000000015,9.170887499999992,"e - Bar gastronomici e simili;f - Bar caffè e simili;g - Bar pasticceria, bar gelateria, cremeria, creperia e simili",,,,+390249519340,,,False,,no_menu,2026-06-02T01:05:34.125449Z,cafe,SARPI,restaurant,,6.7,osm_geo_50m
comune_milano,ckan_C-PE_17794,Al Baretto San Marco,https://dati.comune.milano.it/dataset/C-PE/17794,"Via MARSALA 2, 20121, Milano",Milano,45.478376999999995,9.187942499999991,"a - Ristorante, trattoria, osteria con cucina e simili;f - Bar caffè e simili",,,,,https://www.albarettosanmarco.com/,,False,,no_menu,2026-06-02T01:05:34.125465Z,cafe,BRERA,restaurant,fish,1.8,osm_geo_50m
comune_milano,ckan_C-PE_17802,n'ombra de vin,https://dati.comune.milano.it/dataset/C-PE/17802,"Via MARCO (SAN) 2, 20121, Milano",Milano,45.473535,9.188001000000014,"h - Wine bar, birreria, pub enoteche, caffetteria, sala da te e simili",,,,+39 02 6599650,https://www.nombradevin.it/,,False,,no_menu,2026-06-02T01:05:34.125474Z,pub,BRERA,bar,,8.4,osm_geo_50m
comune_milano,ckan_C-PE_17854,Da Nonna,https://dati.comune.milano.it/dataset/C-PE/17854,"Via BIANCHI MOSE' 103, 20149, Milano",Milano,45.476145,9.144135000000006,f - Bar caffè e simili,,,,,http://www.danonnamilano.it/,,False,,no_menu,2026-06-02T01:05:34.125492Z,cafe,DE ANGELI - MONTE ROSA,restaurant,italian,9.8,osm_geo_50m
comune_milano,ckan_PE_25345,Pan Caffè,https://dati.comune.milano.it/dataset/PE/25345,"Via PRESTINARI MARCELLO 5, 20158, Milano",Milano,45.50079600000001,9.166778999999991,"g - Bar pasticceria, bar gelateria, cremeria, creperia e simili",,,,,,,False,,no_menu,2026-06-02T01:05:34.125499Z,cafe,BOVISA,cafe,coffee_shop,20.7,osm_geo_50m
comune_milano,ckan_C-PE_13726,Skuisito,https://dati.comune.milano.it/dataset/C-PE/13726,"Viale ABRUZZI 33, 20131, Milano",Milano,45.47862000000001,9.216801000000004,"h - Wine bar, birreria, pub enoteche, caffetteria, sala da te e simili",,,,,,,False,,no_menu,2026-06-02T01:05:34.125506Z,pub,BUENOS AIRES - PORTA VENEZIA - PORTA MONFORTE,restaurant,fish,8.3,osm_geo_50m
comune_milano,ckan_PE_30805,Il Tiglio,https://dati.comune.milano.it/dataset/PE/30805,"Via VENINI GIULIO E CORRADO 52, 20127, Milano",Milano,45.49170599999999,9.216193500000003,e - Bar gastronomici e simili;f - Bar caffè e simili,,,,,,,False,,no_menu,2026-06-02T01:05:34.125515Z,cafe,LORETO - CASORETTO - NOLO,restaurant,chinese,28.4,osm_geo_50m
comune_milano,ckan_PE_30938,Osteria della Darsena,https://dati.comune.milano.it/dataset/PE/30938,"Via VIGEVANO 1, 20144, Milano",Milano,45.45269999999999,9.175756500000006,e - Bar gastronomici e simili;f - Bar caffè e simili,,,,+390291539321,https://www.osteriadarsena.it/,,False,,no_menu,2026-06-02T01:05:34.125523Z,cafe,PORTA TICINESE - CONCHETTA,restaurant,regional;italian,3.6,osm_geo_50m
comune_milano,ckan_C-PE_14637,Bar Brianza,https://dati.comune.milano.it/dataset/C-PE/14637,"Viale BRIANZA 6, 20127, Milano",Milano,45.486693,9.215302500000007,f - Bar caffè e simili,,,,,,,False,,no_menu,2026-06-02T01:05:34.125555Z,cafe,LORETO - CASORETTO - NOLO,cafe,,3.3,osm_geo_50m
comune_milano,ckan_C-PE_13262,Caffè Novecento,https://dati.comune.milano.it/dataset/C-PE/13262,"Corso COMO 10, 20154, Milano",Milano,45.48191400000002,9.187443000000002,"a - Ristorante, trattoria, osteria con cucina e simili;f - Bar caffè e simili",,,,+39 02 36524233,https://www.novecentocaffe.it/,,False,,no_menu,2026-06-02T01:05:34.125566Z,cafe,PORTA GARIBALDI - PORTA NUOVA,cafe,,24.4,osm_geo_50m
comune_milano,ckan_C-PE_14170,Ristorante La Carrettiera - Da Franca e Lillo,https://dati.comune.milano.it/dataset/C-PE/14170,"Via IMBRIANI (DEGLI) 30, 20158, Milano",Milano,45.49989600000001,9.168552000000005,"a - Ristorante, trattoria, osteria con cucina e simili;f - Bar caffè e simili",,,,,,,False,,no_menu,2026-06-02T01:05:34.125583Z,cafe,BOVISA,restaurant,Pugliese_-_Siciliana,20.3,osm_geo_50m
comune_milano,ckan_C-PE_14178,Bar Happy,https://dati.comune.milano.it/dataset/C-PE/14178,"Via ROGOREDO 117, 20138, Milano",Milano,45.42606900000001,9.251464499999997,"a - Ristorante, trattoria, osteria con cucina e simili;f - Bar caffè e simili",,,,+39 351 7464833,,,False,,no_menu,2026-06-02T01:05:34.125590Z,cafe,TRIULZO SUPERIORE,cafe,,3.4,osm_geo_50m
comune_milano,ckan_C-PE_14181,Il Gatto e la Volpe,https://dati.comune.milano.it/dataset/C-PE/14181,"Via PONTE SEVESO 33, 20125, Milano",Milano,45.489879,9.205038000000002,"c - Tavole calde,self service, fast food e simili;e - Bar gastronomici e simili;f - Bar caffè e simili",,,,,,,False,,no_menu,2026-06-02T01:05:34.125597Z,cafe,STAZIONE CENTRALE - PONTE SEVESO,cafe,,6.4,osm_geo_50m
comune_milano,ckan_C-PE_16420,Bibo's Bar,https://dati.comune.milano.it/dataset/C-PE/16420,"Viale PREMUDA 44, 20129, Milano",Milano,45.46691100000001,9.207369,"g - Bar pasticceria, bar gelateria, cremeria, creperia e simili;c - Tavole calde,self service, fast food e simili;a - Ristorante, trattoria, osteria con cucina e simili;e - Bar gastronomici e simili;f - Bar caffè e simili",,,,,,,False,,no_menu,2026-06-02T01:05:34.125609Z,cafe,XXII MARZO,bar,,42.6,osm_geo_50m
comune_milano,ckan_C-PE_16485,Meet Bar,https://dati.comune.milano.it/dataset/C-PE/16485,"Piazza OTTO NOVEMBRE 6, 20129, Milano",Milano,45.474309000000005,9.21087,f - Bar caffè e simili,,,,,,,False,,no_menu,2026-06-02T01:05:34.125619Z,cafe,BUENOS AIRES - PORTA VENEZIA - PORTA MONFORTE,cafe,,7.8,osm_geo_50m
comune_milano,ckan_C-PE_16536,Kyo,https://dati.comune.milano.it/dataset/C-PE/16536,"Via CENISIO 37, 20154, Milano",Milano,45.487431000000015,9.167323500000009,"a - Ristorante, trattoria, osteria con cucina e simili;h - Wine bar, birreria, pub enoteche, caffetteria, sala da te e simili",,,,+390236503610,,,False,,no_menu,2026-06-02T01:05:34.125626Z,pub,SARPI,restaurant,fusion,26.6,osm_geo_50m
comune_milano,ckan_C-PE_16564,Kitsch Bar,https://dati.comune.milano.it/dataset/C-PE/16564,"Corso SEMPIONE 5, 20145, Milano",Milano,45.47673900000001,9.170594999999992,e - Bar gastronomici e simili,,,,,,,False,,no_menu,2026-06-02T01:05:34.125638Z,bar,PAGANO,bar,,8.1,osm_geo_50m
comune_milano,ckan_C-PE_17972,Il lambrettino,https://dati.comune.milano.it/dataset/C-PE/17972,"Piazza VIGILI DEL FUOCO 14, 20134, Milano",Milano,45.47876400000001,9.247293000000013,f - Bar caffè e simili,,,,,,,False,,no_menu,2026-06-02T01:05:34.125651Z,cafe,LAMBRATE - ORTICA,bar,,4.2,osm_geo_50m
comune_milano,ckan_C-PE_14644,Zai Ta Xiong,https://dati.comune.milano.it/dataset/C-PE/14644,"Viale MONTE CENERI 14, 20155, Milano",Milano,45.49312800000001,9.155821500000002,e - Bar gastronomici e simili,,,,,,,False,,no_menu,2026-06-02T01:05:34.125685Z,bar,VILLAPIZZONE - CAGNOLA - BOLDINASCO,restaurant,,0.3,osm_geo_50m
comune_milano,ckan_C-PE_14645,Kafana,https://dati.comune.milano.it/dataset/C-PE/14645,"Via FARA GUSTAVO 5, 20124, Milano",Milano,45.482157,9.197626500000013,"g - Bar pasticceria, bar gelateria, cremeria, creperia e simili",,,,,,,False,,no_menu,2026-06-02T01:05:34.125692Z,cafe,PORTA GARIBALDI - PORTA NUOVA,cafe,,2.7,osm_geo_50m
comune_milano,ckan_C-PE_14704-1,Silia Pizza al Trancio,https://dati.comune.milano.it/dataset/C-PE/14704-1,"Via GIAMBELLINO 90, 20146, Milano",Milano,45.44879399999999,9.142370999999997,"d - Pizzerie e simili;a - Ristorante, trattoria, osteria con cucina e simili;e - Bar gastronomici e simili;f - Bar caffè e simili",,,,,https://siliapizzaaltrancio.online/,,False,,no_menu,2026-06-02T01:05:34.125703Z,cafe,GIAMBELLINO,restaurant,pizza,7.4,osm_geo_50m
comune_milano,ckan_C-PE_14721,Cheri,https://dati.comune.milano.it/dataset/C-PE/14721,"Via GREGORIO (SAN) 45, 20124, Milano",Milano,45.480564000000015,9.202157999999997,e - Bar gastronomici e simili,,,,+39 02 66983172,,,False,,no_menu,2026-06-02T01:05:34.125711Z,bar,STAZIONE CENTRALE - PONTE SEVESO,cafe,,14.9,osm_geo_50m
comune_milano,ckan_PE_29192,Bar degli Amici,https://dati.comune.milano.it/dataset/PE/29192,"Via MARCO D'AGRATE 23, 20139, Milano",Milano,45.43679700000001,9.213034499999992,"d - Pizzerie e simili;a - Ristorante, trattoria, osteria con cucina e simili;e - Bar gastronomici e simili;f - Bar caffè e simili",,,,,,,False,,no_menu,2026-06-02T01:05:34.125729Z,cafe,SCALO ROMANA,cafe,,39.3,osm_geo_50m
comune_milano,ckan_C-PE_16605,Milano Coffee Bar,https://dati.comune.milano.it/dataset/C-PE/16605,"Via GALDINO (SAN) 5, 20154, Milano",Milano,45.486819,9.166967999999997,"a - Ristorante, trattoria, osteria con cucina e simili;h - Wine bar, birreria, pub enoteche, caffetteria, sala da te e simili;f - Bar caffè e simili",,,,,,,False,,no_menu,2026-06-02T01:05:34.125736Z,cafe,SARPI,bar,,13.2,osm_geo_50m
comune_milano,ckan_C-PE_16639,Taipy,https://dati.comune.milano.it/dataset/C-PE/16639,"Corso GENOVA 11, 20123, Milano",Milano,45.45756,9.176229000000006,e - Bar gastronomici e simili,,,,,,,False,,no_menu,2026-06-02T01:05:34.125743Z,bar,PORTA TICINESE - CONCA DEL NAVIGLIO,cafe,,40.8,osm_geo_50m
comune_milano,ckan_C-PE_16673,Muu sushi dimsum,https://dati.comune.milano.it/dataset/C-PE/16673,"Viale SABOTINO 24, 20135, Milano",Milano,45.450818999999996,9.201492000000002,"e - Bar gastronomici e simili;f - Bar caffè e simili;g - Bar pasticceria, bar gelateria, cremeria, creperia e simili",,,,,,,False,,no_menu,2026-06-02T01:05:34.125752Z,cafe,PTA ROMANA,restaurant,sushi,7.0,osm_geo_50m
comune_milano,ckan_C-PE_18214,Bar Dani,https://dati.comune.milano.it/dataset/C-PE/18214,"Via BERTOLAZZI CARLO 20, 20134, Milano",Milano,45.484083,9.241092000000009,f - Bar caffè e simili,,,,,,,False,,no_menu,2026-06-02T01:05:34.125763Z,cafe,LAMBRATE - ORTICA,bar,,1.4,osm_geo_50m
comune_milano,ckan_C-PE_18235,Kagurazaka Saryō Milano,https://dati.comune.milano.it/dataset/C-PE/18235,"Corso COMO 12, 20154, Milano",Milano,45.48217500000001,9.187528500000013,"a - Ristorante, trattoria, osteria con cucina e simili;d - Pizzerie e simili;i - Disco bar, america bar, locali serali e simili",,,,+39 02 9234 5494,https://www.saryomilano.com/,,False,,no_menu,2026-06-02T01:05:34.125771Z,cocktail_bar,PORTA GARIBALDI - PORTA NUOVA,restaurant,japanese,4.0,osm_geo_50m
comune_milano,ckan_C-PE_18272,Pandemus,https://dati.comune.milano.it/dataset/C-PE/18272,"Via MELZI D'ERIL FRANCESCO 3, 20154, Milano",Milano,45.477738000000016,9.174149999999997,"a - Ristorante, trattoria, osteria con cucina e simili;f - Bar caffè e simili",,,,,,,False,,no_menu,2026-06-02T01:05:34.125783Z,cafe,SARPI,cafe,,12.1,osm_geo_50m
comune_milano,ckan_C-PE_18292,Ristorante Replay,https://dati.comune.milano.it/dataset/C-PE/18292,"Piazzetta PATTARI 2, 20122, Milano",Milano,45.464597999999995,9.193815,"a - Ristorante, trattoria, osteria con cucina e simili;f - Bar caffè e simili",,,,,,,False,,no_menu,2026-06-02T01:05:34.125792Z,cafe,DUOMO,restaurant,pizza;italian,3.3,osm_geo_50m
comune_milano,ckan_C-PE_18294,Vogue bar,https://dati.comune.milano.it/dataset/C-PE/18294,"Piazza VETRA 21, 20123, Milano",Milano,45.45718200000002,9.183186000000006,e - Bar gastronomici e simili,,,,+390258313037,,,False,,no_menu,2026-06-02T01:05:34.125798Z,bar,DUOMO,cafe,,42.4,osm_geo_50m
comune_milano,ckan_C-PE_11570,Pizzeria Why Not,https://dati.comune.milano.it/dataset/C-PE/11570,"Via CREMA 4, 20135, Milano",Milano,45.450548999999995,9.202320000000014,f - Bar caffè e simili,,,,,,,False,,no_menu,2026-06-02T01:05:34.125813Z,cafe,PTA ROMANA,restaurant,pizza,29.5,osm_geo_50m
comune_milano,ckan_C-PE_11609,Birrificio Lambrate,https://dati.comune.milano.it/dataset/C-PE/11609,"Via ADELCHI 5, 20131, Milano",Milano,45.485648999999995,9.231543000000016,"e - Bar gastronomici e simili;h - Wine bar, birreria, pub enoteche, caffetteria, sala da te e simili",,,,+39 02 70638678,https://www.birrificiolambrate.com/,,False,,no_menu,2026-06-02T01:05:34.125823Z,bar,CITTA' STUDI,pub,,6.6,osm_geo_50m
comune_milano,ckan_C-PE_11623,La Versa 4,https://dati.comune.milano.it/dataset/C-PE/11623,"Via PALMANOVA 59, 20132, Milano",Milano,45.49590900000001,9.23519250000001,f - Bar caffè e simili,,,,,,,False,,no_menu,2026-06-02T01:05:34.125831Z,cafe,PADOVA - TURRO - CRESCENZAGO,cafe,,33.4,osm_geo_50m
comune_milano,ckan_C-PE_11629,Gran Caffè Visconteo,https://dati.comune.milano.it/dataset/C-PE/11629,"Via OREFICI 2, 20123, Milano",Milano,45.464022,9.188149500000009,"a - Ristorante, trattoria, osteria con cucina e simili;f - Bar caffè e simili",,,,,,,False,,no_menu,2026-06-02T01:05:34.125839Z,cafe,DUOMO,cafe,,21.1,osm_geo_50m
comune_milano,ckan_C-PE_14792,Family Bar,https://dati.comune.milano.it/dataset/C-PE/14792,"Via LUSSU EMILIO 6, 20128, Milano",Milano,45.51745500000001,9.244989000000004,f - Bar caffè e simili,,,,+390226309333,,,False,,no_menu,2026-06-02T01:05:34.125862Z,cafe,ADRIANO,cafe,,3.1,osm_geo_50m
comune_milano,ckan_PE_27797,Agua Sancta,https://dati.comune.milano.it/dataset/PE/27797,"Corso GARIBALDI GIUSEPPE 115, 20121, Milano",Milano,45.47912400000001,9.185625000000016,"c - Tavole calde,self service, fast food e simili;e - Bar gastronomici e simili",,,,+39 02 36550 489,https://www.aguasancta.it/,,False,,no_menu,2026-06-02T01:05:34.125871Z,bar,BRERA,bar,,21.8,osm_geo_50m
comune_milano,ckan_C-PE_16723,Marecrudo,https://dati.comune.milano.it/dataset/C-PE/16723,"Corso PORTA ROMANA (DI) 128, 20122, Milano",Milano,45.45281700000001,9.200866500000018,e - Bar gastronomici e simili,,,,+39 02 58316012,https://marecrudo.com/,,False,,no_menu,2026-06-02T01:05:34.125882Z,bar,PORTA VIGENTINA - PORTA LODOVICA,restaurant,fish,28.8,osm_geo_50m
comune_milano,ckan_C-PE_16743,La Rocchetta,https://dati.comune.milano.it/dataset/C-PE/16743,"Via PALEOCAPA PIETRO 1, 20121, Milano",Milano,45.468909,9.176202000000018,";a - Ristorante, trattoria, osteria con cucina e simili;g - Bar pasticceria, bar gelateria, cremeria, creperia e simili",,,,,,,False,,no_menu,2026-06-02T01:05:34.125889Z,cafe,MAGENTA - S. VITTORE,cafe,italian,11.7,osm_geo_50m
comune_milano,ckan_C-PE_16756,Urban Wave,https://dati.comune.milano.it/dataset/C-PE/16756,"Via ROMANO GIULIO 5, 20135, Milano",Milano,45.448803,9.198202500000008,e - Bar gastronomici e simili;f - Bar caffè e simili,,,,,,,False,,no_menu,2026-06-02T01:05:34.125896Z,cafe,PTA ROMANA,bar,,46.1,osm_geo_50m
comune_milano,ckan_C-PE_16760,O' Peperino e Milano,https://dati.comune.milano.it/dataset/C-PE/16760,"Piazza VENTICINQUE APRILE 5, 20154, Milano",Milano,45.48088799999999,9.186097500000017,"a - Ristorante, trattoria, osteria con cucina e simili;d - Pizzerie e simili;f - Bar caffè e simili",,,,,,,False,,no_menu,2026-06-02T01:05:34.125904Z,cafe,BRERA,restaurant,pizza;italian;regional,23.1,osm_geo_50m
comune_milano,ckan_C-PE_11128,Bar del 106,https://dati.comune.milano.it/dataset/C-PE/11128,"Viale MONZA 106, 20127, Milano",Milano,45.499562999999995,9.22094100000001,f - Bar caffè e simili,,,,,,,False,,no_menu,2026-06-02T01:05:34.125920Z,cafe,PADOVA - TURRO - CRESCENZAGO,cafe,,8.7,osm_geo_50m
comune_milano,ckan_C-PE_13893,Hamerica's,https://dati.comune.milano.it/dataset/C-PE/13893,"Via SACCO LUIGI 4, 20146, Milano",Milano,45.465732,9.151208999999994,"a - Ristorante, trattoria, osteria con cucina e simili;e - Bar gastronomici e simili",,,,,,,False,,no_menu,2026-06-02T01:05:34.125953Z,bar,PORTA MAGENTA,restaurant,burger,5.6,osm_geo_50m
comune_milano,ckan_C-PE_13913,Bar Tabacchi Ravizza,https://dati.comune.milano.it/dataset/C-PE/13913,"Via RAVIZZA CARLO 21, 20149, Milano",Milano,45.46894499999999,9.150263999999993,e - Bar gastronomici e simili;f - Bar caffè e simili,,,,+39024817909,https://www.facebook.com/people/Bar-tabacchi-Ravizza/100063953506209/,,False,,no_menu,2026-06-02T01:05:34.125968Z,cafe,DE ANGELI - MONTE ROSA,cafe,,3.0,osm_geo_50m
comune_milano,ckan_C-PE_13918,Emporio Armani Cafè,https://dati.comune.milano.it/dataset/C-PE/13918,"Via CROCE ROSSA 2, 20121, Milano",Milano,45.470358000000004,9.192519000000004,"a - Ristorante, trattoria, osteria con cucina e simili;f - Bar caffè e simili;i - Disco bar, america bar, locali serali e simili",,,,,,,False,,no_menu,2026-06-02T01:05:34.125976Z,cafe,BRERA,cafe,,5.9,osm_geo_50m
comune_milano,ckan_C-PE_14895,Cost,https://dati.comune.milano.it/dataset/C-PE/14895,"Via MARONCELLI PIETRO 8, 20154, Milano",Milano,45.482562,9.183699000000018,"a - Ristorante, trattoria, osteria con cucina e simili;i - Disco bar, america bar, locali serali e simili",,,,,,,False,,no_menu,2026-06-02T01:05:34.125996Z,cocktail_bar,PORTA GARIBALDI - PORTA NUOVA,restaurant,,10.0,osm_geo_50m
comune_milano,ckan_C-PE_15010,Bar Castelli,https://dati.comune.milano.it/dataset/C-PE/15010,"Via CONSOLE MARCELLO 2, 20156, Milano",Milano,45.49914000000001,9.150255000000016,f - Bar caffè e simili,,,,,,,False,,no_menu,2026-06-02T01:05:34.126007Z,cafe,VILLAPIZZONE - CAGNOLA - BOLDINASCO,cafe,,12.1,osm_geo_50m
comune_milano,ckan_PE_27798,Shinko,https://dati.comune.milano.it/dataset/PE/27798,"Via BERGOGNONE AMBROGIO DA FOSSANO 31, 20144, Milano",Milano,45.45398700000001,9.163903500000004,"c - Tavole calde,self service, fast food e simili;e - Bar gastronomici e simili",,,,,,,False,,no_menu,2026-06-02T01:05:34.126014Z,bar,PORTA GENOVA,restaurant,,27.9,osm_geo_50m
comune_milano,ckan_C-PE_12292,Bar Piazza,https://dati.comune.milano.it/dataset/C-PE/12292,"Via ARISTOTELE 15, 20128, Milano",Milano,45.50587200000001,9.224369999999993,f - Bar caffè e simili,,,,,,,False,,no_menu,2026-06-02T01:05:34.126037Z,cafe,GORLA - PRECOTTO,cafe,,3.0,osm_geo_50m
comune_milano,ckan_C-PE_12309,Meravigli 13,https://dati.comune.milano.it/dataset/C-PE/12309,"Via MERAVIGLI 13, 20123, Milano",Milano,45.465678,9.182029499999999,"e - Bar gastronomici e simili;f - Bar caffè e simili;c - Tavole calde,self service, fast food e simili",,,,,,,False,,no_menu,2026-06-02T01:05:34.126044Z,cafe,DUOMO,cafe,,9.5,osm_geo_50m
comune_milano,ckan_C-PE_12364,Viva la Vida,https://dati.comune.milano.it/dataset/C-PE/12364,"Via ARNALDO DA BRESCIA 1, 20159, Milano",Milano,45.49017599999999,9.183001500000017,"a - Ristorante, trattoria, osteria con cucina e simili;d - Pizzerie e simili;f - Bar caffè e simili",,,,,,,False,,no_menu,2026-06-02T01:05:34.126055Z,cafe,ISOLA,restaurant,,0.9,osm_geo_50m
comune_milano,ckan_C-PE_15022,Al Mercante,https://dati.comune.milano.it/dataset/C-PE/15022,"Via FERRUCCI FRANCESCO 11, 20145, Milano",Milano,45.478260000000006,9.162549000000013,f - Bar caffè e simili,,,,,,,False,,no_menu,2026-06-02T01:05:34.126065Z,cafe,PAGANO,restaurant,pizza,3.0,osm_geo_50m
comune_milano,ckan_C-PE_16921,Al Coniglio Bianco,https://dati.comune.milano.it/dataset/C-PE/16921,"Alzaia NAVIGLIO GRANDE 12, 20144, Milano",Milano,45.452088,9.175351500000005,"a - Ristorante, trattoria, osteria con cucina e simili;f - Bar caffè e simili",,,,+390258100910,https://osteriaalconigliobianco.it/,,False,,no_menu,2026-06-02T01:05:34.126085Z,cafe,PORTA TICINESE - CONCHETTA,restaurant,regional;italian;dessert,4.7,osm_geo_50m
comune_milano,ckan_C-PE_16933,Pancaffè Caffetteria,https://dati.comune.milano.it/dataset/C-PE/16933,"Via TULIPANI (DEI) 18, 20146, Milano",Milano,45.449963999999994,9.137614500000012,"g - Bar pasticceria, bar gelateria, cremeria, creperia e simili;f - Bar caffè e simili",,,,,,,False,,no_menu,2026-06-02T01:05:34.126094Z,cafe,GIAMBELLINO,cafe,,30.9,osm_geo_50m
comune_milano,ckan_C-PE_16935,Osteria democratica,https://dati.comune.milano.it/dataset/C-PE/16935,"Via TROILO ETTORE 14, 20136, Milano",Milano,45.44622900000002,9.177691500000009,e - Bar gastronomici e simili,,,,,,,False,,no_menu,2026-06-02T01:05:34.126101Z,bar,PORTA TICINESE - CONCA DEL NAVIGLIO,restaurant,,6.1,osm_geo_50m
comune_milano,ckan_C-PE_16944,Al Paradiso della Pizza,https://dati.comune.milano.it/dataset/C-PE/16944,"Via ROSSI PELLEGRINO 57, 20161, Milano",Milano,45.511425,9.175162499999999,f - Bar caffè e simili,,,,,,,False,,no_menu,2026-06-02T01:05:34.126109Z,cafe,AFFORI,restaurant,,30.0,osm_geo_50m
comune_milano,ckan_C-PE_16958,Ristorante Pizzeria Bottarelli,https://dati.comune.milano.it/dataset/C-PE/16958,"Via OMBONI GIOVANNI 4, 20129, Milano",Milano,45.477171,9.209155500000008,"a - Ristorante, trattoria, osteria con cucina e simili;b - Ristorante, trattoria, osteria con cucina tipica;d - Pizzerie e simili;f - Bar caffè e simili;g - Bar pasticceria, bar gelateria, cremeria, creperia e simili",,,,,,,False,,no_menu,2026-06-02T01:05:34.126119Z,cafe,BUENOS AIRES - PORTA VENEZIA - PORTA MONFORTE,restaurant,,9.0,osm_geo_50m
comune_milano,ckan_PE_25753,La Dolce Fantasia,https://dati.comune.milano.it/dataset/PE/25753,"Via TONALE 12, 20125, Milano",Milano,45.488799,9.203224500000005,"f - Bar caffè e simili;e - Bar gastronomici e simili;g - Bar pasticceria, bar gelateria, cremeria, creperia e simili",,,,,,,False,,no_menu,2026-06-02T01:05:34.126135Z,cafe,STAZIONE CENTRALE - PONTE SEVESO,cafe,,4.4,osm_geo_50m
comune_milano,ckan_C-PE_17021,Nuovo Yacht,https://dati.comune.milano.it/dataset/C-PE/17021,"Via SANZIO RAFFAELLO 4, 20149, Milano",Milano,45.46946700000001,9.153715500000004,"h - Wine bar, birreria, pub enoteche, caffetteria, sala da te e simili",,,,,,,False,,no_menu,2026-06-02T01:05:34.126143Z,pub,DE ANGELI - MONTE ROSA,restaurant,seafood,21.8,osm_geo_50m
comune_milano,ckan_C-PE_17033,Bruschetteria Grill & BBQ,https://dati.comune.milano.it/dataset/C-PE/17033,"Via SPALLANZANI LAZZARO 40, 20129, Milano",Milano,45.47795400000001,9.209380500000009,"a - Ristorante, trattoria, osteria con cucina e simili;f - Bar caffè e simili",,,,,,,False,,no_menu,2026-06-02T01:05:34.126149Z,cafe,BUENOS AIRES - PORTA VENEZIA - PORTA MONFORTE,restaurant,,31.5,osm_geo_50m
comune_milano,ckan_C-PE_17040,Stella Marina,https://dati.comune.milano.it/dataset/C-PE/17040,"Via PALMANOVA 147, 20132, Milano",Milano,45.50363999999999,9.245281500000004,f - Bar caffè e simili,,,,+39 02 39825176,,,False,,no_menu,2026-06-02T01:05:34.126155Z,cafe,PADOVA - TURRO - CRESCENZAGO,restaurant,,9.8,osm_geo_50m
comune_milano,ckan_C-PE_13364,Caffè Novecento,https://dati.comune.milano.it/dataset/C-PE/13364,"Corso COMO 10, 20154, Milano",Milano,45.48191400000002,9.187443000000002,f - Bar caffè e simili,,,,+39 02 36524233,https://www.novecentocaffe.it/,,False,,no_menu,2026-06-02T01:05:34.126168Z,cafe,PORTA GARIBALDI - PORTA NUOVA,cafe,,24.4,osm_geo_50m
comune_milano,ckan_C-PE_13380,La Cantina di Franco,https://dati.comune.milano.it/dataset/C-PE/13380,"Via SANZIO RAFFAELLO 16, 20149, Milano",Milano,45.46856700000001,9.152343000000002,"e - Bar gastronomici e simili;h - Wine bar, birreria, pub enoteche, caffetteria, sala da te e simili",,,,,,,False,,no_menu,2026-06-02T01:05:34.126178Z,bar,DE ANGELI - MONTE ROSA,restaurant,,13.8,osm_geo_50m
comune_milano,ckan_C-PE_13393,Trussardi alla Scala,https://dati.comune.milano.it/dataset/C-PE/13393,"Piazza SCALA (DELLA) 5, 20121, Milano",Milano,45.46706399999999,9.189076499999999,e - Bar gastronomici e simili;f - Bar caffè e simili,,,,,,,False,,no_menu,2026-06-02T01:05:34.126187Z,cafe,BRERA,restaurant,,4.2,osm_geo_50m
comune_milano,ckan_PE_29216,Felix,https://dati.comune.milano.it/dataset/PE/29216,"Via ARGELATI FILIPPO 1, 20143, Milano",Milano,45.451404,9.174213000000009,e - Bar gastronomici e simili,,,,,,,False,,no_menu,2026-06-02T01:05:34.126193Z,bar,PORTA TICINESE - CONCHETTA,bar,,2.9,osm_geo_50m
comune_milano,ckan_C-PE_12786,Baraonda Cafè,https://dati.comune.milano.it/dataset/C-PE/12786,"Piazzale LAGOSTA 2, 20124, Milano",Milano,45.48878100000002,9.190683000000007,e - Bar gastronomici e simili,,,,,,,False,,no_menu,2026-06-02T01:05:34.126218Z,bar,ISOLA,cafe,,15.7,osm_geo_50m
comune_milano,ckan_C-PE_12804,Beluga,https://dati.comune.milano.it/dataset/C-PE/12804,"Via SCIESA AMATORE 3, 20135, Milano",Milano,45.461601,9.209587499999998,f - Bar caffè e simili;e - Bar gastronomici e simili,,,,,https://beluga-milano.it/,,False,,no_menu,2026-06-02T01:05:34.126228Z,cafe,XXII MARZO,restaurant,russian,31.0,osm_geo_50m
comune_milano,ckan_PE_25151,Caffè del Corso,https://dati.comune.milano.it/dataset/PE/25151,"Via POLESINE 39, 20139, Milano",Milano,45.43983,9.223492499999992,e - Bar gastronomici e simili,,,,,,,False,,no_menu,2026-06-02T01:05:34.126249Z,bar,LODI - CORVETTO,bar,,47.8,osm_geo_50m
comune_milano,ckan_C-PE_15220,L'aurora,https://dati.comune.milano.it/dataset/C-PE/15220,"Via PIERLUIGI GIOVANNI DA PALESTRINA 12, 20124, Milano",Milano,45.48549600000001,9.213551999999993,f - Bar caffè e simili,,,,,,,False,,no_menu,2026-06-02T01:05:34.126262Z,cafe,BUENOS AIRES - PORTA VENEZIA - PORTA MONFORTE,cafe,,6.6,osm_geo_50m
comune_milano,ckan_C-PE_17144,a Riccione,https://dati.comune.milano.it/dataset/C-PE/17144,"Via TARAMELLI TORQUATO 70, 20124, Milano",Milano,45.49437900000001,9.195925500000016,"f - Bar caffè e simili;g - Bar pasticceria, bar gelateria, cremeria, creperia e simili",,,,+39 02 683807,https://www.ristoranteariccione.net/,,False,,no_menu,2026-06-02T01:05:34.126297Z,cafe,MACIACHINI - MAGGIOLINA,restaurant,seafood,13.4,osm_geo_50m
comune_milano,ckan_C-PE_14273,Nobu,https://dati.comune.milano.it/dataset/C-PE/14273,"Via PISONI GASTONE 1, 20121, Milano",Milano,45.470808000000005,9.193144500000017,"a - Ristorante, trattoria, osteria con cucina e simili;f - Bar caffè e simili",,,,+39 02 72318645,https://www.noburestaurants.com/milan/experience/,,False,,no_menu,2026-06-02T01:05:34.126308Z,cafe,BRERA,restaurant,sushi,8.7,osm_geo_50m
comune_milano,ckan_C-PE_14324,Ristorante Pizzeria Salernitano,https://dati.comune.milano.it/dataset/C-PE/14324,"Via VITRUVIO 8, 20124, Milano",Milano,45.480861000000004,9.209767499999998,f - Bar caffè e simili,,,,,,,False,,no_menu,2026-06-02T01:05:34.126327Z,cafe,BUENOS AIRES - PORTA VENEZIA - PORTA MONFORTE,restaurant,,21.4,osm_geo_50m
comune_milano,ckan_PE_25532,El Buscia,https://dati.comune.milano.it/dataset/PE/25532,"Viale BEATRICE D'ESTE 48, 20122, Milano",Milano,45.451728,9.196123499999999,"h - Wine bar, birreria, pub enoteche, caffetteria, sala da te e simili",,,,,,,False,,no_menu,2026-06-02T01:05:34.126344Z,pub,PORTA VIGENTINA - PORTA LODOVICA,cafe,,14.0,osm_geo_50m
comune_milano,ckan_C-PE_17196,Le Follie,https://dati.comune.milano.it/dataset/C-PE/17196,"Via SCHIAFFINO SIMONE 21, 20158, Milano",Milano,45.506214,9.165752999999995,"a - Ristorante, trattoria, osteria con cucina e simili;d - Pizzerie e simili;h - Wine bar, birreria, pub enoteche, caffetteria, sala da te e simili",,,,,,,False,,no_menu,2026-06-02T01:05:34.126364Z,pub,BOVISA,restaurant,italian,7.8,osm_geo_50m
comune_milano,ckan_C-PE_17203,Viale Corsica 12,https://dati.comune.milano.it/dataset/C-PE/17203,"Viale CORSICA 12, 20137, Milano",Milano,45.461997,9.225265500000006,f - Bar caffè e simili,,,,,,,False,,no_menu,2026-06-02T01:05:34.126371Z,cafe,CORSICA,cafe,,3.2,osm_geo_50m
comune_milano,ckan_C-PE_17212,Just Cafè,https://dati.comune.milano.it/dataset/C-PE/17212,"Via NOVATI FRANCESCO 4, 20123, Milano",Milano,45.460260000000005,9.177052500000002,"c - Tavole calde,self service, fast food e simili;e - Bar gastronomici e simili;f - Bar caffè e simili",,,,+390239831241,,,False,,no_menu,2026-06-02T01:05:34.126378Z,cafe,DUOMO,cafe,,5.3,osm_geo_50m
comune_milano,ckan_C-PE_17307,L'insolita pescheria,https://dati.comune.milano.it/dataset/C-PE/17307,"Via BOTTICELLI SANDRO 2, 20133, Milano",Milano,45.473247000000015,9.22444200000001,f - Bar caffè e simili,,,,+39 02 36752145,https://www.linsolitapescheria.it/,,False,,no_menu,2026-06-02T01:05:34.126395Z,cafe,CITTA' STUDI,restaurant,,25.4,osm_geo_50m
comune_milano,ckan_C-PE_17320,Osteria dal Cornuto,https://dati.comune.milano.it/dataset/C-PE/17320,"Ripa PORTA TICINESE (DI) 57, 20143, Milano",Milano,45.45094499999999,9.171715500000005,e - Bar gastronomici e simili,,,,+39 02 49527323,https://www.osteriadalcornuto.com/,,False,,no_menu,2026-06-02T01:05:34.126409Z,bar,PORTA TICINESE - CONCHETTA,restaurant,regional,28.8,osm_geo_50m
comune_milano,ckan_C-PE_11162,DeRos,https://dati.comune.milano.it/dataset/C-PE/11162,"Via ROMAGNOSI GIAN DOMENICO 4, 20121, Milano",Milano,45.46867499999999,9.190318500000018,e - Bar gastronomici e simili;f - Bar caffè e simili,,,,,,,False,,no_menu,2026-06-02T01:05:34.126419Z,cafe,BRERA,restaurant,,12.2,osm_geo_50m
comune_milano,ckan_C-PE_11163,On the road,https://dati.comune.milano.it/dataset/C-PE/11163,"Viale JENNER EDOARDO 16, 20159, Milano",Milano,45.497439000000014,9.1823895,"a - Ristorante, trattoria, osteria con cucina e simili;f - Bar caffè e simili",,,,,,,False,,no_menu,2026-06-02T01:05:34.126426Z,cafe,DERGANO,cafe,,5.3,osm_geo_50m
comune_milano,ckan_C-PE_11164,Chanelena,https://dati.comune.milano.it/dataset/C-PE/11164,"Via TOLMEZZO 5, 20132, Milano",Milano,45.492579000000006,9.232906500000013,e - Bar gastronomici e simili;f - Bar caffè e simili,,,,,,,False,,no_menu,2026-06-02T01:05:34.126433Z,cafe,CIMIANO - ROTTOLE - Q.RE FELTRE,cafe,,4.7,osm_geo_50m
comune_milano,ckan_C-PE_11166,Chocolat,https://dati.comune.milano.it/dataset/C-PE/11166,"Via BOCCACCIO GIOVANNI 4, 20123, Milano",Milano,45.467883,9.174177000000014,"a - Ristorante, trattoria, osteria con cucina e simili;f - Bar caffè e simili",,,,,,,False,,no_menu,2026-06-02T01:05:34.126441Z,cafe,MAGENTA - S. VITTORE,cafe,ice_cream,25.0,osm_geo_50m
comune_milano,ckan_C-PE_11189,Caffè di via Vivaio,https://dati.comune.milano.it/dataset/C-PE/11189,"Via VIVAIO 20, 20122, Milano",Milano,45.47002499999999,9.2038455,"e - Bar gastronomici e simili;f - Bar caffè e simili;g - Bar pasticceria, bar gelateria, cremeria, creperia e simili",,,,,,,False,,no_menu,2026-06-02T01:05:34.126448Z,cafe,GUASTALLA,cafe,,7.0,osm_geo_50m
comune_milano,ckan_C-PE_11229,La Cascina Moncucco,https://dati.comune.milano.it/dataset/C-PE/11229,"Via MONCUCCO 26, 20142, Milano",Milano,45.43962300000001,9.166198500000007,"a - Ristorante, trattoria, osteria con cucina e simili;d - Pizzerie e simili;f - Bar caffè e simili",,,,,,,False,,no_menu,2026-06-02T01:05:34.126462Z,cafe,MONCUCCO - SAN CRISTOFORO,restaurant,,10.5,osm_geo_50m
comune_milano,ckan_C-PE_11287,Frank Pizza,https://dati.comune.milano.it/dataset/C-PE/11287,"Via DE AMICIS EDMONDO 22, 20123, Milano",Milano,45.458658000000014,9.178398000000016,f - Bar caffè e simili,,,,+390223180950,,,False,,no_menu,2026-06-02T01:05:34.126473Z,cafe,DUOMO,restaurant,,9.5,osm_geo_50m
comune_milano,ckan_C-PE_17377,Osteria Pugliese,https://dati.comune.milano.it/dataset/C-PE/17377,"Via CASTALDI PANFILO 35, 20124, Milano",Milano,45.476046,9.204628500000013,"e - Bar gastronomici e simili;f - Bar caffè e simili;h - Wine bar, birreria, pub enoteche, caffetteria, sala da te e simili",,,,,,,False,,no_menu,2026-06-02T01:05:34.126490Z,cafe,BUENOS AIRES - PORTA VENEZIA - PORTA MONFORTE,restaurant,,22.4,osm_geo_50m
comune_milano,ckan_C-PE_17391,Panificio Danelli,https://dati.comune.milano.it/dataset/C-PE/17391,"Piazza GOBETTI PIETRO 8, 20131, Milano",Milano,45.48540600000001,9.233460000000008,e - Bar gastronomici e simili,,,,+39 02 7060 0964,,,False,,no_menu,2026-06-02T01:05:34.126498Z,bar,CITTA' STUDI,cafe,breakfast;pizza;sandwich,6.3,osm_geo_50m
comune_milano,ckan_PE_24669,Kebabbar,https://dati.comune.milano.it/dataset/PE/24669,"Corso VENTIDUE MARZO 36, 20135, Milano",Milano,45.46201500000001,9.218830499999996,f - Bar caffè e simili,,,,+39 0249609930,https://kebabbar.it,,False,,no_menu,2026-06-02T01:05:34.126507Z,cafe,XXII MARZO,restaurant,kebab,17.8,osm_geo_50m
comune_milano,ckan_C-PE_17410,40 Pizza e Cucina,https://dati.comune.milano.it/dataset/C-PE/17410,"Via CASTALDI PANFILO 42, 20124, Milano",Milano,45.47552400000001,9.205443000000002,"a - Ristorante, trattoria, osteria con cucina e simili;f - Bar caffè e simili",,,,+39 02 29400061,,,False,,no_menu,2026-06-02T01:05:34.126514Z,cafe,BUENOS AIRES - PORTA VENEZIA - PORTA MONFORTE,restaurant,italian,16.6,osm_geo_50m
comune_milano,ckan_C-PE_12383,Bar Atlantic,https://dati.comune.milano.it/dataset/C-PE/12383,"Via FAUCHE' GIOVANNI BATTISTA 15, 20154, Milano",Milano,45.485487000000006,9.164191500000015,"a - Ristorante, trattoria, osteria con cucina e simili;b - Ristorante, trattoria, osteria con cucina tipica;e - Bar gastronomici e simili",,,,,,,False,,no_menu,2026-06-02T01:05:34.126522Z,bar,SARPI,cafe,,35.5,osm_geo_50m
comune_milano,ckan_C-PE_12429,Eris,https://dati.comune.milano.it/dataset/C-PE/12429,"Via EUSTACHI BARTOLOMEO 8, 20129, Milano",Milano,45.47418300000001,9.214969499999995,f - Bar caffè e simili,,,,+39 02 09962094,https://erismilano.com/,,False,,no_menu,2026-06-02T01:05:34.126537Z,cafe,BUENOS AIRES - PORTA VENEZIA - PORTA MONFORTE,restaurant,,14.3,osm_geo_50m
comune_milano,ckan_C-PE_15434,La Cantinetta,https://dati.comune.milano.it/dataset/C-PE/15434,"Via BELLEZZA GIOVANNI 1, 20136, Milano",Milano,45.448443,9.197176500000012,"e - Bar gastronomici e simili;g - Bar pasticceria, bar gelateria, cremeria, creperia e simili",,,,,,,False,,no_menu,2026-06-02T01:05:34.126551Z,bar,PORTA VIGENTINA - PORTA LODOVICA,restaurant,,38.7,osm_geo_50m
comune_milano,ckan_PE_25082,el Tabacchè,https://dati.comune.milano.it/dataset/PE/25082,"Viale UNGHERIA 28, 20138, Milano",Milano,45.445752,9.247950000000003,e - Bar gastronomici e simili,,,,,,,False,,no_menu,2026-06-02T01:05:34.126558Z,bar,TALIEDO - MORSENCHIO - Q.RE FORLANINI,cafe,,10.1,osm_geo_50m
comune_milano,ckan_PE_25084,Pizzeria Napule è,https://dati.comune.milano.it/dataset/PE/25084,"Via PISTRUCCI SCIPIONE 26, 20137, Milano",Milano,45.45376200000001,9.219177000000002,"e - Bar gastronomici e simili;g - Bar pasticceria, bar gelateria, cremeria, creperia e simili",,,,,,,False,,no_menu,2026-06-02T01:05:34.126564Z,bar,UMBRIA - MOLISE - CALVAIRATE,restaurant,,10.7,osm_geo_50m
comune_milano,ckan_PE_25086,Sol y Luna,https://dati.comune.milano.it/dataset/PE/25086,"Viale RESTELLI FRANCESCO 6, 20124, Milano",Milano,45.48710700000001,9.195475500000015,"a - Ristorante, trattoria, osteria con cucina e simili;f - Bar caffè e simili",,,,+39 02 36638491,https://solylunamexicangrill.com/,,False,,no_menu,2026-06-02T01:05:34.126570Z,cafe,PORTA GARIBALDI - PORTA NUOVA,restaurant,mexican,21.1,osm_geo_50m
comune_milano,ckan_C-PE_15440,Caffè Teatro,https://dati.comune.milano.it/dataset/C-PE/15440,"Via MENOTTI CIRO 16, 20129, Milano",Milano,45.470349,9.213408000000015,e - Bar gastronomici e simili,,,,,,,False,,no_menu,2026-06-02T01:05:34.126578Z,bar,BUENOS AIRES - PORTA VENEZIA - PORTA MONFORTE,cafe,,5.6,osm_geo_50m
comune_milano,ckan_C-PE_15461,DG Martini,https://dati.comune.milano.it/dataset/C-PE/15461,"Corso VENEZIA 13, 20121, Milano",Milano,45.46821600000001,9.198562500000008,"a - Ristorante, trattoria, osteria con cucina e simili;d - Pizzerie e simili;f - Bar caffè e simili",,,,,https://world.dolcegabbana.com/it/martini/,,False,,no_menu,2026-06-02T01:05:34.126586Z,cafe,DUOMO,cafe,,23.0,osm_geo_50m
comune_milano,ckan_C-PE_17436,Spritz,https://dati.comune.milano.it/dataset/C-PE/17436,"Ripa PORTA TICINESE (DI) 9, 20143, Milano",Milano,45.45197999999999,9.176643000000013,"c - Tavole calde,self service, fast food e simili;e - Bar gastronomici e simili;f - Bar caffè e simili",,,,+390283390192,https://www.leggimenu.it/menu/spritznaviglimilano,,False,,no_menu,2026-06-02T01:05:34.126593Z,cafe,PORTA TICINESE - CONCHETTA,bar,,3.8,osm_geo_50m
comune_milano,ckan_PE_25357,Sushi Li,https://dati.comune.milano.it/dataset/PE/25357,"Via UNIONE (DELL') 7, 20122, Milano",Milano,45.461646,9.187699500000008,"e - Bar gastronomici e simili;f - Bar caffè e simili;g - Bar pasticceria, bar gelateria, cremeria, creperia e simili",,,,,,,False,,no_menu,2026-06-02T01:05:34.126616Z,cafe,DUOMO,restaurant,sushi,5.1,osm_geo_50m
comune_milano,ckan_C-PE_13452,San Gregorio,https://dati.comune.milano.it/dataset/C-PE/13452,"Via GREGORIO (SAN) 1, 20124, Milano",Milano,45.477791999999994,9.207868500000018,"f - Bar caffè e simili;c - Tavole calde,self service, fast food e simili",,,,+39 02 2952 4182,,,False,,no_menu,2026-06-02T01:05:34.126643Z,cafe,BUENOS AIRES - PORTA VENEZIA - PORTA MONFORTE,cafe,,11.7,osm_geo_50m
comune_milano,ckan_C-PE_13489,Mexicali,https://dati.comune.milano.it/dataset/C-PE/13489,"Viale STELVIO 66, 20159, Milano",Milano,45.495386999999994,9.1827945,"a - Ristorante, trattoria, osteria con cucina e simili;f - Bar caffè e simili",,,,+39 02 60830042,https://mexicali.it/i-locali/milano-valtellina/,,False,,no_menu,2026-06-02T01:05:34.126657Z,cafe,FARINI,restaurant,mexican,38.4,osm_geo_50m
comune_milano,ckan_C-PE_13498,Carlino,https://dati.comune.milano.it/dataset/C-PE/13498,"Via CAPPONI PIERO 1, 20145, Milano",Milano,45.46811700000001,9.157014000000004,"e - Bar gastronomici e simili;g - Bar pasticceria, bar gelateria, cremeria, creperia e simili;c - Tavole calde,self service, fast food e simili",,,,,,,False,,no_menu,2026-06-02T01:05:34.126664Z,bar,PAGANO,cafe,,11.1,osm_geo_50m
comune_milano,ckan_C-PE_15473,Happy Bar,https://dati.comune.milano.it/dataset/C-PE/15473,"Via GIOIA MELCHIORRE 175, 20125, Milano",Milano,45.496161,9.207625500000006,e - Bar gastronomici e simili,,,,,,,False,,no_menu,2026-06-02T01:05:34.126680Z,bar,GRECO - SEGNANO,cafe,,8.7,osm_geo_50m
comune_milano,ckan_C-PE_15492,Sushi II,https://dati.comune.milano.it/dataset/C-PE/15492,"Via FIAMMA GALVANO 36, 20129, Milano",Milano,45.466740000000016,9.21141,"c - Tavole calde,self service, fast food e simili;d - Pizzerie e simili;f - Bar caffè e simili",,,,,,,False,,no_menu,2026-06-02T01:05:34.126690Z,cafe,XXII MARZO,restaurant,japanese;sushi,39.2,osm_geo_50m
comune_milano,ckan_C-PE_17575,Jo Cafe,https://dati.comune.milano.it/dataset/C-PE/17575,"Piazza MINNITI TITO 1, 20159, Milano",Milano,45.487548000000004,9.188635500000004,e - Bar gastronomici e simili,,,,,,,False,,no_menu,2026-06-02T01:05:34.126713Z,bar,ISOLA,cafe,,2.4,osm_geo_50m
comune_milano,ckan_PE_25011,Na Gott,https://dati.comune.milano.it/dataset/PE/25011,"Via PODGORA 10, 20122, Milano",Milano,45.46121400000001,9.203566499999994,e - Bar gastronomici e simili,,,,,,,False,,no_menu,2026-06-02T01:05:34.126733Z,bar,GUASTALLA,restaurant,,3.0,osm_geo_50m
comune_milano,ckan_C-PE_17633,Nuovo Yacht,https://dati.comune.milano.it/dataset/C-PE/17633,"Via SANZIO RAFFAELLO 2A, 20149, Milano",Milano,45.469818000000004,9.154251000000016,"e - Bar gastronomici e simili;f - Bar caffè e simili;g - Bar pasticceria, bar gelateria, cremeria, creperia e simili",,,,,,,False,,no_menu,2026-06-02T01:05:34.126742Z,cafe,DE ANGELI - MONTE ROSA,restaurant,seafood,36.8,osm_geo_50m
comune_milano,ckan_C-PE_14360,Caffè Romagna,https://dati.comune.milano.it/dataset/C-PE/14360,"Viale ROMAGNA 37, 20133, Milano",Milano,45.47458800000001,9.223362000000009,"a - Ristorante, trattoria, osteria con cucina e simili;f - Bar caffè e simili;h - Wine bar, birreria, pub enoteche, caffetteria, sala da te e simili",,,,,,,False,,no_menu,2026-06-02T01:05:34.126749Z,cafe,BUENOS AIRES - PORTA VENEZIA - PORTA MONFORTE,cafe,,9.8,osm_geo_50m
comune_milano,ckan_C-PE_14364,Tabaccheria Amico Bar Alex,https://dati.comune.milano.it/dataset/C-PE/14364,"Via BROGGINI BONAVENTURA 3, 20152, Milano",Milano,45.46386900000002,9.092578500000002,"f - Bar caffè e simili;a - Ristorante, trattoria, osteria con cucina e simili",,,,,,,False,,no_menu,2026-06-02T01:05:34.126756Z,cafe,BAGGIO - Q.RE DEGLI OLMI - Q.RE VALSESIA,cafe,,7.8,osm_geo_50m
comune_milano,ckan_C-PE_14400,Baratie,https://dati.comune.milano.it/dataset/C-PE/14400,"Via STENDHAL ENRICO 49, 20144, Milano",Milano,45.455265,9.157895999999994,"h - Wine bar, birreria, pub enoteche, caffetteria, sala da te e simili",,,,,https://baratie.it/,,False,,no_menu,2026-06-02T01:05:34.126765Z,pub,PORTA GENOVA,bar,,13.4,osm_geo_50m
comune_milano,ckan_C-PE_14412,Il Cairoli Bar & Restaurant,https://dati.comune.milano.it/dataset/C-PE/14412,"Via CUSANI 13, 20121, Milano",Milano,45.46853100000001,9.183379500000001,"a - Ristorante, trattoria, osteria con cucina e simili;e - Bar gastronomici e simili",,,,,,,False,,no_menu,2026-06-02T01:05:34.126774Z,bar,BRERA,restaurant,,24.3,osm_geo_50m
comune_milano,ckan_C-PE_14446,Green Bar,https://dati.comune.milano.it/dataset/C-PE/14446,"Via ZOIA (F.LLI) 43, 20153, Milano",Milano,45.473967000000016,9.109300500000018,e - Bar gastronomici e simili,,,,,,,False,,no_menu,2026-06-02T01:05:34.126781Z,bar,QUARTO CAGNINO,cafe,,13.0,osm_geo_50m
comune_milano,ckan_C-PE_14458,Fashion Café,https://dati.comune.milano.it/dataset/C-PE/14458,"Piazza MARCO (SAN) 1, 20121, Milano",Milano,45.47316599999999,9.187703999999997,"f - Bar caffè e simili;a - Ristorante, trattoria, osteria con cucina e simili",,,,,,,False,,no_menu,2026-06-02T01:05:34.126789Z,cafe,BRERA,cafe,,10.9,osm_geo_50m
comune_milano,ckan_C-PE_15599,Radicetonda,https://dati.comune.milano.it/dataset/C-PE/15599,"Corso BUENOS AIRES 10, 20124, Milano",Milano,45.476271,9.207103500000017,"h - Wine bar, birreria, pub enoteche, caffetteria, sala da te e simili",,,,,,,False,,no_menu,2026-06-02T01:05:34.126805Z,pub,BUENOS AIRES - PORTA VENEZIA - PORTA MONFORTE,restaurant,,47.5,osm_geo_50m
comune_milano,ckan_C-PE_15637,Bar Bodio,https://dati.comune.milano.it/dataset/C-PE/15637,"Viale BODIO LUIGI 16, 20158, Milano",Milano,45.497331,9.169276499999995,e - Bar gastronomici e simili,,,,+39 02 39310790,,,False,,no_menu,2026-06-02T01:05:34.126813Z,bar,BOVISA,cafe,,41.9,osm_geo_50m
comune_milano,ckan_C-PE_15710,Myoshi,https://dati.comune.milano.it/dataset/C-PE/15710,"Via SFORZA ASCANIO 47, 20136, Milano",Milano,45.447237,9.177138000000014,"a - Ristorante, trattoria, osteria con cucina e simili;f - Bar caffè e simili",,,,+39 02 5810 2397,https://miyoshisushi.it/,,False,,no_menu,2026-06-02T01:05:34.126824Z,cafe,PORTA TICINESE - CONCA DEL NAVIGLIO,restaurant,sushi,11.7,osm_geo_50m
comune_milano,ckan_PE_30984,J & M bar,https://dati.comune.milano.it/dataset/PE/30984,"Via FORZE ARMATE (DELLE), 20152, Milano",Milano,45.460798090999994,9.11717264486,"c - Tavole calde,self service, fast food e simili;e - Bar gastronomici e simili",,,,,,,False,,no_menu,2026-06-02T01:05:34.126838Z,bar,FORZE ARMATE,cafe,,38.2,osm_geo_50m
comune_milano,ckan_C-PE_15748,Bar Mondino 1994,https://dati.comune.milano.it/dataset/C-PE/15748,"Via GIUSTI GIUSEPPE 14, 20154, Milano",Milano,45.480222,9.17710199999999,f - Bar caffè e simili,,,,+39 02 89052595,,,False,,no_menu,2026-06-02T01:05:34.126844Z,cafe,SARPI,cafe,,35.8,osm_geo_50m
comune_milano,ckan_C-PE_17692,[lù-po],https://dati.comune.milano.it/dataset/C-PE/17692,"Via ARESE FRANCESCO 20, 20159, Milano",Milano,45.4914,9.18846450000001,e - Bar gastronomici e simili,,,,,,,False,,no_menu,2026-06-02T01:05:34.126869Z,bar,ISOLA,bar,,22.2,osm_geo_50m
comune_milano,ckan_PE_28794,Ma Ma Xiang,https://dati.comune.milano.it/dataset/PE/28794,"Via NICCOLINI GIOVANNI BATTISTA 29, 20154, Milano",Milano,45.482417999999996,9.17701199999999,"f - Bar caffè e simili;h - Wine bar, birreria, pub enoteche, caffetteria, sala da te e simili",,,,,,,False,,no_menu,2026-06-02T01:05:34.126876Z,cafe,SARPI,cafe,chinese,5.9,osm_geo_50m
comune_milano,ckan_C-PE_11308,Bar 30 E Lode,https://dati.comune.milano.it/dataset/C-PE/11308,"Via D'OVIDIO FRANCESCO 8, 20131, Milano",Milano,45.480636000000004,9.2253015,e - Bar gastronomici e simili,,,,+393389964167,,,False,,no_menu,2026-06-02T01:05:34.126885Z,bar,CITTA' STUDI,cafe,,20.8,osm_geo_50m
comune_milano,ckan_C-PE_11316,Panino Giusto,https://dati.comune.milano.it/dataset/C-PE/11316,"Via TURATI FILIPPO 38, 20121, Milano",Milano,45.476775,9.195637500000004,"a - Ristorante, trattoria, osteria con cucina e simili;f - Bar caffè e simili",,,,,,,False,,no_menu,2026-06-02T01:05:34.126892Z,cafe,BRERA,restaurant,sandwich,1.8,osm_geo_50m
comune_milano,ckan_C-PE_11374,Bomaki Sanzio,https://dati.comune.milano.it/dataset/C-PE/11374,"Via SANZIO RAFFAELLO 24, 20149, Milano",Milano,45.467963999999995,9.1514205,"a - Ristorante, trattoria, osteria con cucina e simili;f - Bar caffè e simili",,,,+39 0239563318,https://www.bomaki.it/,,False,,no_menu,2026-06-02T01:05:34.126904Z,cafe,DE ANGELI - MONTE ROSA,restaurant,japanese;brazilian,3.3,osm_geo_50m
comune_milano,ckan_C-PE_11385,Vanilla Bakery,https://dati.comune.milano.it/dataset/C-PE/11385,"Via SANZIO RAFFAELLO 1, 20149, Milano",Milano,45.469566000000015,9.154512000000011,"a - Ristorante, trattoria, osteria con cucina e simili;f - Bar caffè e simili",,,,+39 02 48102542,https://www.vanillabakery.it/,,False,,no_menu,2026-06-02T01:05:34.126912Z,cafe,DE ANGELI - MONTE ROSA,restaurant,,36.5,osm_geo_50m
comune_milano,ckan_C-PE_11386,Bar Principe,https://dati.comune.milano.it/dataset/C-PE/11386,"Piazza ALESSANDRO (SANT') 3, 20123, Milano",Milano,45.46063800000002,9.186408,f - Bar caffè e simili,,,,+39 02 8692513,,,False,,no_menu,2026-06-02T01:05:34.126922Z,cafe,DUOMO,bar,,3.2,osm_geo_50m
comune_milano,ckan_C-PE_15765,Al Capriccio,https://dati.comune.milano.it/dataset/C-PE/15765,"Via WASHINGTON GIORGIO 104, 20146, Milano",Milano,45.454814999999996,9.154296000000016,"e - Bar gastronomici e simili;g - Bar pasticceria, bar gelateria, cremeria, creperia e simili",,,,,,,False,,no_menu,2026-06-02T01:05:34.126937Z,bar,PORTA GENOVA,restaurant,,7.9,osm_geo_50m
comune_milano,ckan_C-PE_15808,Golden Bar,https://dati.comune.milano.it/dataset/C-PE/15808,"Via ROGOREDO 113, 20138, Milano",Milano,45.42651000000001,9.250991999999997,e - Bar gastronomici e simili;f - Bar caffè e simili,,,,+39 02 514381,,,False,,no_menu,2026-06-02T01:05:34.126947Z,cafe,TRIULZO SUPERIORE,cafe,,7.8,osm_geo_50m
comune_milano,ckan_C-PE_15825,Norah was drunk,https://dati.comune.milano.it/dataset/C-PE/15825,"Via PORPORA NICOLA ANTONIO 169, 20131, Milano",Milano,45.48621600000001,9.233118000000019,f - Bar caffè e simili,,,,+39 02 8342 8246,https://norah-was-drunk.mailchimpsites.com/,,False,,no_menu,2026-06-02T01:05:34.126955Z,cafe,LORETO - CASORETTO - NOLO,bar,,6.8,osm_geo_50m
comune_milano,ckan_C-PE_18084,Food su misura,https://dati.comune.milano.it/dataset/C-PE/18084,"Via ROVELLO 1, 20121, Milano",Milano,45.466947000000005,9.184558500000009,"f - Bar caffè e simili;g - Bar pasticceria, bar gelateria, cremeria, creperia e simili",,,,,,,False,,no_menu,2026-06-02T01:05:34.126979Z,cafe,BRERA,restaurant,,12.4,osm_geo_50m
comune_milano,ckan_C-PE_15917,Minuto Bauli,https://dati.comune.milano.it/dataset/C-PE/15917,"Piazza MARIA BELTRADE (SANTA) 1, 20123, Milano",Milano,45.46273500000001,9.186511499999995,e - Bar gastronomici e simili;f - Bar caffè e simili,,,,,https://www.minutobauli.it/,,False,,no_menu,2026-06-02T01:05:34.127015Z,cafe,DUOMO,cafe,,32.8,osm_geo_50m
comune_milano,ckan_C-PE_15974,Le Coq,https://dati.comune.milano.it/dataset/C-PE/15974,"Piazza GUARDI FRANCESCO 15, 20133, Milano",Milano,45.47047499999999,9.227007000000015,f - Bar caffè e simili,,,,,,,False,,no_menu,2026-06-02T01:05:34.127029Z,cafe,CITTA' STUDI,pub,,10.6,osm_geo_50m
comune_milano,ckan_C-PE_16001,Hall of Fame,https://dati.comune.milano.it/dataset/C-PE/16001,"Piazza PIEMONTE 8, 20145, Milano",Milano,45.467010000000016,9.154768500000017,"a - Ristorante, trattoria, osteria con cucina e simili;f - Bar caffè e simili",,,,+39 02 36705187,,,False,,no_menu,2026-06-02T01:05:34.127043Z,cafe,DE ANGELI - MONTE ROSA,restaurant,italian;burger,2.7,osm_geo_50m
comune_milano,ckan_PE_25074,Bar Murillo,https://dati.comune.milano.it/dataset/PE/25074,"Viale MURILLO SEBASTIANO BARTOLOMEO 33, 20149, Milano",Milano,45.47513699999999,9.143180999999998,d - Pizzerie e simili;f - Bar caffè e simili,,,,,,,False,,no_menu,2026-06-02T01:05:34.127050Z,cafe,SAN SIRO,bar,,12.7,osm_geo_50m
comune_milano,ckan_C-PE_17731,Stoica Bar,https://dati.comune.milano.it/dataset/C-PE/17731,"Via UNIONE (DELL') 1, 20122, Milano",Milano,45.462411,9.187177500000018,e - Bar gastronomici e simili;f - Bar caffè e simili,,,,,https://www.stoicabar.it/,,False,,no_menu,2026-06-02T01:05:34.127059Z,cafe,DUOMO,cafe,,3.3,osm_geo_50m
comune_milano,ckan_C-PE_17762,DecidiTu,https://dati.comune.milano.it/dataset/C-PE/17762,"Via TUCIDIDE 56, 20134, Milano",Milano,45.47051999999999,9.246050999999994,"h - Wine bar, birreria, pub enoteche, caffetteria, sala da te e simili",,,,,,,False,,no_menu,2026-06-02T01:05:34.127070Z,pub,PARCO FORLANINI - CAVRIANO,cafe,,1.7,osm_geo_50m
comune_milano,ckan_C-PE_17764,GustaMi,https://dati.comune.milano.it/dataset/C-PE/17764,"Corso VENEZIA 41, 20121, Milano",Milano,45.470601000000016,9.200848500000006,"a - Ristorante, trattoria, osteria con cucina e simili;d - Pizzerie e simili;g - Bar pasticceria, bar gelateria, cremeria, creperia e simili",,,,,,,False,,no_menu,2026-06-02T01:05:34.127076Z,cafe,GUASTALLA,cafe,,1.7,osm_geo_50m
comune_milano,ckan_C-PE_17765,Bar Sesto,https://dati.comune.milano.it/dataset/C-PE/17765,"Piazza GHIRLANDAIO DOMENICO 7, 20148, Milano",Milano,45.46686600000001,9.145746000000003,"a - Ristorante, trattoria, osteria con cucina e simili;e - Bar gastronomici e simili;f - Bar caffè e simili;g - Bar pasticceria, bar gelateria, cremeria, creperia e simili",,,,,,,False,,no_menu,2026-06-02T01:05:34.127083Z,cafe,BANDE NERE,cafe,,0.9,osm_geo_50m
comune_milano,ckan_C-PE_13577,Bar Felice,https://dati.comune.milano.it/dataset/C-PE/13577,"Via TARTINI GIUSEPPE 15, 20158, Milano",Milano,45.504648,9.175846500000006,f - Bar caffè e simili,,,,,,,False,,no_menu,2026-06-02T01:05:34.127093Z,cafe,DERGANO,bar,,3.6,osm_geo_50m
comune_milano,ckan_C-PE_13612,DiVino,https://dati.comune.milano.it/dataset/C-PE/13612,"Via LIPPI FILIPPINO 2, 20131, Milano",Milano,45.47953799999999,9.221386499999994,"e - Bar gastronomici e simili;h - Wine bar, birreria, pub enoteche, caffetteria, sala da te e simili",,,,,,,False,,no_menu,2026-06-02T01:05:34.127100Z,bar,BUENOS AIRES - PORTA VENEZIA - PORTA MONFORTE,restaurant,italian,4.5,osm_geo_50m
comune_milano,ckan_C-PE_13613,Sulle Nuvole,https://dati.comune.milano.it/dataset/C-PE/13613,"Via GARIGLIANO 12, 20159, Milano",Milano,45.488484,9.190192499999995,"f - Bar caffè e simili;a - Ristorante, trattoria, osteria con cucina e simili;h - Wine bar, birreria, pub enoteche, caffetteria, sala da te e simili;i - Disco bar, america bar, locali serali e simili",,,,+39 02 69006955,https://www.sullenuvolemilano.com/,,False,,no_menu,2026-06-02T01:05:34.127107Z,cafe,ISOLA,restaurant,,9.7,osm_geo_50m
comune_milano,ckan_PE_25003,Sushi II,https://dati.comune.milano.it/dataset/PE/25003,"Via FIAMMA GALVANO 36, 20129, Milano",Milano,45.466740000000016,9.21141,"a - Ristorante, trattoria, osteria con cucina e simili;f - Bar caffè e simili",,,,,,,False,,no_menu,2026-06-02T01:05:34.127118Z,cafe,XXII MARZO,restaurant,japanese;sushi,39.2,osm_geo_50m
comune_milano,ckan_PE_25004,Mud Café,https://dati.comune.milano.it/dataset/PE/25004,"Via MONTEGANI LODOVICO 66, 20141, Milano",Milano,45.43212600000001,9.177502500000003,"e - Bar gastronomici e simili;f - Bar caffè e simili;g - Bar pasticceria, bar gelateria, cremeria, creperia e simili",,,,,,,False,,no_menu,2026-06-02T01:05:34.127132Z,cafe,STADERA - CHIESA ROSSA - Q.RE TORRETTA - CONCA FALLATA,cafe,,4.2,osm_geo_50m
comune_milano,ckan_C-PE_16018,Hamilton Plaza,https://dati.comune.milano.it/dataset/C-PE/16018,"Via FLUMENDOSA 34, 20132, Milano",Milano,45.505413000000004,9.246735000000001,e - Bar gastronomici e simili,,,,+39 349 8088423,,,False,,no_menu,2026-06-02T01:05:34.127139Z,bar,PADOVA - TURRO - CRESCENZAGO,cafe,,36.1,osm_geo_50m
comune_milano,ckan_PE_25101,Carpe Diem Bar,https://dati.comune.milano.it/dataset/PE/25101,"Via BERTANI AGOSTINO 2, 20154, Milano",Milano,45.47720699999999,9.174500999999992,"f - Bar caffè e simili;a - Ristorante, trattoria, osteria con cucina e simili;h - Wine bar, birreria, pub enoteche, caffetteria, sala da te e simili",,,,,,,False,,no_menu,2026-06-02T01:05:34.127157Z,cafe,SARPI,cafe,,4.5,osm_geo_50m
comune_milano,ckan_C-PE_17875,Bar Capolinea 2,https://dati.comune.milano.it/dataset/C-PE/17875,"Via IMPASTATO GIUSEPPE 20M01, 20138, Milano",Milano,45.429147,9.25628850000001,e - Bar gastronomici e simili;f - Bar caffè e simili,,,,,,,False,,no_menu,2026-06-02T01:05:34.127169Z,cafe,TRIULZO SUPERIORE,cafe,,26.8,osm_geo_50m
comune_milano,ckan_C-PE_17881,Ramen shop,https://dati.comune.milano.it/dataset/C-PE/17881,"Via TADINO ALESSANDRO 13, 20124, Milano",Milano,45.47736900000001,9.205996499999998,e - Bar gastronomici e simili,,,,,,,False,,no_menu,2026-06-02T01:05:34.127174Z,bar,BUENOS AIRES - PORTA VENEZIA - PORTA MONFORTE,restaurant,ramen,0.9,osm_geo_50m
comune_milano,ckan_C-PE_17884,Avenue Cafe,https://dati.comune.milano.it/dataset/C-PE/17884,"Viale FAMAGOSTA 42, 20142, Milano",Milano,45.437039999999996,9.162009000000012,f - Bar caffè e simili,,,,,,,False,,no_menu,2026-06-02T01:05:34.127183Z,cafe,BARONA,cafe,,2.2,osm_geo_50m
comune_milano,ckan_C-PE_17907,Chez Nous,https://dati.comune.milano.it/dataset/C-PE/17907,"Via CREMA 17, 20135, Milano",Milano,45.449100000000016,9.202823999999993,"e - Bar gastronomici e simili;f - Bar caffè e simili;g - Bar pasticceria, bar gelateria, cremeria, creperia e simili",,,,,,,False,,no_menu,2026-06-02T01:05:34.127191Z,cafe,PTA ROMANA,cafe,,2.5,osm_geo_50m
comune_milano,ckan_C-PE_17911,Ciccio Pasticcio,https://dati.comune.milano.it/dataset/C-PE/17911,"Via SCOGLIO DI QUARTO 3, 20136, Milano",Milano,45.451854,9.178528499999999,"a - Ristorante, trattoria, osteria con cucina e simili;e - Bar gastronomici e simili",,,,,,,False,,no_menu,2026-06-02T01:05:34.127198Z,bar,PORTA TICINESE - CONCA DEL NAVIGLIO,restaurant,,11.9,osm_geo_50m
comune_milano,ckan_C-PE_17919,Antica Focacceria San Francesco,https://dati.comune.milano.it/dataset/C-PE/17919,"Via PAOLO (SAN) 15, 20121, Milano",Milano,45.466443,9.19296,"a - Ristorante, trattoria, osteria con cucina e simili;f - Bar caffè e simili;g - Bar pasticceria, bar gelateria, cremeria, creperia e simili",,,,+3902875411,,,False,,no_menu,2026-06-02T01:05:34.127204Z,cafe,DUOMO,restaurant,,17.5,osm_geo_50m
comune_milano,ckan_C-PE_17930,Bar 4 Strade,https://dati.comune.milano.it/dataset/C-PE/17930,"Via RUCELLAI BERNARDO 50, 20126, Milano",Milano,45.51113699999999,9.215329499999996,f - Bar caffè e simili;e - Bar gastronomici e simili,,,,,,,False,,no_menu,2026-06-02T01:05:34.127211Z,cafe,GORLA - PRECOTTO,cafe,italian;sandwich,16.9,osm_geo_50m
comune_milano,ckan_C-PE_17935,Bistro Aimo e Nadia,https://dati.comune.milano.it/dataset/C-PE/17935,"Via BANDELLO MATTEO 14, 20123, Milano",Milano,45.463761000000005,9.167183999999992,"a - Ristorante, trattoria, osteria con cucina e simili;f - Bar caffè e simili",,,,+390248026205,,,False,,no_menu,2026-06-02T01:05:34.127220Z,cafe,MAGENTA - S. VITTORE,restaurant,,11.2,osm_geo_50m
comune_milano,ckan_PE_26477,Bar Tiffany,https://dati.comune.milano.it/dataset/PE/26477,"Piazzale PORTA LODOVICA (DI) 5, 20136, Milano",Milano,45.45160200000001,9.186732000000006,e - Bar gastronomici e simili,,,,,,,False,,no_menu,2026-06-02T01:05:34.127230Z,bar,PORTA VIGENTINA - PORTA LODOVICA,cafe,,12.2,osm_geo_50m
comune_milano,ckan_C-PE_14508,Rong Lai,https://dati.comune.milano.it/dataset/C-PE/14508,"Via PIERO DELLA FRANCESCA 20, 20154, Milano",Milano,45.482877,9.165946500000018,e - Bar gastronomici e simili,,,,,,,False,,no_menu,2026-06-02T01:05:34.127240Z,bar,SARPI,restaurant,,20.5,osm_geo_50m
comune_milano,ckan_C-PE_16138,Lezzet Istanbul,https://dati.comune.milano.it/dataset/C-PE/16138,"Via FREIKOFEL 15, 20138, Milano",Milano,45.431775000000016,9.245038499999993,"a - Ristorante, trattoria, osteria con cucina e simili;d - Pizzerie e simili;f - Bar caffè e simili",,,,+39 3318107688,,,False,,no_menu,2026-06-02T01:05:34.127273Z,cafe,ROGOREDO - SANTA GIULIA,restaurant,turkish;kebab;pizza,20.0,osm_geo_50m
comune_milano,ckan_C-PE_16192,Denis Milano Ravizza,https://dati.comune.milano.it/dataset/C-PE/16192,"Via RAVIZZA CARLO 6, 20149, Milano",Milano,45.467693999999995,9.15241499999999,"h - Wine bar, birreria, pub enoteche, caffetteria, sala da te e simili",,,,,https://denispizza.it/,,False,,no_menu,2026-06-02T01:05:34.127288Z,pub,DE ANGELI - MONTE ROSA,restaurant,pizza,31.4,osm_geo_50m
comune_milano,ckan_C-PE_16236,Ristorante Pizzeria Demus,https://dati.comune.milano.it/dataset/C-PE/16236,"Piazzale ROSA GABRIELE 16, 20139, Milano",Milano,45.438129,9.224694,f - Bar caffè e simili,,,,+39 02 5394751,,,False,,no_menu,2026-06-02T01:05:34.127296Z,cafe,LODI - CORVETTO,restaurant,italian;pizza,11.8,osm_geo_50m
comune_milano,ckan_C-PE_16250,Bar Chèri,https://dati.comune.milano.it/dataset/C-PE/16250,"Via GROSSI TOMMASO 1, 20121, Milano",Milano,45.46553399999999,9.188909999999993,"a - Ristorante, trattoria, osteria con cucina e simili;e - Bar gastronomici e simili",,,,,,,False,,no_menu,2026-06-02T01:05:34.127303Z,bar,DUOMO,cafe,,37.5,osm_geo_50m
comune_milano,ckan_C-PE_18356,Jazz Cafè,https://dati.comune.milano.it/dataset/C-PE/18356,"Corso SEMPIONE 8, 20154, Milano",Milano,45.477351,9.170599500000009,"a - Ristorante, trattoria, osteria con cucina e simili;f - Bar caffè e simili",,,,,,,False,,no_menu,2026-06-02T01:05:34.127315Z,cafe,SARPI,bar,,12.3,osm_geo_50m
comune_milano,ckan_C-PE_18375,Pizzeria Marina,https://dati.comune.milano.it/dataset/C-PE/18375,"Viale SARCA 91, 20125, Milano",Milano,45.51021,9.205227000000008,";d - Pizzerie e simili;f - Bar caffè e simili;a - Ristorante, trattoria, osteria con cucina e simili",,,,,,,False,,no_menu,2026-06-02T01:05:34.127325Z,cafe,GRECO - SEGNANO,restaurant,pizza,25.0,osm_geo_50m
comune_milano,ckan_C-PE_18415,Belle Donne Bistrot,https://dati.comune.milano.it/dataset/C-PE/18415,"Via TORTONA 28, 20144, Milano",Milano,45.452889,9.166239000000019,"a - Ristorante, trattoria, osteria con cucina e simili;d - Pizzerie e simili;f - Bar caffè e simili",,,,+390258109894,https://www.belledonnebistrot.com/,,False,,no_menu,2026-06-02T01:05:34.127333Z,cafe,PORTA GENOVA,restaurant,,4.2,osm_geo_50m
comune_milano,ckan_C-PE_18424,Glory,https://dati.comune.milano.it/dataset/C-PE/18424,"Piazza ANGILBERTO II 2, 20139, Milano",Milano,45.43728300000001,9.21748500000001,e - Bar gastronomici e simili,,,,,,,False,,no_menu,2026-06-02T01:05:34.127340Z,bar,LODI - CORVETTO,restaurant,,34.9,osm_geo_50m
comune_milano,ckan_C-PE_18435,Ughetto,https://dati.comune.milano.it/dataset/C-PE/18435,"Viale MONTE NERO 28, 20135, Milano",Milano,45.45546300000001,9.204682500000018,e - Bar gastronomici e simili;f - Bar caffè e simili,,,,,https://www.ristoranteughetto.it/,,False,,no_menu,2026-06-02T01:05:34.127351Z,cafe,PTA ROMANA,restaurant,regional,40.6,osm_geo_50m
comune_milano,ckan_C-PE_11459,Evolution,https://dati.comune.milano.it/dataset/C-PE/11459,"Via STAMIRA D'ANCONA 28, 20127, Milano",Milano,45.50160600000001,9.228505500000011,"d - Pizzerie e simili;f - Bar caffè e simili;i - Disco bar, america bar, locali serali e simili",,,,,,,False,,no_menu,2026-06-02T01:05:34.127359Z,cafe,PADOVA - TURRO - CRESCENZAGO,nightclub,,7.5,osm_geo_50m
comune_milano,ckan_C-PE_12678,Traffic Lights,https://dati.comune.milano.it/dataset/C-PE/12678,"Viale MONZA 112, 20127, Milano",Milano,45.49998600000001,9.2210805,e - Bar gastronomici e simili;f - Bar caffè e simili,,,,,,,False,,no_menu,2026-06-02T01:05:34.127376Z,cafe,PADOVA - TURRO - CRESCENZAGO,cafe,,7.8,osm_geo_50m
comune_milano,ckan_C-PE_6862,Da Giordano il Bolognese,https://dati.comune.milano.it/dataset/C-PE/6862,"Corso GENOVA 1, 20123, Milano",Milano,45.45835199999999,9.177403499999997,"f - Bar caffè e simili;g - Bar pasticceria, bar gelateria, cremeria, creperia e simili",,,,+39 02 58100824,https://www.dagiordanoilbolognese.it/,,False,,no_menu,2026-06-02T01:05:34.127392Z,cafe,PORTA TICINESE - CONCA DEL NAVIGLIO,restaurant,italian;regional,39.3,osm_geo_50m
comune_milano,ckan_C-PE_7353,Bar Lucia,https://dati.comune.milano.it/dataset/C-PE/7353,"Via ROSSI PELLEGRINO 81, 20161, Milano",Milano,45.51387299999999,9.173452499999996,e - Bar gastronomici e simili;f - Bar caffè e simili,,,,,,,False,,no_menu,2026-06-02T01:05:34.127412Z,cafe,AFFORI,cafe,,4.1,osm_geo_50m
comune_milano,ckan_C-PE_7166,Ristorante La Carrettiera - Da Franca e Lillo,https://dati.comune.milano.it/dataset/C-PE/7166,"Via IMBRIANI (DEGLI) 31, 20158, Milano",Milano,45.49964399999999,9.168462000000005,f - Bar caffè e simili,,,,,,,False,,no_menu,2026-06-02T01:05:34.127423Z,cafe,BOVISA,restaurant,Pugliese_-_Siciliana,43.4,osm_geo_50m
comune_milano,ckan_C-PE_7614,Morosini,https://dati.comune.milano.it/dataset/C-PE/7614,"Via SPARTACO 25, 20135, Milano",Milano,45.45848699999999,9.211005,f - Bar caffè e simili,,,,,,,False,,no_menu,2026-06-02T01:05:34.127434Z,cafe,XXII MARZO,cafe,,9.9,osm_geo_50m
comune_milano,ckan_C-PE_7637,La Crota - Trattoria con pizza,https://dati.comune.milano.it/dataset/C-PE/7637,"Via MORA GIAN GIACOMO 9, 20123, Milano",Milano,45.45882,9.179613000000018,"a - Ristorante, trattoria, osteria con cucina e simili;d - Pizzerie e simili;f - Bar caffè e simili",,,,+39 02 839 5992,,,False,,no_menu,2026-06-02T01:05:34.127443Z,cafe,DUOMO,restaurant,,7.0,osm_geo_50m
comune_milano,ckan_C-PE_8736,Petit Bistrot,https://dati.comune.milano.it/dataset/C-PE/8736,"Via GIOVANNI SUL MURO (SAN) 4, 20121, Milano",Milano,45.466587000000004,9.181035000000008,"f - Bar caffè e simili;g - Bar pasticceria, bar gelateria, cremeria, creperia e simili",,,,,,,False,,no_menu,2026-06-02T01:05:34.127452Z,cafe,DUOMO,cafe,,17.5,osm_geo_50m
comune_milano,ckan_C-PE_8746,Bar Jessica,https://dati.comune.milano.it/dataset/C-PE/8746,"Via LORENTEGGIO 163, 20146, Milano",Milano,45.449783999999994,9.136525500000005,e - Bar gastronomici e simili,,,,,,,False,,no_menu,2026-06-02T01:05:34.127460Z,bar,GIAMBELLINO,cafe,,9.4,osm_geo_50m
comune_milano,ckan_C-PE_8760,The Saints and the Scholars,https://dati.comune.milano.it/dataset/C-PE/8760,"Via GOVONE GIUSEPPE 23, 20155, Milano",Milano,45.48917700000001,9.167417999999998,"h - Wine bar, birreria, pub enoteche, caffetteria, sala da te e simili;i - Disco bar, america bar, locali serali e simili",,,,,https://www.thesaintspub.it/,,False,,no_menu,2026-06-02T01:05:34.127470Z,pub,GHISOLFA,pub,,13.5,osm_geo_50m
comune_milano,ckan_C-PE_8776,Al Baraka,https://dati.comune.milano.it/dataset/C-PE/8776,"Viale MONTE CENERI 71, 20155, Milano",Milano,45.49083300000001,9.153089999999992,"f - Bar caffè e simili;e - Bar gastronomici e simili;g - Bar pasticceria, bar gelateria, cremeria, creperia e simili",,,,,,,False,,no_menu,2026-06-02T01:05:34.127486Z,cafe,GHISOLFA,restaurant,barbecue;grill;steak_house,35.3,osm_geo_50m
comune_milano,ckan_C-PE_8805,Tipota Pub,https://dati.comune.milano.it/dataset/C-PE/8805,"Via BRIOSCHI FRANCESCO 32, 20136, Milano",Milano,45.445266000000004,9.18060299999999,"f - Bar caffè e simili;h - Wine bar, birreria, pub enoteche, caffetteria, sala da te e simili",,,,+39 02 835 7777,https://www.tipota.net/,,False,,no_menu,2026-06-02T01:05:34.127496Z,cafe,PORTA TICINESE - CONCA DEL NAVIGLIO,pub,,5.5,osm_geo_50m
comune_milano,ckan_C-PE_10182,Pogue Mahone's,https://dati.comune.milano.it/dataset/C-PE/10182,"Via SALMINI VITTORIO 1, 20135, Milano",Milano,45.45071999999999,9.203688,"h - Wine bar, birreria, pub enoteche, caffetteria, sala da te e simili;e - Bar gastronomici e simili;f - Bar caffè e simili",,,,,,,False,,no_menu,2026-06-02T01:05:34.127506Z,cafe,PTA ROMANA,pub,,17.4,osm_geo_50m
comune_milano,ckan_C-PE_10250,Spontini,https://dati.comune.milano.it/dataset/C-PE/10250,"Corso BUENOS AIRES 60, 20124, Milano",Milano,45.48204000000001,9.212805000000003,f - Bar caffè e simili,,,,,,,False,,no_menu,2026-06-02T01:05:34.127522Z,cafe,BUENOS AIRES - PORTA VENEZIA - PORTA MONFORTE,restaurant,pizza,26.0,osm_geo_50m
comune_milano,ckan_C-PE_10335,Pitea,https://dati.comune.milano.it/dataset/C-PE/10335,"Corso INDIPENDENZA 14, 20129, Milano",Milano,45.46755000000002,9.213633000000016,e - Bar gastronomici e simili;f - Bar caffè e simili,,,,,,,False,,no_menu,2026-06-02T01:05:34.127532Z,cafe,XXII MARZO,restaurant,,33.5,osm_geo_50m
comune_milano,ckan_C-PE_10358,Sato Sushi Experience,https://dati.comune.milano.it/dataset/C-PE/10358,"Via PALAZZI LAZZARO 6, 20124, Milano",Milano,45.47655,9.205713000000003,e - Bar gastronomici e simili,,,,,https://satosushi.it/,,False,,no_menu,2026-06-02T01:05:34.127538Z,bar,BUENOS AIRES - PORTA VENEZIA - PORTA MONFORTE,restaurant,sushi,6.9,osm_geo_50m
comune_milano,ckan_C-PE_7388,Golden Cafè,https://dati.comune.milano.it/dataset/C-PE/7388,"Corso MONFORTE 39, 20122, Milano",Milano,45.467693999999995,9.204642000000007,"c - Tavole calde,self service, fast food e simili;f - Bar caffè e simili",,,,,,,False,,no_menu,2026-06-02T01:05:34.127556Z,cafe,GUASTALLA,cafe,,23.5,osm_geo_50m
comune_milano,ckan_C-PE_7408,Associazione Salumi e Vini Naturali,https://dati.comune.milano.it/dataset/C-PE/7408,"Corso GARIBALDI GIUSEPPE 41, 20121, Milano",Milano,45.47370599999999,9.183397500000012,"a - Ristorante, trattoria, osteria con cucina e simili;e - Bar gastronomici e simili;h - Wine bar, birreria, pub enoteche, caffetteria, sala da te e simili",,,,,,,False,,no_menu,2026-06-02T01:05:34.127573Z,bar,BRERA,restaurant,,3.4,osm_geo_50m
comune_milano,ckan_C-PE_7643,Ti Amo Pizza,https://dati.comune.milano.it/dataset/C-PE/7643,"Viale JENNER EDOARDO 10, 20159, Milano",Milano,45.49749299999999,9.183127500000012,"a - Ristorante, trattoria, osteria con cucina e simili;d - Pizzerie e simili;f - Bar caffè e simili",,,,,,,False,,no_menu,2026-06-02T01:05:34.127582Z,cafe,DERGANO,restaurant,pizza,20.0,osm_geo_50m
comune_milano,ckan_C-PE_7660,Ristorante Replay,https://dati.comune.milano.it/dataset/C-PE/7660,"Piazzetta PATTARI 2, 20122, Milano",Milano,45.464597999999995,9.193815,"a - Ristorante, trattoria, osteria con cucina e simili;d - Pizzerie e simili;f - Bar caffè e simili",,,,,,,False,,no_menu,2026-06-02T01:05:34.127591Z,cafe,DUOMO,restaurant,pizza;italian,3.3,osm_geo_50m
comune_milano,ckan_C-PE_7681,Salumé & Café,https://dati.comune.milano.it/dataset/C-PE/7681,"Via FUSARO (DEL) 2, 20146, Milano",Milano,45.46140299999999,9.152005500000001,f - Bar caffè e simili,,,,+39 345 438 1650,,,False,,no_menu,2026-06-02T01:05:34.127604Z,cafe,PORTA MAGENTA,cafe,,20.6,osm_geo_50m
comune_milano,ckan_C-PE_8814,Amalfitana,https://dati.comune.milano.it/dataset/C-PE/8814,"Via PAISIELLO GIOVANNI 28, 20131, Milano",Milano,45.481742999999994,9.220257000000004,"e - Bar gastronomici e simili;f - Bar caffè e simili;h - Wine bar, birreria, pub enoteche, caffetteria, sala da te e simili",,,,,,,False,,no_menu,2026-06-02T01:05:34.127611Z,cafe,BUENOS AIRES - PORTA VENEZIA - PORTA MONFORTE,restaurant,italian,39.7,osm_geo_50m
comune_milano,ckan_C-PE_8819,Nhero,https://dati.comune.milano.it/dataset/C-PE/8819,"Via CASATI FELICE 44, 20124, Milano",Milano,45.48064500000001,9.199736999999999,"a - Ristorante, trattoria, osteria con cucina e simili;d - Pizzerie e simili;f - Bar caffè e simili;g - Bar pasticceria, bar gelateria, cremeria, creperia e simili",,,,+39 02 67100130,https://www.nheromilano.com/,,False,,no_menu,2026-06-02T01:05:34.127620Z,cafe,STAZIONE CENTRALE - PONTE SEVESO,restaurant,,10.5,osm_geo_50m
comune_milano,ckan_C-PE_8831,bar sara,https://dati.comune.milano.it/dataset/C-PE/8831,"Via BALDINUCCI FILIPPO 16, 20158, Milano",Milano,45.50546700000001,9.175725,e - Bar gastronomici e simili;f - Bar caffè e simili,,,,,,,False,,no_menu,2026-06-02T01:05:34.127628Z,cafe,DERGANO,bar,,8.2,osm_geo_50m
comune_milano,ckan_C-PE_8847,Jazz Cafè,https://dati.comune.milano.it/dataset/C-PE/8847,"Corso SEMPIONE 8, 20154, Milano",Milano,45.477351,9.170599500000009,"a - Ristorante, trattoria, osteria con cucina e simili;e - Bar gastronomici e simili;f - Bar caffè e simili",,,,,,,False,,no_menu,2026-06-02T01:05:34.127637Z,cafe,SARPI,bar,,12.3,osm_geo_50m
comune_milano,ckan_C-PE_5106,Bar da Vinci,https://dati.comune.milano.it/dataset/C-PE/5106,"Via CREMA 19, 20135, Milano",Milano,45.448587,9.20300850000001,e - Bar gastronomici e simili;f - Bar caffè e simili,,,,,,,False,,no_menu,2026-06-02T01:05:34.127654Z,cafe,PTA ROMANA,cafe,,6.1,osm_geo_50m
comune_milano,ckan_C-PE_5111,Caffè Puro,https://dati.comune.milano.it/dataset/C-PE/5111,"Viale ISONZO 28, 20135, Milano",Milano,45.446967,9.204538500000012,"e - Bar gastronomici e simili;f - Bar caffè e simili;d - Pizzerie e simili;g - Bar pasticceria, bar gelateria, cremeria, creperia e simili;h - Wine bar, birreria, pub enoteche, caffetteria, sala da te e simili",,,,,,,False,,no_menu,2026-06-02T01:05:34.127671Z,cafe,PTA ROMANA,cafe,,3.5,osm_geo_50m
comune_milano,ckan_C-PE_5114,Mistral cafè,https://dati.comune.milano.it/dataset/C-PE/5114,"Corso LODI 22, 20135, Milano",Milano,45.44886600000001,9.207089999999994,f - Bar caffè e simili,,,,,,,False,,no_menu,2026-06-02T01:05:34.127680Z,cafe,PTA ROMANA,cafe,,7.1,osm_geo_50m
comune_milano,ckan_C-PE_5120,Green Line,https://dati.comune.milano.it/dataset/C-PE/5120,"Via PASSERONI GIAN CARLO 2, 20135, Milano",Milano,45.449838,9.205227000000008,"c - Tavole calde,self service, fast food e simili;f - Bar caffè e simili",,,,,,,False,,no_menu,2026-06-02T01:05:34.127687Z,cafe,PTA ROMANA,cafe,,12.3,osm_geo_50m
comune_milano,ckan_C-PE_5265,Lo Sharman,https://dati.comune.milano.it/dataset/C-PE/5265,"Via CAVALLOTTI FELICE 17, 20122, Milano",Milano,45.46368000000001,9.197140500000017,e - Bar gastronomici e simili;f - Bar caffè e simili,,,,+39 328 716 9702,,,False,,no_menu,2026-06-02T01:05:34.127697Z,cafe,DUOMO,cafe,,1.6,osm_geo_50m
comune_milano,ckan_C-PE_5277,Bar Durini,https://dati.comune.milano.it/dataset/C-PE/5277,"Via DURINI 2, 20122, Milano",Milano,45.463671000000005,9.197631000000001,e - Bar gastronomici e simili;f - Bar caffè e simili,,,,,,,False,,no_menu,2026-06-02T01:05:34.127704Z,cafe,DUOMO,cafe,,2.5,osm_geo_50m
comune_milano,ckan_C-PE_5281,A'Riccione Terrazza 12,https://dati.comune.milano.it/dataset/C-PE/5281,"Via DURINI 28, 20122, Milano",Milano,45.46562399999999,9.198337500000008,e - Bar gastronomici e simili,,,,+39 323 9996512,,,False,,no_menu,2026-06-02T01:05:34.127711Z,bar,DUOMO,restaurant,seafood,1.5,osm_geo_50m
comune_milano,ckan_C-PE_6399,Al ritrovo,https://dati.comune.milano.it/dataset/C-PE/6399,"Via VAL DI FIEMME 36, 20128, Milano",Milano,45.51035400000001,9.22972949999999,f - Bar caffè e simili,,,,+39 02 31056880,,,False,,no_menu,2026-06-02T01:05:34.127723Z,cafe,GORLA - PRECOTTO,restaurant,pizza,14.6,osm_geo_50m
comune_milano,ckan_C-PE_6402,La Brusada,https://dati.comune.milano.it/dataset/C-PE/6402,"Via VALLAZZE 62, 20131, Milano",Milano,45.484227000000004,9.225580500000007,"a - Ristorante, trattoria, osteria con cucina e simili;f - Bar caffè e simili",,,,,,,False,,no_menu,2026-06-02T01:05:34.127734Z,cafe,CITTA' STUDI,restaurant,pizza,2.5,osm_geo_50m
comune_milano,ckan_C-PE_7696,La farcita,https://dati.comune.milano.it/dataset/C-PE/7696,"Viale ABRUZZI 23, 20131, Milano",Milano,45.477333000000016,9.216827999999992,e - Bar gastronomici e simili,,,,,,,False,,no_menu,2026-06-02T01:05:34.127746Z,bar,BUENOS AIRES - PORTA VENEZIA - PORTA MONFORTE,restaurant,pizza,7.2,osm_geo_50m
comune_milano,ckan_C-PE_7697,Buatta Caffetteria,https://dati.comune.milano.it/dataset/C-PE/7697,"Piazza PREALPI 7, 20155, Milano",Milano,45.494388000000015,9.15248249999999,f - Bar caffè e simili;e - Bar gastronomici e simili,,,,+39 388 9746 502,,,False,,no_menu,2026-06-02T01:05:34.127753Z,cafe,VILLAPIZZONE - CAGNOLA - BOLDINASCO,cafe,coffee_shop,44.8,osm_geo_50m
comune_milano,ckan_C-PE_7698,DCafé,https://dati.comune.milano.it/dataset/C-PE/7698,"Piazzale ISTRIA 1, 20159, Milano",Milano,45.501273,9.197226,f - Bar caffè e simili,,,,,,,False,,no_menu,2026-06-02T01:05:34.127758Z,cafe,MACIACHINI - MAGGIOLINA,cafe,,5.1,osm_geo_50m
comune_milano,ckan_PE_25002,Bar Morgagni,https://dati.comune.milano.it/dataset/PE/25002,"Via MORGAGNI GIOVANNI BATTISTA 28, 20129, Milano",Milano,45.47898900000001,9.213551999999993,"e - Bar gastronomici e simili;f - Bar caffè e simili;h - Wine bar, birreria, pub enoteche, caffetteria, sala da te e simili",,,,,,,False,,no_menu,2026-06-02T01:05:34.127773Z,cafe,BUENOS AIRES - PORTA VENEZIA - PORTA MONFORTE,cafe,,14.8,osm_geo_50m
comune_milano,ckan_C-PE_8902,Atmosphere,https://dati.comune.milano.it/dataset/C-PE/8902,"Via EUSTACHI BARTOLOMEO 17, 20129, Milano",Milano,45.47549699999999,9.214537500000006,"a - Ristorante, trattoria, osteria con cucina e simili;c - Tavole calde,self service, fast food e simili;e - Bar gastronomici e simili",,,,,,,False,,no_menu,2026-06-02T01:05:34.127780Z,bar,BUENOS AIRES - PORTA VENEZIA - PORTA MONFORTE,pub,,17.2,osm_geo_50m
comune_milano,ckan_C-PE_8965,Bar 2 Ruote,https://dati.comune.milano.it/dataset/C-PE/8965,"Via MODICA 1, 20143, Milano",Milano,45.439245,9.155223000000007,e - Bar gastronomici e simili;f - Bar caffè e simili,,,,,,,False,,no_menu,2026-06-02T01:05:34.127794Z,cafe,MONCUCCO - SAN CRISTOFORO,cafe,,7.6,osm_geo_50m
comune_milano,ckan_C-PE_6219,Gran Caffè,https://dati.comune.milano.it/dataset/C-PE/6219,"Via ARCONATI COSTANZA 9, 20135, Milano",Milano,45.457965,9.218627999999995,e - Bar gastronomici e simili,,,,,,,False,,no_menu,2026-06-02T01:05:34.127805Z,bar,UMBRIA - MOLISE - CALVAIRATE,cafe,,13.0,osm_geo_50m
comune_milano,ckan_C-PE_6229,Rose by Mary dispensa,https://dati.comune.milano.it/dataset/C-PE/6229,"Via BATTISTI CESARE 1, 20122, Milano",Milano,45.463266000000004,9.199376999999998,d - Pizzerie e simili;e - Bar gastronomici e simili,,,,,,,False,,no_menu,2026-06-02T01:05:34.127811Z,bar,GUASTALLA,cafe,,1.1,osm_geo_50m
comune_milano,ckan_C-PE_6254,TaxiBar,https://dati.comune.milano.it/dataset/C-PE/6254,"Via CARACCIOLO FRANCESCO 16, 20155, Milano",Milano,45.488574,9.157662000000016,e - Bar gastronomici e simili,,,,,,,False,,no_menu,2026-06-02T01:05:34.127821Z,bar,GHISOLFA,cafe,,19.2,osm_geo_50m
comune_milano,ckan_C-PE_6255,Gran Moka,https://dati.comune.milano.it/dataset/C-PE/6255,"Via SARZANA 40, 20159, Milano",Milano,45.503118,9.193270500000011,e - Bar gastronomici e simili,,,,,,,False,,no_menu,2026-06-02T01:05:34.127828Z,bar,MACIACHINI - MAGGIOLINA,cafe,,14.6,osm_geo_50m
comune_milano,ckan_C-PE_6624,Elisir Cafè,https://dati.comune.milano.it/dataset/C-PE/6624,"Via GROSSICH ANTONIO 17, 20131, Milano",Milano,45.48236399999999,9.234112500000009,"b - Ristorante, trattoria, osteria con cucina tipica;f - Bar caffè e simili",,,,,,,False,,no_menu,2026-06-02T01:05:34.127839Z,cafe,CITTA' STUDI,cafe,italian;sandwich;coffee_shop,4.2,osm_geo_50m
comune_milano,ckan_C-PE_6428,Golden Lion,https://dati.comune.milano.it/dataset/C-PE/6428,"Via SACCHINI ANTONIO GASPARE 1, 20131, Milano",Milano,45.48455100000001,9.220099500000003,e - Bar gastronomici e simili;f - Bar caffè e simili,,,,,,,False,,no_menu,2026-06-02T01:05:34.127853Z,cafe,BUENOS AIRES - PORTA VENEZIA - PORTA MONFORTE,cafe,,5.9,osm_geo_50m
comune_milano,ckan_C-PE_7763,Milano Bistrot,https://dati.comune.milano.it/dataset/C-PE/7763,"Via PISACANE CARLO 57, 20129, Milano",Milano,45.473922000000016,9.210969000000006,"a - Ristorante, trattoria, osteria con cucina e simili;f - Bar caffè e simili",,,,,https://www.milanobistrot.it/,,False,,no_menu,2026-06-02T01:05:34.127867Z,cafe,BUENOS AIRES - PORTA VENEZIA - PORTA MONFORTE,restaurant,,11.1,osm_geo_50m
comune_milano,ckan_C-PE_7787,Bar Sotto Torchio,https://dati.comune.milano.it/dataset/C-PE/7787,"Via TORCHIO (DEL) 8, 20123, Milano",Milano,45.460521,9.180540000000008,e - Bar gastronomici e simili,,,,,,,False,,no_menu,2026-06-02T01:05:34.127879Z,bar,DUOMO,cafe,,6.3,osm_geo_50m
comune_milano,ckan_PE_28087,Osteria Da Fortunata,https://dati.comune.milano.it/dataset/PE/28087,"Via MOSCOVA (DELLA) 52, 20121, Milano",Milano,45.477711,9.185048999999992,"a - Ristorante, trattoria, osteria con cucina e simili;f - Bar caffè e simili",,,,,,,False,,no_menu,2026-06-02T01:05:34.127886Z,cafe,BRERA,restaurant,,6.9,osm_geo_50m
comune_milano,ckan_PE_30649,Tom the ordinary market,https://dati.comune.milano.it/dataset/PE/30649,"Via CHIUSA (DELLA), 20123, Milano",Milano,45.456728270999996,9.184370391149999,"a - Ristorante, trattoria, osteria con cucina e simili;e - Bar gastronomici e simili;f - Bar caffè e simili;h - Wine bar, birreria, pub enoteche, caffetteria, sala da te e simili",,,,,https://theordinarymarket.com/,,False,,no_menu,2026-06-02T01:05:34.127894Z,cafe,DUOMO,bar,,11.8,osm_geo_50m
comune_milano,ckan_C-PE_8992,Magica P,https://dati.comune.milano.it/dataset/C-PE/8992,"Via MONTEGANI LODOVICO 5, 20141, Milano",Milano,45.43687800000001,9.178357500000004,"a - Ristorante, trattoria, osteria con cucina e simili;d - Pizzerie e simili;f - Bar caffè e simili",,,,,,,False,,no_menu,2026-06-02T01:05:34.127902Z,cafe,STADERA - CHIESA ROSSA - Q.RE TORRETTA - CONCA FALLATA,restaurant,pizza,2.6,osm_geo_50m
comune_milano,ckan_C-PE_9048,Bistrot San Marco,https://dati.comune.milano.it/dataset/C-PE/9048,"Via MARCO (SAN) 34, 20121, Milano",Milano,45.477891,9.188977499999993,"g - Bar pasticceria, bar gelateria, cremeria, creperia e simili",,,,,https://bistrotsanmarco.com/,,False,,no_menu,2026-06-02T01:05:34.127929Z,cafe,BRERA,restaurant,,33.0,osm_geo_50m
comune_milano,ckan_C-PE_9056,Sabbia d'oro,https://dati.comune.milano.it/dataset/C-PE/9056,"Via VIGEVANO 2, 20144, Milano",Milano,45.452934,9.17547300000001,f - Bar caffè e simili,,,,+390289406761,,,False,,no_menu,2026-06-02T01:05:34.127937Z,cafe,PORTA TICINESE - CONCHETTA,restaurant,italian;pizza,25.7,osm_geo_50m
comune_milano,ckan_C-PE_6734,Cilea,https://dati.comune.milano.it/dataset/C-PE/6734,"Via CILEA FRANCESCO 2, 20151, Milano",Milano,45.49752000000001,9.106258499999996,f - Bar caffè e simili;e - Bar gastronomici e simili,,,,,,,False,,no_menu,2026-06-02T01:05:34.127963Z,cafe,Q.RE GALLARATESE - Q.RE SAN LEONARDO - LAMPUGNANO,cafe,,18.6,osm_geo_50m
comune_milano,ckan_C-PE_7441,Casa Ramen,https://dati.comune.milano.it/dataset/C-PE/7441,"Via PORRO LAMBERTENGHI LUIGI 25, 20159, Milano",Milano,45.48908700000001,9.188617499999992,e - Bar gastronomici e simili,,,,,,,False,,no_menu,2026-06-02T01:05:34.127983Z,bar,ISOLA,restaurant,japanese,3.0,osm_geo_50m
comune_milano,ckan_C-PE_7461,Panfé,https://dati.comune.milano.it/dataset/C-PE/7461,"Via BERGAMO 2, 20135, Milano",Milano,45.45753300000001,9.206032499999992,e - Bar gastronomici e simili,,,,,,,False,,no_menu,2026-06-02T01:05:34.127993Z,bar,XXII MARZO,cafe,,14.6,osm_geo_50m
comune_milano,ckan_C-PE_7470,La Prosciutteria,https://dati.comune.milano.it/dataset/C-PE/7470,"Corso GARIBALDI GIUSEPPE 34, 20121, Milano",Milano,45.47431800000001,9.183564000000018,"f - Bar caffè e simili;g - Bar pasticceria, bar gelateria, cremeria, creperia e simili",,,,+39 02 89010390,,,False,,no_menu,2026-06-02T01:05:34.128000Z,cafe,BRERA,restaurant,,21.1,osm_geo_50m
comune_milano,ckan_C-PE_7792,La Locanda del Gatto Rosso,https://dati.comune.milano.it/dataset/C-PE/7792,"Via FOSCOLO UGO 3, 20121, Milano",Milano,45.46534500000001,9.190656000000018,"a - Ristorante, trattoria, osteria con cucina e simili;f - Bar caffè e simili",,,,+39 02 72022411,https://www.lalocandadelgattorosso.it/,,False,,no_menu,2026-06-02T01:05:34.128006Z,cafe,DUOMO,restaurant,italian,10.8,osm_geo_50m
comune_milano,ckan_C-PE_7796,God Save the Food,https://dati.comune.milano.it/dataset/C-PE/7796,"Piazza CARMINE (DEL) 1, 20121, Milano",Milano,45.470088000000004,9.185242500000015,"a - Ristorante, trattoria, osteria con cucina e simili;f - Bar caffè e simili",,,,,https://www.godsavethefood.it/ristoranti/brera/,,False,,no_menu,2026-06-02T01:05:34.128018Z,cafe,BRERA,cafe,,20.8,osm_geo_50m
comune_milano,ckan_C-PE_7808,Ristorante Bande Nere,https://dati.comune.milano.it/dataset/C-PE/7808,"Piazzale GIOVANNI DALLE BANDE NERE 9, 20146, Milano",Milano,45.46147500000001,9.135801000000015,f - Bar caffè e simili,,,,+393396755915,https://pizzeria-ristorante-bande-nere.business.site/,,False,,no_menu,2026-06-02T01:05:34.128024Z,cafe,BANDE NERE,restaurant,italian;pizza,20.6,osm_geo_50m
comune_milano,ckan_PE_24565,Royal Garden,https://dati.comune.milano.it/dataset/PE/24565,"Via ANATALONE (SANT') 1, 20147, Milano",Milano,45.44671500000001,9.12533400000001,"e - Bar gastronomici e simili;g - Bar pasticceria, bar gelateria, cremeria, creperia e simili",,,,,https://www.ristoranteroyalgarden.com/,,False,,no_menu,2026-06-02T01:05:34.128032Z,bar,LORENTEGGIO,restaurant,asian,44.2,osm_geo_50m
comune_milano,ckan_C-PE_7820,Pavè Milano,https://dati.comune.milano.it/dataset/C-PE/7820,"Via COMMENDA (DELLA) 25, 20122, Milano",Milano,45.456894000000005,9.199246500000015,f - Bar caffè e simili,,,,,https://www.pavemilano.com/,,False,,no_menu,2026-06-02T01:05:34.128042Z,cafe,GUASTALLA,cafe,breakfast;italian,15.3,osm_geo_50m
comune_milano,ckan_C-PE_9089,Lorantbar,https://dati.comune.milano.it/dataset/C-PE/9089,"Via ROMEO NICOLA 3, 20142, Milano",Milano,45.41979599999999,9.178312500000004,e - Bar gastronomici e simili;f - Bar caffè e simili,,,,,,,False,,no_menu,2026-06-02T01:05:34.128056Z,cafe,GRATOSOGLIO - Q.RE MISSAGLIA - Q.RE TERRAZZE,bar,,37.1,osm_geo_50m
comune_milano,ckan_C-PE_9147,Rosticceria Palazzi,https://dati.comune.milano.it/dataset/C-PE/9147,"Via PLINIO CAIO SECONDO 9, 20129, Milano",Milano,45.47935799999999,9.212512500000003,"a - Ristorante, trattoria, osteria con cucina e simili;c - Tavole calde,self service, fast food e simili;d - Pizzerie e simili;f - Bar caffè e simili",,,,+39 02 2047374,,,False,,no_menu,2026-06-02T01:05:34.128079Z,cafe,BUENOS AIRES - PORTA VENEZIA - PORTA MONFORTE,restaurant,,5.3,osm_geo_50m
comune_milano,ckan_C-PE_7192,Bar Monte San Gabriele,https://dati.comune.milano.it/dataset/C-PE/7192,"Via MONTE SAN GABRIELE 6, 20127, Milano",Milano,45.504891000000015,9.223281000000014,f - Bar caffè e simili,,,,,,,False,,no_menu,2026-06-02T01:05:34.128088Z,cafe,GORLA - PRECOTTO,cafe,,3.5,osm_geo_50m
comune_milano,ckan_C-PE_7217,Bar Farenheit,https://dati.comune.milano.it/dataset/C-PE/7217,"Via POPULONIA 6, 20159, Milano",Milano,45.50120100000001,9.188991000000016,f - Bar caffè e simili,,,,,,,False,,no_menu,2026-06-02T01:05:34.128104Z,cafe,MACIACHINI - MAGGIOLINA,cafe,,21.1,osm_geo_50m
comune_milano,ckan_C-PE_7223,Bottega dei Pasticci,https://dati.comune.milano.it/dataset/C-PE/7223,"Via REDAELLI PIETRO 1, 20146, Milano",Milano,45.452853000000005,9.1444185,"c - Tavole calde,self service, fast food e simili;f - Bar caffè e simili;g - Bar pasticceria, bar gelateria, cremeria, creperia e simili",,,,+39 02 474 427,,,False,,no_menu,2026-06-02T01:05:34.128111Z,cafe,BANDE NERE,cafe,,18.0,osm_geo_50m
comune_milano,ckan_C-PE_5128,Pomodorino,https://dati.comune.milano.it/dataset/C-PE/5128,"Via SALMINI VITTORIO 4, 20135, Milano",Milano,45.450458999999995,9.202855499999998,"a - Ristorante, trattoria, osteria con cucina e simili;d - Pizzerie e simili;f - Bar caffè e simili",,,,,,,False,,no_menu,2026-06-02T01:05:34.128124Z,cafe,PTA ROMANA,restaurant,,3.6,osm_geo_50m
comune_milano,ckan_PE_28298,Hygge,https://dati.comune.milano.it/dataset/PE/28298,"Via SAPETO GIUSEPPE 3, 20123, Milano",Milano,45.45848699999999,9.176602500000001,"f - Bar caffè e simili;a - Ristorante, trattoria, osteria con cucina e simili",,,,+39393511028043,https://www.hyggecorner.com/,,False,,no_menu,2026-06-02T01:05:34.128140Z,cafe,MAGENTA - S. VITTORE,cafe,,9.1,osm_geo_50m
comune_milano,ckan_PE_29707,Chiaravalle Bakery and Coffee,https://dati.comune.milano.it/dataset/PE/29707,"Via BERNARDO (SAN) 32, 20139, Milano",Milano,45.41611499999999,9.240358500000013,"e - Bar gastronomici e simili;f - Bar caffè e simili;h - Wine bar, birreria, pub enoteche, caffetteria, sala da te e simili",,,,,,,False,,no_menu,2026-06-02T01:05:34.128148Z,cafe,CHIARAVALLE,cafe,,14.5,osm_geo_50m
comune_milano,ckan_C-PE_6471,Porpora,https://dati.comune.milano.it/dataset/C-PE/6471,"Via CATALANI ALFREDO 35N01, 20131, Milano",Milano,45.48617100000001,9.22455450000001,"a - Ristorante, trattoria, osteria con cucina e simili;f - Bar caffè e simili",,,,,,,False,,no_menu,2026-06-02T01:05:34.128158Z,cafe,LORETO - CASORETTO - NOLO,cafe,,1.4,osm_geo_50m
comune_milano,ckan_C-PE_7847,Good Time Cafe,https://dati.comune.milano.it/dataset/C-PE/7847,"Via SARPI PAOLO 50, 20154, Milano",Milano,45.481194000000016,9.1726515,e - Bar gastronomici e simili;f - Bar caffè e simili,,,,,,,False,,no_menu,2026-06-02T01:05:34.128168Z,cafe,SARPI,cafe,,4.6,osm_geo_50m
comune_milano,ckan_C-PE_7885,Scaring,https://dati.comune.milano.it/dataset/C-PE/7885,"Viale MONZA 32, 20127, Milano",Milano,45.490779,9.218272500000012,"g - Bar pasticceria, bar gelateria, cremeria, creperia e simili",,,,,,,False,,no_menu,2026-06-02T01:05:34.128188Z,cafe,LORETO - CASORETTO - NOLO,cafe,,3.1,osm_geo_50m
comune_milano,ckan_C-PE_9254,Regional Caffè,https://dati.comune.milano.it/dataset/C-PE/9254,"Via SEBENICO 5, 20124, Milano",Milano,45.487413000000004,9.193095,e - Bar gastronomici e simili;f - Bar caffè e simili,,,,,,,False,,no_menu,2026-06-02T01:05:34.128210Z,cafe,ISOLA,cafe,,10.7,osm_geo_50m
comune_milano,ckan_C-PE_9257,Sempione 49,https://dati.comune.milano.it/dataset/C-PE/9257,"Corso SEMPIONE 49, 20145, Milano",Milano,45.481761000000006,9.163597500000009,e - Bar gastronomici e simili,,,,,,,False,,no_menu,2026-06-02T01:05:34.128217Z,bar,PAGANO,cafe,,10.1,osm_geo_50m
comune_milano,ckan_C-PE_9299,bar,https://dati.comune.milano.it/dataset/C-PE/9299,"Via TRANSITI (DEI) 1, 20127, Milano",Milano,45.490437000000014,9.221787000000006,e - Bar gastronomici e simili;f - Bar caffè e simili,,,,,,,False,,no_menu,2026-06-02T01:05:34.128224Z,cafe,LORETO - CASORETTO - NOLO,cafe,,3.6,osm_geo_50m
comune_milano,ckan_C-PE_9317,Lazy Tom's Cafe,https://dati.comune.milano.it/dataset/C-PE/9317,"Via ALBERTI LEON BATTISTA 8, 20149, Milano",Milano,45.48446100000001,9.158674500000018,f - Bar caffè e simili,,,,,,,False,,no_menu,2026-06-02T01:05:34.128232Z,cafe,PORTELLO,cafe,,8.4,osm_geo_50m
comune_milano,ckan_PE_25336,Green Chilli,https://dati.comune.milano.it/dataset/PE/25336,"Viale STELVIO 43, 20159, Milano",Milano,45.494091,9.1865205,f - Bar caffè e simili,,,,,,,False,,no_menu,2026-06-02T01:05:34.128248Z,cafe,ISOLA,restaurant,,43.2,osm_geo_50m
comune_milano,ckan_PE_26048,Ristorante Mes Amis,https://dati.comune.milano.it/dataset/PE/26048,"Via DOMODOSSOLA 23, 20145, Milano",Milano,45.480357,9.160717500000004,"a - Ristorante, trattoria, osteria con cucina e simili;f - Bar caffè e simili",,,,+39 02 39434364,https://mesamismilano.it/,,False,,no_menu,2026-06-02T01:05:34.128255Z,cafe,PAGANO,restaurant,,22.6,osm_geo_50m
