source_platform,source_venue_id,venue_name,venue_url,address,city,latitude,longitude,phone,brand,venue_type,price_hints,vertical,has_menu,extraction_status,retrieved_at
anytimefitness,roma-rm-00199,"Anytime Fitness - Palestra a Roma (Libia), RM 00199",https://www.anytimefitness.it/palestra/it-0001/roma-rm-00199/,,Roma,41.8719,12.5674,,Anytime Fitness,gym,,gym,False,discovered,2026-06-03T22:00:00Z
osm_overpass,osm_43.5961_13.51298,Pineta Sport,,"Via Montagnola, 60127, Ancona",Ancona,43.5961036,13.5129806,,,gym,,gym,False,discovered,2026-06-03T22:00:00Z
osm_overpass,osm_45.55009_11.51441,Centro Sport Palladio,,,altro,45.5500869,11.5144133,,,gym,,gym,False,discovered,2026-06-03T22:00:00Z
osm_overpass,osm_46.02723_10.9712,Falesia S.Siro,,,altro,46.0272322,10.9712019,,,climbing_gym,,gym,False,discovered,2026-06-03T22:00:00Z
osm_overpass,osm_43.21125_11.7349,"Circolo Tennis ""Savelli""",,,altro,43.2112499,11.734903,,,gym,,gym,False,discovered,2026-06-03T22:00:00Z
osm_overpass,osm_44.75139_10.33402,Palasprint,,,altro,44.7513929,10.3340185,,,gym,,gym,False,discovered,2026-06-03T22:00:00Z
osm_overpass,osm_45.08255_12.34682,Centro Sportivo,,,altro,45.0825461,12.3468193,,,gym,,gym,False,discovered,2026-06-03T22:00:00Z
osm_overpass,osm_46.38074_10.95993,Palestra di Roccia Sasias,,,altro,46.3807386,10.9599299,,,climbing_gym,,gym,False,discovered,2026-06-03T22:00:00Z
osm_overpass,osm_43.74837_11.71597,Campo Sportivo di Strada in Casentino,,,altro,43.7483707,11.7159669,,,gym,,gym,False,discovered,2026-06-03T22:00:00Z
osm_overpass,osm_46.0596_10.96126,La Gola,,,altro,46.0595994,10.9612606,,,climbing_gym,,gym,False,discovered,2026-06-03T22:00:00Z
osm_overpass,osm_46.05933_10.96708,Falesia La Gola - Pezzent Area,,,altro,46.0593264,10.9670808,,,climbing_gym,,gym,False,discovered,2026-06-03T22:00:00Z
osm_overpass,osm_44.65595_11.77502,"Palazzetto dello Sport ""PALASalvatori""",,,altro,44.6559522,11.7750223,,,gym,,gym,False,discovered,2026-06-03T22:00:00Z
osm_overpass,osm_46.41648_11.67792,AC Fassa,,,altro,46.4164796,11.6779237,,,gym,,gym,False,discovered,2026-06-03T22:00:00Z
osm_overpass,osm_45.86497_10.88189,Busatte,,,altro,45.8649722,10.88189,,,gym,,gym,False,discovered,2026-06-03T22:00:00Z
osm_overpass,osm_45.5167_9.31179,Molinetto Country Club,,,altro,45.5166951,9.3117912,,,gym,,gym,False,discovered,2026-06-03T22:00:00Z
osm_overpass,osm_45.93187_13.60511,Circolo Tennis Campagnuzza,,,altro,45.9318692,13.6051107,,,gym,,gym,False,discovered,2026-06-03T22:00:00Z
osm_overpass,osm_45.93072_13.60275,Piscine Comunali,,"Via Capodistria, 34170, Gorizia",Gorizia,45.9307176,13.6027493,,,gym,,gym,False,discovered,2026-06-03T22:00:00Z
osm_overpass,osm_45.93271_13.6037,"Campo d'atletica ""Ernesto Fabretto""",,,altro,45.9327067,13.6036974,,,gym,,gym,False,discovered,2026-06-03T22:00:00Z
osm_overpass,osm_45.93755_13.59151,Palazzetto dello Sport PalaBigot,,,altro,45.9375509,13.5915091,,,gym,,gym,False,discovered,2026-06-03T22:00:00Z
osm_overpass,osm_45.94747_13.61842,Circolo Tennis Aldo Zaccarelli,,,altro,45.9474681,13.6184207,,,gym,,gym,False,discovered,2026-06-03T22:00:00Z
osm_overpass,osm_45.9475_13.62014,Palestra della Valletta del Corno,,,altro,45.9474973,13.6201379,,,gym,,gym,False,discovered,2026-06-03T22:00:00Z
osm_overpass,osm_45.93276_13.60519,Pala Brumatti,,"Via del San Michele, 34170, Gorizia",Gorizia,45.9327622,13.6051863,,,gym,,gym,False,discovered,2026-06-03T22:00:00Z
osm_overpass,osm_46.77238_11.94125,Kronplatz - Plan de Corones,,,altro,46.7723826,11.9412494,,,gym,,gym,False,discovered,2026-06-03T22:00:00Z
osm_overpass,osm_45.56915_12.14655,Piazzetta Don Giovanni Battista Mason,,,altro,45.5691483,12.146555,,,gym,,gym,False,discovered,2026-06-03T22:00:00Z
osm_overpass,osm_45.52844_11.4768,Polisportivo,,,altro,45.5284384,11.4767998,,,gym,,gym,False,discovered,2026-06-03T22:00:00Z
osm_overpass,osm_45.52995_11.47525,Piscine Leosport,,,altro,45.5299472,11.4752483,,,gym,,gym,False,discovered,2026-06-03T22:00:00Z
osm_overpass,osm_46.31494_10.79608,X Rafting,,"Palazzetto dello Sport,Via per Marilleva,Loc. Del, Via del Pressenach, 38020, Mezzana",Mezzana,46.3149446,10.7960813,,,gym,,gym,False,discovered,2026-06-03T22:00:00Z
osm_overpass,osm_43.6533_10.6361,Centro sportivo Bellaria,,,altro,43.6532997,10.6360964,,,gym,,gym,False,discovered,2026-06-03T22:00:00Z
osm_overpass,osm_41.72207_12.30258,Associazione Ostia in Bici XIII,,,altro,41.7220724,12.3025754,,,gym,,gym,False,discovered,2026-06-03T22:00:00Z
osm_overpass,osm_45.54479_9.18498,Il nuovo tempio del fitness,,,altro,45.5447902,9.1849825,,,gym,,gym,False,discovered,2026-06-03T22:00:00Z
osm_overpass,osm_45.54637_9.17663,Il regno del fitness,,,altro,45.5463667,9.1766253,,,gym,,gym,False,discovered,2026-06-03T22:00:00Z
osm_overpass,osm_45.59724_9.87987,Kayak Canoa Club Palazzolo,,,altro,45.5972419,9.8798719,,,gym,,gym,False,discovered,2026-06-03T22:00:00Z
osm_overpass,osm_45.83573_8.78349,Palestra comunale,,,altro,45.8357344,8.7834919,,,gym,,gym,False,discovered,2026-06-03T22:00:00Z
osm_overpass,osm_42.11757_12.17612,Sailing Team Bracciano,,,altro,42.1175667,12.1761244,,,gym,,gym,False,discovered,2026-06-03T22:00:00Z
osm_overpass,osm_41.24925_16.42625,Sporting,,,altro,41.2492547,16.426254,,,gym,,gym,False,discovered,2026-06-03T22:00:00Z
osm_overpass,osm_41.49861_15.33994,Palazzetto dello sport,,,altro,41.4986084,15.3399436,,,gym,,gym,False,discovered,2026-06-03T22:00:00Z
osm_overpass,osm_45.62939_12.16535,Pool 5,,,altro,45.629393,12.165345,,,pool,,gym,False,discovered,2026-06-03T22:00:00Z
osm_overpass,osm_41.21461_16.29063,Polivalente,,,altro,41.2146059,16.290633,,,gym,,gym,False,discovered,2026-06-03T22:00:00Z
osm_overpass,osm_45.53318_9.28842,Piscina comunale Cologno Monzese,,,altro,45.5331772,9.2884219,,,pool,,gym,False,discovered,2026-06-03T22:00:00Z
osm_overpass,osm_46.69184_11.15365,Turnhalle,,,altro,46.6918385,11.1536533,,,gym,,gym,False,discovered,2026-06-03T22:00:00Z
osm_overpass,osm_45.98459_13.20272,Palestra Living,,,altro,45.9845883,13.2027165,,,gym,,gym,False,discovered,2026-06-03T22:00:00Z
osm_overpass,osm_42.34949_14.40127,Palazzetto dello Sport,,,altro,42.3494884,14.4012731,,,gym,,gym,False,discovered,2026-06-03T22:00:00Z
osm_overpass,osm_42.38607_14.14063,"Centro Ippico ""Teaterno""",,,altro,42.38607,14.1406256,,,gym,,gym,False,discovered,2026-06-03T22:00:00Z
osm_overpass,osm_42.51235_14.15541,Duel,,,altro,42.5123509,14.1554124,,,gym,,gym,False,discovered,2026-06-03T22:00:00Z
osm_overpass,osm_45.25091_8.74883,Palestra Andrea Massucchi,,,altro,45.2509088,8.7488319,,,gym,,gym,False,discovered,2026-06-03T22:00:00Z
osm_overpass,osm_46.02056_11.04226,Centro Fondo Viote,,"Strada delle Caserme, 38123, Trento",Trento,46.0205649,11.0422601,+390461948032,,gym,,gym,False,discovered,2026-06-03T22:00:00Z
osm_overpass,osm_44.52592_10.27625,Villaggio Rock,www.villaggiorock.it,,altro,44.5259195,10.2762459,+39 0521 846637,,gym,,gym,False,discovered,2026-06-03T22:00:00Z
osm_overpass,osm_45.74668_10.7998,Stickl Sport Camp,https://www.stickl.com/,,altro,45.746677,10.7997993,,,gym,,gym,False,discovered,2026-06-03T22:00:00Z
osm_overpass,osm_45.80442_10.84314,Kite Club Malcesine,,,altro,45.8044157,10.8431397,,,gym,,gym,False,discovered,2026-06-03T22:00:00Z
osm_overpass,osm_39.98968_15.95373,Campo di Tiro Target Club,,,altro,39.9896836,15.9537259,,,gym,,gym,False,discovered,2026-06-03T22:00:00Z
osm_overpass,osm_39.96853_15.93955,Maneggio,,,altro,39.9685346,15.9395472,,,gym,,gym,False,discovered,2026-06-03T22:00:00Z
osm_overpass,osm_39.96099_15.97883,Canoa Club Lao Pollino,,,altro,39.9609921,15.9788321,,,gym,,gym,False,discovered,2026-06-03T22:00:00Z
osm_overpass,osm_39.9577_15.97634,Lao Canyon Rafting,,,altro,39.9576968,15.9763436,,,gym,,gym,False,discovered,2026-06-03T22:00:00Z
osm_overpass,osm_44.40904_8.60791,Torrioni di Sciarborasca,,,altro,44.4090372,8.6079056,,,climbing_gym,,gym,False,discovered,2026-06-03T22:00:00Z
osm_overpass,osm_38.0998_13.33323,MOVELAB ASD,https://www.movelabstudio.it/,"Via Salvatore Bertini, 90129, Palermo",Palermo,38.0998043,13.3332291,+39 091 420478,,gym,,gym,False,discovered,2026-06-03T22:00:00Z
osm_overpass,osm_41.25658_16.41395,Valente,,,altro,41.2565785,16.4139523,,,gym,,gym,False,discovered,2026-06-03T22:00:00Z
osm_overpass,osm_41.26172_16.40647,Tempo Libero,,,altro,41.2617197,16.4064696,,,gym,,gym,False,discovered,2026-06-03T22:00:00Z
osm_overpass,osm_43.81292_7.75028,Centro Sportivo Solaro,,,altro,43.8129161,7.7502813,,,gym,,gym,False,discovered,2026-06-03T22:00:00Z
osm_overpass,osm_45.5515_10.78854,Fast Fit 2,,,altro,45.551505,10.788544,,,gym,,gym,False,discovered,2026-06-03T22:00:00Z
osm_overpass,osm_41.26138_16.43847,Centro Sportivo Pozzo Piano,,,altro,41.2613845,16.4384674,,,gym,,gym,False,discovered,2026-06-03T22:00:00Z
osm_overpass,osm_45.96078_13.61395,La Remuda,,,altro,45.9607771,13.6139534,,,gym,,gym,False,discovered,2026-06-03T22:00:00Z
osm_overpass,osm_44.4265_12.18673,Life Planet,,,altro,44.4264975,12.1867286,,,gym,,gym,False,discovered,2026-06-03T22:00:00Z
osm_overpass,osm_42.77073_12.5288,Palazzetto dello Sport,,,altro,42.7707278,12.5288009,,,gym,,gym,False,discovered,2026-06-03T22:00:00Z
osm_overpass,osm_46.05429_11.13302,Palestra Trim,,,altro,46.0542905,11.1330226,,,gym,,gym,False,discovered,2026-06-03T22:00:00Z
osm_overpass,osm_44.15267_9.66958,paragliding hanggliding start place,,,altro,44.1526658,9.6695832,,,gym,,gym,False,discovered,2026-06-03T22:00:00Z
osm_overpass,osm_41.86542_12.50728,Quo Vadis,,,Roma,41.8654186,12.5072763,,,gym,,gym,False,discovered,2026-06-03T22:00:00Z
osm_overpass,osm_39.21154_9.30143,Tennis Stella di Mare,,,altro,39.2115448,9.3014296,,,gym,,gym,False,discovered,2026-06-03T22:00:00Z
osm_overpass,osm_45.93599_11.32014,Millegrobbe,,,altro,45.935989,11.3201384,,,gym,,gym,False,discovered,2026-06-03T22:00:00Z
osm_overpass,osm_44.00179_12.63495,Èlite,,Viale Giulio Cesare,altro,44.0017881,12.6349476,,,gym,,gym,False,discovered,2026-06-03T22:00:00Z
osm_overpass,osm_45.91729_12.84446,Tennis Club,,,altro,45.9172895,12.8444632,,,gym,,gym,False,discovered,2026-06-03T22:00:00Z
osm_overpass,osm_43.7989_10.56829,Palestra comunale,,,altro,43.7989043,10.5682899,,,gym,,gym,False,discovered,2026-06-03T22:00:00Z
osm_overpass,osm_44.6446_8.65084,Palestra Vital,,,altro,44.6446002,8.6508353,,,gym,,gym,False,discovered,2026-06-03T22:00:00Z
osm_overpass,osm_41.13609_16.84486,C.U.S. Bari,,,altro,41.136094,16.8448627,,,gym,,gym,False,discovered,2026-06-03T22:00:00Z
osm_overpass,osm_45.22498_11.6618,Bellini Fitness A.S.D.,,"Via Borgofuro, Este",Este,45.2249761,11.6617978,,,gym,,gym,False,discovered,2026-06-03T22:00:00Z
osm_overpass,osm_44.99329_9.00758,La Danza,,,altro,44.9932894,9.0075806,,,gym,,gym,False,discovered,2026-06-03T22:00:00Z
osm_overpass,osm_41.10084_16.86495,Empire Gym,https://www.empiregym.it/,"Viale Luigi De Laurentis, 70124, Bari",Bari,41.1008408,16.8649538,+39 0805019036,,gym,,gym,False,discovered,2026-06-03T22:00:00Z
osm_overpass,osm_46.40471_11.32199,Palestra Comunale - Gemeindehalle,,,altro,46.4047098,11.3219928,,,gym,,gym,False,discovered,2026-06-03T22:00:00Z
osm_overpass,osm_42.58565_12.57261,ASD Cavallo & Natura,,,altro,42.5856525,12.5726063,,,gym,,gym,False,discovered,2026-06-03T22:00:00Z
osm_overpass,osm_45.55178_9.1637,A.S. Lombardia Sport Club,,,altro,45.5517829,9.1637024,+39 346 3083439,,gym,,gym,False,discovered,2026-06-03T22:00:00Z
osm_overpass,osm_42.02607_12.80321,Cicas,,,altro,42.0260689,12.8032136,,,gym,,gym,False,discovered,2026-06-03T22:00:00Z
osm_overpass,osm_44.47068_11.3762,Circolo Sportivo La Raquette,http://www.laraquette.it/cms/index.php,"Via delle Armi, 40141, Bologna",Bologna,44.470683,11.3762021,+39 051 6233039,,gym,,gym,False,discovered,2026-06-03T22:00:00Z
osm_overpass,osm_43.87781_10.29045,Health & Fitness,,,altro,43.8778053,10.2904492,,,gym,,gym,False,discovered,2026-06-03T22:00:00Z
osm_overpass,osm_44.3696_9.14894,Pro Recco Tennis,,,altro,44.3695982,9.1489388,,,gym,,gym,False,discovered,2026-06-03T22:00:00Z
osm_overpass,osm_41.19359_15.87825,ASD Cavalli e Natura,,,altro,41.1935882,15.8782511,+39 338 4135231,,gym,,gym,False,discovered,2026-06-03T22:00:00Z
osm_overpass,osm_45.63942_10.61126,Toscolano Maderno A.C.,,"Via Regionale, 25084, Toscolano Maderno",Toscolano Maderno,45.6394181,10.6112567,,,gym,,gym,False,discovered,2026-06-03T22:00:00Z
osm_overpass,osm_45.83799_10.56913,Corna dal Vescov,https://www.caisatstoro.it/index.php/strumenti/palestra-corna-del-vescov,,altro,45.8379889,10.5691253,,,climbing_gym,,gym,False,discovered,2026-06-03T22:00:00Z
osm_overpass,osm_45.46031_11.57359,Falesia di Lumignano,,,altro,45.4603101,11.5735935,,,climbing_gym,,gym,False,discovered,2026-06-03T22:00:00Z
osm_overpass,osm_43.89923_10.24663,Pardini Sport Center,https://pardinisportingcenter.it/,,altro,43.8992324,10.2466342,,,gym,,gym,False,discovered,2026-06-03T22:00:00Z
osm_overpass,osm_43.86745_10.24207,B2K Balena 2000,,,altro,43.867451,10.2420707,,,gym,,gym,False,discovered,2026-06-03T22:00:00Z
osm_overpass,osm_44.18567_12.12923,Stadio Comunale,,,altro,44.1856741,12.1292296,,,gym,,gym,False,discovered,2026-06-03T22:00:00Z
osm_overpass,osm_44.3555_9.2182,Fitness,,,altro,44.3554986,9.2181993,,,gym,,gym,False,discovered,2026-06-03T22:00:00Z
osm_overpass,osm_46.06079_10.92528,"Parco di arrampicata ""Limarock""",,,altro,46.0607887,10.9252807,,,climbing_gym,,gym,False,discovered,2026-06-03T22:00:00Z
osm_overpass,osm_46.04745_10.94614,Limarò,,,altro,46.0474486,10.9461358,,,climbing_gym,,gym,False,discovered,2026-06-03T22:00:00Z
osm_overpass,osm_42.46574_12.52442,ASD 2000 Schifanoia,,,altro,42.4657369,12.5244202,,,gym,,gym,False,discovered,2026-06-03T22:00:00Z
osm_overpass,osm_42.77315_13.67017,Circolo Tennis Civitella,,,altro,42.7731536,13.6701738,,,gym,,gym,False,discovered,2026-06-03T22:00:00Z
osm_overpass,osm_46.49119_11.34541,"Hallenbad - Piscina coperta ""Karl Dibiasi""",https://opencity.gemeinde.bozen.it/Politik-und-Verwaltung/Lageplan/Hallenbad-Karl-Dibiasi/,"Viale Trieste - Triester Straße, 39100, Bolzano - Bozen",Bolzano - Bozen,46.4911858,11.3454091,+39 0471 911000,,pool,,gym,False,discovered,2026-06-03T22:00:00Z
osm_overpass,osm_45.37569_9.17311,La Parete Rossa,,,altro,45.3756911,9.1731061,,,climbing_gym,,gym,False,discovered,2026-06-03T22:00:00Z
osm_overpass,osm_45.90123_12.29761,Centro Ippico Conegliano,,,altro,45.9012267,12.2976116,,,gym,,gym,False,discovered,2026-06-03T22:00:00Z
osm_overpass,osm_44.41933_10.41155,Falesia Arrampicata Sportiva Pietra di Bismantova,,,altro,44.4193331,10.411549,,,climbing_gym,,gym,False,discovered,2026-06-03T22:00:00Z
osm_overpass,osm_44.68854_10.646,Palestra Arrampicata Hard Rock - CAI Reggio Emilia,,,altro,44.6885372,10.6460046,,,climbing_gym,,gym,False,discovered,2026-06-03T22:00:00Z
osm_overpass,osm_44.54703_8.99623,"Centro ippico ""La Posada""",,,altro,44.5470333,8.9962261,,,gym,,gym,False,discovered,2026-06-03T22:00:00Z
osm_overpass,osm_44.37619_10.2492,Pratizzano - Sci di Fondo,,,altro,44.3761884,10.2492008,,,gym,,gym,False,discovered,2026-06-03T22:00:00Z
osm_overpass,osm_46.49299_11.3469,Palamazzali,,,altro,46.4929943,11.3469013,,,gym,,gym,False,discovered,2026-06-03T22:00:00Z
osm_overpass,osm_46.49327_11.34633,Bocciodromo,,,altro,46.4932694,11.3463274,,,gym,,gym,False,discovered,2026-06-03T22:00:00Z
osm_overpass,osm_36.82592_14.76285,Palestra Athena,,,altro,36.8259151,14.7628462,,,gym,,gym,False,discovered,2026-06-03T22:00:00Z
osm_overpass,osm_44.67897_10.65261,Palestra Fit-Village,,,altro,44.6789666,10.6526149,,,gym,,gym,False,discovered,2026-06-03T22:00:00Z
osm_overpass,osm_46.06587_11.13191,Centro Relife,,"Via Giuseppe Grazioli, 38122, Trento",Trento,46.0658703,11.1319097,,,gym,,gym,False,discovered,2026-06-03T22:00:00Z
osm_overpass,osm_46.06771_11.12565,Juta Wellness Center,,,altro,46.0677131,11.1256533,,,wellness_center,,gym,False,discovered,2026-06-03T22:00:00Z
osm_overpass,osm_39.25184_9.16106,Impianto sportivo San Salvatore,,,altro,39.2518403,9.1610642,,,gym,,gym,False,discovered,2026-06-03T22:00:00Z
osm_overpass,osm_45.42534_11.59295,Palestra comunale,,,altro,45.4253391,11.5929515,,,gym,,gym,False,discovered,2026-06-03T22:00:00Z
osm_overpass,osm_45.86393_10.88056,Busatte Adventure,https://busatteadventure.it/,,altro,45.8639336,10.8805582,,,climbing_gym,,gym,False,discovered,2026-06-03T22:00:00Z
osm_overpass,osm_45.88057_10.88699,Falesia Belvedere Sector A,,,altro,45.8805674,10.8869872,,,climbing_gym,,gym,False,discovered,2026-06-03T22:00:00Z
osm_overpass,osm_41.18892_9.43433,Centro Velico Caprera,,,altro,41.1889224,9.4343261,,,gym,,gym,False,discovered,2026-06-03T22:00:00Z
osm_overpass,osm_44.97799_7.61518,FC Juventus,,,altro,44.9779934,7.6151806,,,gym,,gym,False,discovered,2026-06-03T22:00:00Z
osm_overpass,osm_41.94569_12.36047,Pony Club,,"Via Guglielmo Girardi, 00166, Roma",Roma,41.9456863,12.3604654,,,gym,,gym,False,discovered,2026-06-03T22:00:00Z
osm_overpass,osm_45.46768_12.53031,Fitness Arena,,"Via Fausta, 30013, Cavallino-Treporti",Cavallino-Treporti,45.4676841,12.5303137,,,gym,,gym,False,discovered,2026-06-03T22:00:00Z
osm_overpass,osm_45.89883_12.00199,Piscina Comunale,,,altro,45.8988264,12.001988,,,pool,,gym,False,discovered,2026-06-03T22:00:00Z
osm_overpass,osm_41.85975_12.57553,Olimpia 1,,"Via Giuseppe Messina, 00173, Roma",Roma,41.8597482,12.5755292,,,gym,,gym,False,discovered,2026-06-03T22:00:00Z
osm_overpass,osm_45.60038_11.49821,"Palasport ""Palamotta""",,,altro,45.6003784,11.4982121,,,gym,,gym,False,discovered,2026-06-03T22:00:00Z
osm_overpass,osm_45.65138_13.78484,Società Ginnastica Triestina,,"Via della Ginnastica, 34142, Trieste",Trieste,45.6513806,13.7848413,,,gym,,gym,False,discovered,2026-06-03T22:00:00Z
osm_overpass,osm_44.96815_7.30218,Rocca Sbarua - Rivero,,,altro,44.9681522,7.3021786,,,climbing_gym,,gym,False,discovered,2026-06-03T22:00:00Z
osm_overpass,osm_44.96806_7.30112,Rocca Sbarua - Placche Gialle,,,altro,44.9680571,7.3011164,,,climbing_gym,,gym,False,discovered,2026-06-03T22:00:00Z
osm_overpass,osm_44.96909_7.30396,Rocca Sbarua - Cinquetti,,,altro,44.9690943,7.3039628,,,climbing_gym,,gym,False,discovered,2026-06-03T22:00:00Z
osm_overpass,osm_45.56643_10.23088,Hello Fit Brescia Nord,,"Via Triumplina, 25123, Brescia",Brescia,45.5664332,10.2308828,,,gym,,gym,False,discovered,2026-06-03T22:00:00Z
osm_overpass,osm_44.84887_11.62495,Tiro a Segno Nazionale - Ferrara,,"Corso Ercole I d'Este, 44121, Ferrara",Ferrara,44.8488721,11.6249522,,,gym,,gym,False,discovered,2026-06-03T22:00:00Z
osm_overpass,osm_43.59293_13.50608,CrossFit Ancona,,"Via del Commercio, 60127",altro,43.5929293,13.5060759,,CrossFit,crossfit_box,,gym,False,discovered,2026-06-03T22:00:00Z
osm_overpass,osm_41.97799_15.00797,La Vida,,,altro,41.9779908,15.0079695,,,gym,,gym,False,discovered,2026-06-03T22:00:00Z
osm_overpass,osm_36.9503_14.61333,New Olimpia,,,altro,36.9502996,14.6133271,,,gym,,gym,False,discovered,2026-06-03T22:00:00Z
osm_overpass,osm_44.48203_9.49367,Canalino del Penna,,,altro,44.4820274,9.4936714,,,climbing_gym,,gym,False,discovered,2026-06-03T22:00:00Z
osm_overpass,osm_44.11032_12.11742,"""Quarter House"" ex Fabrona",,,altro,44.1103181,12.1174223,,,gym,,gym,False,discovered,2026-06-03T22:00:00Z
osm_overpass,osm_45.53928_9.16795,Palestra Santini,,,Milano,45.5392831,9.1679463,,,gym,,gym,False,discovered,2026-06-03T22:00:00Z
osm_overpass,osm_46.06714_11.12002,Centro Sportivo Life,https://www.centrosportivolife.com/,,altro,46.0671392,11.1200153,+39 0461 231266,,gym,,gym,False,discovered,2026-06-03T22:00:00Z
osm_overpass,osm_41.43321_15.12073,Villaggio Arancione,,,altro,41.4332114,15.120728,,,gym,,gym,False,discovered,2026-06-03T22:00:00Z
osm_overpass,osm_46.27595_13.14306,Palestra di roccia del Glemine,,,altro,46.2759524,13.1430555,,,climbing_gym,,gym,False,discovered,2026-06-03T22:00:00Z
osm_overpass,osm_45.62634_8.84377,Campi da tennis,,,altro,45.6263403,8.8437726,,,gym,,gym,False,discovered,2026-06-03T22:00:00Z
osm_overpass,osm_46.17624_11.21188,Palacurling,,,altro,46.1762427,11.2118783,,,gym,,gym,False,discovered,2026-06-03T22:00:00Z
osm_overpass,osm_45.02727_7.59266,K1 Speed Torino,,,Torino,45.0272712,7.5926621,,,gym,,gym,False,discovered,2026-06-03T22:00:00Z
osm_overpass,osm_44.78803_10.32287,"Centro Polivalente ""Gino Lottici""",,,altro,44.7880325,10.3228672,,,gym,,gym,False,discovered,2026-06-03T22:00:00Z
osm_overpass,osm_44.64393_10.90035,Piscina Comando Vigili del Fuoco Modena,https://www.amicidelnuoto.it/,"Via Monsignore Luigi Della Valle, 41126, Modena",Modena,44.6439317,10.900349,+39 059 335024,,pool,,gym,False,discovered,2026-06-03T22:00:00Z
osm_overpass,osm_45.89124_12.3211,Palestra Joy Club,,,altro,45.8912424,12.3210998,,,gym,,gym,False,discovered,2026-06-03T22:00:00Z
osm_overpass,osm_44.82518_11.63247,Palestra Gym&Tonic,,"Via Colombarola, 44124, Ferrara",Ferrara,44.8251815,11.6324674,+39 0532 741919,,gym,,gym,False,discovered,2026-06-03T22:00:00Z
osm_overpass,osm_44.70139_10.44216,L. Notari,,,altro,44.7013894,10.4421646,,,gym,,gym,False,discovered,2026-06-03T22:00:00Z
osm_overpass,osm_44.38732_11.82727,Circolo il calcetto 5ive,,,altro,44.3873152,11.8272727,,,gym,,gym,False,discovered,2026-06-03T22:00:00Z
osm_overpass,osm_44.50845_11.82735,Tennis,,,altro,44.5084502,11.8273523,,,gym,,gym,False,discovered,2026-06-03T22:00:00Z
osm_overpass,osm_41.54625_13.67363,Falesia di Caprile,,,altro,41.5462501,13.6736279,,,climbing_gym,,gym,False,discovered,2026-06-03T22:00:00Z
osm_overpass,osm_42.98544_12.77121,Falesia di Pale,,,altro,42.9854379,12.7712134,,,climbing_gym,,gym,False,discovered,2026-06-03T22:00:00Z
osm_overpass,osm_44.21619_12.05858,"Palestra ""New Club Sportman""",,,altro,44.2161861,12.0585759,,,gym,,gym,False,discovered,2026-06-03T22:00:00Z
osm_overpass,osm_44.38979_12.21776,Centro Sportivo Ponte Nuovo,,,altro,44.3897916,12.2177572,,,gym,,gym,False,discovered,2026-06-03T22:00:00Z
osm_overpass,osm_39.24019_9.21245,Palestra Liceo Scientifico,,"Via Pitz'e Serra, 09045, Quartu Sant'Elena",Quartu Sant'Elena,39.2401875,9.2124506,,,gym,,gym,False,discovered,2026-06-03T22:00:00Z
osm_overpass,osm_45.13965_7.13294,campo sportivo,,,altro,45.1396537,7.1329412,,,gym,,gym,False,discovered,2026-06-03T22:00:00Z
osm_overpass,osm_45.90291_8.90309,Canottieri Porto Ceresio,,,altro,45.9029145,8.9030899,,,gym,,gym,False,discovered,2026-06-03T22:00:00Z
osm_overpass,osm_41.88878_12.50519,Centro Sportivo Santa Maria,,"Via Matteo Boiardo, 00185, Roma",Roma,41.8887817,12.5051942,,,gym,,gym,False,discovered,2026-06-03T22:00:00Z
osm_overpass,osm_45.50017_9.68709,Campo Sportivo Comunale,,"Via Don Arturo Bietti, 24040, Fornovo San Giovanni",Fornovo San Giovanni,45.5001696,9.6870949,,,gym,,gym,False,discovered,2026-06-03T22:00:00Z
osm_overpass,osm_45.77241_9.32303,Palestra Comunale,,"Via Molteni, 23844",altro,45.7724055,9.3230314,,,gym,,gym,False,discovered,2026-06-03T22:00:00Z
osm_overpass,osm_44.84833_11.61316,"Palapalestre ""Padre John Caneparo""",,"Viale Francesco Tumiati, 44122, Ferrara",Ferrara,44.8483297,11.613155,,,gym,,gym,False,discovered,2026-06-03T22:00:00Z
osm_overpass,osm_41.94901_12.83366,Complesso Sportivo Comunale Arci,,,altro,41.9490062,12.8336614,,,gym,,gym,False,discovered,2026-06-03T22:00:00Z
osm_overpass,osm_45.76027_7.54254,Area Sportiva Rapy,,,altro,45.7602735,7.5425356,,,gym,,gym,False,discovered,2026-06-03T22:00:00Z
osm_overpass,osm_43.80051_11.23716,Bodyline Center,,,Firenze,43.8005149,11.2371619,,,gym,,gym,False,discovered,2026-06-03T22:00:00Z
osm_overpass,osm_44.02435_12.41183,Centro sportivo,,,altro,44.0243527,12.4118264,,,gym,,gym,False,discovered,2026-06-03T22:00:00Z
osm_overpass,osm_44.22233_12.05368,Ginnasio Sportivo 'G. Ambrosini',,,altro,44.2223296,12.0536758,,,gym,,gym,False,discovered,2026-06-03T22:00:00Z
osm_overpass,osm_46.48623_11.31904,Energym,,"Via Resia - Reschenstraße, 39100, Bolzano - Bozen",Bolzano - Bozen,46.4862294,11.3190363,,,gym,,gym,False,discovered,2026-06-03T22:00:00Z
osm_overpass,osm_41.92806_12.48696,Boxing-Gym Srl,,Viale dei Parioli,Roma,41.92806,12.4869583,,,boxing_gym,,gym,False,discovered,2026-06-03T22:00:00Z
osm_overpass,osm_45.63557_7.73004,Palestra di Roccia Gruviera,,,altro,45.6355688,7.7300436,,,climbing_gym,,gym,False,discovered,2026-06-03T22:00:00Z
osm_overpass,osm_46.40712_13.04124,Falesia del monte Strabut,,,altro,46.4071169,13.0412405,,,climbing_gym,,gym,False,discovered,2026-06-03T22:00:00Z
osm_overpass,osm_44.32632_7.60515,"Centro Sportivo Regione ""Miclet""",,,altro,44.32632,7.6051511,,,gym,,gym,False,discovered,2026-06-03T22:00:00Z
osm_overpass,osm_41.8781_12.52647,Mister Gym,,"Via Gubbio, 00181, Roma",Roma,41.8780983,12.5264731,,,gym,,gym,False,discovered,2026-06-03T22:00:00Z
osm_overpass,osm_41.87503_12.52042,Fitnes Club,,Via Gino Capponi,Roma,41.8750317,12.5204164,,,gym,,gym,False,discovered,2026-06-03T22:00:00Z
osm_overpass,osm_44.95026_9.40962,Centro Sportivo Comunale,,,altro,44.9502594,9.4096178,,,gym,,gym,False,discovered,2026-06-03T22:00:00Z
osm_overpass,osm_46.89419_11.43855,Schulturnhalle - Palestra Scolastica,,,altro,46.8941933,11.4385501,,,gym,,gym,False,discovered,2026-06-03T22:00:00Z
osm_overpass,osm_45.32212_8.39434,The Crew - Fit & Fight,https://fitprime.com/it/palestre/vercelli/the_crew_fit_fight,"Via Giuseppe Milano, 13100, Vercelli",Vercelli,45.3221166,8.3943436,+39 333 7926686,,boxing_gym,,gym,False,discovered,2026-06-03T22:00:00Z
osm_overpass,osm_43.60646_13.50989,Bocciodromo San Paolo,,,altro,43.6064635,13.5098927,,,gym,,gym,False,discovered,2026-06-03T22:00:00Z
osm_overpass,osm_43.11924_12.92639,Falesie di Sefro,,,altro,43.1192421,12.9263925,,,climbing_gym,,gym,False,discovered,2026-06-03T22:00:00Z
osm_overpass,osm_46.09396_11.1104,House of Boxing,https://www.houseofboxing.it/,"Via Giambattista Unterveger, 38121, Trento",Trento,46.0939614,11.1104023,,,boxing_gym,,gym,False,discovered,2026-06-03T22:00:00Z
osm_overpass,osm_45.03325_9.18534,Palestra comunale,,,altro,45.033252,9.1853429,,,gym,,gym,False,discovered,2026-06-03T22:00:00Z
osm_overpass,osm_44.40349_8.67784,A.S.D. Palestra California Club,https://www.californiaclub.info/,,altro,44.4034916,8.6778395,+39 010 9130201,,gym,,gym,False,discovered,2026-06-03T22:00:00Z
osm_overpass,osm_41.40198_13.4646,Fisio Sport Pecchia,https://www.facebook.com/fisiosport.pecchia,,altro,41.4019825,13.4645984,+39 077 1589024,,gym,,gym,False,discovered,2026-06-03T22:00:00Z
osm_overpass,osm_45.49965_8.85511,Bocciodromo comunale,,,altro,45.4996504,8.8551066,,,gym,,gym,False,discovered,2026-06-03T22:00:00Z
osm_overpass,osm_45.37893_9.15942,Palestra comunale AMA Sport,,,altro,45.378932,9.1594225,,,gym,,gym,False,discovered,2026-06-03T22:00:00Z
osm_overpass,osm_46.1359_12.20106,Sporting,,"Via Feltre, Belluno",Belluno,46.1358957,12.2010583,,,gym,,gym,False,discovered,2026-06-03T22:00:00Z
osm_overpass,osm_45.77798_9.14011,Golf Villa D'Este,,"Via Cantù, 22030, Montorfano",Montorfano,45.7779774,9.1401147,+39 031 200200,,gym,,gym,False,discovered,2026-06-03T22:00:00Z
osm_overpass,osm_43.18288_10.53933,Circolo Nautico Donoratico,,,altro,43.1828797,10.5393265,,,gym,,gym,False,discovered,2026-06-03T22:00:00Z
osm_overpass,osm_44.32663_7.67364,Palazzetto Sport Comunale,,,altro,44.3266348,7.6736354,,,gym,,gym,False,discovered,2026-06-03T22:00:00Z
osm_overpass,osm_44.32719_7.6737,Campo Calcio Comunale,,,altro,44.3271881,7.6737004,,,gym,,gym,False,discovered,2026-06-03T22:00:00Z
osm_overpass,osm_45.77296_9.02875,Palazzetto di Villa Guardia,,,altro,45.7729577,9.0287506,,,gym,,gym,False,discovered,2026-06-03T22:00:00Z
osm_overpass,osm_40.8201_8.8245,Laerru climb,,,altro,40.8200972,8.8245015,,,climbing_gym,,gym,False,discovered,2026-06-03T22:00:00Z
osm_overpass,osm_46.73536_12.21562,Sportzone Gries Toblach - Zona Sportiva Gries Dobbiaco,,,altro,46.7353566,12.2156194,+39 345 8547435,,gym,,gym,False,discovered,2026-06-03T22:00:00Z
osm_overpass,osm_46.24843_11.17033,Palestra,,Roveré della Luna,Roveré della Luna,46.2484331,11.1703284,,,gym,,gym,False,discovered,2026-06-03T22:00:00Z
osm_overpass,osm_45.76598_11.74866,Calcio e Tennis San Marco,,,altro,45.7659818,11.7486624,,,gym,,gym,False,discovered,2026-06-03T22:00:00Z
osm_overpass,osm_45.76297_11.73434,Centro Giovanile,,,altro,45.7629747,11.7343431,,,gym,,gym,False,discovered,2026-06-03T22:00:00Z
osm_overpass,osm_45.76988_11.78689,Sporting Club,,,altro,45.7698823,11.7868947,,,gym,,gym,False,discovered,2026-06-03T22:00:00Z
osm_overpass,osm_45.85054_12.28229,Campo Sportivo,,,altro,45.8505388,12.2822924,,,gym,,gym,False,discovered,2026-06-03T22:00:00Z
osm_overpass,osm_45.52942_11.47651,Campo Sportivo di Creazzo,,,altro,45.5294182,11.4765126,,,gym,,gym,False,discovered,2026-06-03T22:00:00Z
osm_overpass,osm_45.37523_11.12172,circolo ippico,,,altro,45.3752282,11.1217239,,,gym,,gym,False,discovered,2026-06-03T22:00:00Z
osm_overpass,osm_45.37675_11.12612,Palazzetto dello Sport,,"Via Aldo Moro, 37059, Zevio",Zevio,45.3767508,11.1261154,,,gym,,gym,False,discovered,2026-06-03T22:00:00Z
osm_overpass,osm_45.41829_11.13642,palestra miami gym,,,altro,45.418288,11.1364247,,,gym,,gym,False,discovered,2026-06-03T22:00:00Z
osm_overpass,osm_46.68906_10.50765,Naturrodelbahn Schleis,,,altro,46.6890565,10.5076548,,,gym,,gym,False,discovered,2026-06-03T22:00:00Z
osm_overpass,osm_45.23691_11.46841,Stadio di Montagnana,,,altro,45.2369081,11.4684062,,,gym,,gym,False,discovered,2026-06-03T22:00:00Z
osm_overpass,osm_45.76827_11.72311,Palazzetto dello sport,,,altro,45.7682691,11.7231133,,,gym,,gym,False,discovered,2026-06-03T22:00:00Z
osm_overpass,osm_40.09402_15.41369,Sentiero vita,,,altro,40.0940211,15.4136934,,,gym,,gym,False,discovered,2026-06-03T22:00:00Z
osm_overpass,osm_45.77371_11.74783,Centro Sportivo San Vito,,,altro,45.7737097,11.7478285,,,gym,,gym,False,discovered,2026-06-03T22:00:00Z
osm_overpass,osm_45.82831_11.836,Palestra Comunale,,,altro,45.8283056,11.8360008,,,gym,,gym,False,discovered,2026-06-03T22:00:00Z
osm_overpass,osm_45.52356_9.14572,Garden Tennis Club,,"Via Trento e Trieste, 20026",Milano,45.5235613,9.1457246,,,gym,,gym,False,discovered,2026-06-03T22:00:00Z
osm_overpass,osm_39.91322_8.58818,F.A.C.A.N. S.r.l.,,,altro,39.9132164,8.5881796,,,gym,,gym,False,discovered,2026-06-03T22:00:00Z
osm_overpass,osm_45.76001_11.7472,Centro sportivo Parrocchiale Cà Baroncello,,,altro,45.7600101,11.7471993,,,gym,,gym,False,discovered,2026-06-03T22:00:00Z
osm_overpass,osm_45.81075_12.61371,Campo Sportivo Meduna,,,altro,45.8107508,12.613714,,,gym,,gym,False,discovered,2026-06-03T22:00:00Z
osm_overpass,osm_44.40268_8.93626,Eden Gym,,Via Santa Maria in Via Lata,altro,44.4026766,8.9362632,,,gym,,gym,False,discovered,2026-06-03T22:00:00Z
osm_overpass,osm_46.52689_12.98885,Campo polivalente,,,altro,46.5268865,12.9888473,,,gym,,gym,False,discovered,2026-06-03T22:00:00Z
osm_overpass,osm_45.41017_11.86897,Gym Center,,Corso Milano,altro,45.4101662,11.8689738,,,gym,,gym,False,discovered,2026-06-03T22:00:00Z
osm_overpass,osm_45.42506_12.3782,Tiro a segno nazionale,,Riviera San Nicolò,Venezia,45.4250638,12.3781957,,,gym,,gym,False,discovered,2026-06-03T22:00:00Z
osm_overpass,osm_46.06889_11.12876,FitPark,,"Piazza Venezia, 38122",altro,46.0688867,11.1287601,,,gym,,gym,False,discovered,2026-06-03T22:00:00Z
osm_overpass,osm_44.12715_12.07223,Piscina Comunale,,,altro,44.1271458,12.0722336,,,pool,,gym,False,discovered,2026-06-03T22:00:00Z
osm_overpass,osm_45.54212_12.16642,Campo Sportivo di Martellago,,,altro,45.5421196,12.1664237,,,gym,,gym,False,discovered,2026-06-03T22:00:00Z
osm_overpass,osm_45.40819_11.54698,Campo Sportivo di Barbarano,,,altro,45.4081936,11.5469834,,,gym,,gym,False,discovered,2026-06-03T22:00:00Z
osm_overpass,osm_45.8269_11.85836,Boby Building Filippin,,,altro,45.8269024,11.8583611,,,gym,,gym,False,discovered,2026-06-03T22:00:00Z
osm_overpass,osm_43.42014_11.12586,Armonia,,,altro,43.4201399,11.125861,,,gym,,gym,False,discovered,2026-06-03T22:00:00Z
osm_overpass,osm_43.42085_11.12481,Palestra Tecce,,,altro,43.4208477,11.1248094,,,gym,,gym,False,discovered,2026-06-03T22:00:00Z
osm_overpass,osm_40.91052_14.26351,In Fit Cub ex Linus Fitness Club,,,Napoli,40.9105201,14.2635063,,,gym,,gym,False,discovered,2026-06-03T22:00:00Z
osm_overpass,osm_45.97246_10.86547,Parco dell'Arrampicata Val Lomasone - Settore Roccia dei Folletti,,,altro,45.9724586,10.865473,,,climbing_gym,,gym,False,discovered,2026-06-03T22:00:00Z
osm_overpass,osm_41.86053_12.49251,Corefit,,"Via delle Sette Chiese, 00145, Roma",Roma,41.8605346,12.4925094,,,gym,,gym,False,discovered,2026-06-03T22:00:00Z
osm_overpass,osm_43.46603_12.24591,Starbene Palestra,,,altro,43.4660293,12.2459112,,,gym,,gym,False,discovered,2026-06-03T22:00:00Z
osm_overpass,osm_45.21281_12.29636,Centro Sportivo Clodia,,,altro,45.2128128,12.2963632,,,gym,,gym,False,discovered,2026-06-03T22:00:00Z
osm_overpass,osm_45.21544_12.29612,Piscine Astoria,,,altro,45.215443,12.2961228,,,gym,,gym,False,discovered,2026-06-03T22:00:00Z
osm_overpass,osm_45.2536_11.13654,Campo Sportivo Bovolone,,,altro,45.253601,11.1365353,,,gym,,gym,False,discovered,2026-06-03T22:00:00Z
osm_overpass,osm_45.77987_8.69683,"Bocciodromo ""Antonio Nidoli""",,,altro,45.7798711,8.6968253,,,gym,,gym,False,discovered,2026-06-03T22:00:00Z
osm_overpass,osm_46.05686_11.45527,Gym Tonik,,,altro,46.0568629,11.4552715,,,gym,,gym,False,discovered,2026-06-03T22:00:00Z
osm_overpass,osm_45.22644_9.77058,Campo sportivo,,,altro,45.2264391,9.7705757,,,gym,,gym,False,discovered,2026-06-03T22:00:00Z
osm_overpass,osm_45.50193_9.18288,Virgin Active,https://www.virginactive.it/centri_fitness/milano/maciachini,,Milano,45.5019284,9.1828827,,Virgin Active,gym,,gym,False,discovered,2026-06-03T22:00:00Z
osm_overpass,osm_45.4095_10.99241,Borgo Primo Maggio Football Club,,,altro,45.4094973,10.9924054,,,gym,,gym,False,discovered,2026-06-03T22:00:00Z
osm_overpass,osm_45.75939_9.2895,Centro Sportivo,,23892,altro,45.7593931,9.2894959,,,gym,,gym,False,discovered,2026-06-03T22:00:00Z
osm_overpass,osm_40.8756_14.13324,Stadio Comunale,,,altro,40.8755978,14.1332354,,,gym,,gym,False,discovered,2026-06-03T22:00:00Z
osm_overpass,osm_40.88339_14.126,GoKart,,,altro,40.883391,14.1259973,,,gym,,gym,False,discovered,2026-06-03T22:00:00Z
osm_overpass,osm_41.87298_12.46027,Q-Zar Roma,,"Via Francesco Massi, 00152, Roma",Roma,41.8729813,12.4602669,,,gym,,gym,False,discovered,2026-06-03T22:00:00Z
osm_overpass,osm_45.78746_12.4925,Piscine di Oderzo,,,altro,45.7874581,12.4924999,,,gym,,gym,False,discovered,2026-06-03T22:00:00Z
osm_overpass,osm_45.75262_10.12096,Maneggio Val Tress,,,altro,45.7526209,10.1209575,,,gym,,gym,False,discovered,2026-06-03T22:00:00Z
osm_overpass,osm_45.8718_8.87218,Palestra comunale,,,altro,45.8718001,8.8721788,,,gym,,gym,False,discovered,2026-06-03T22:00:00Z
osm_overpass,osm_42.46577_12.30937,Palestra Comunale,,,altro,42.4657738,12.3093719,,,gym,,gym,False,discovered,2026-06-03T22:00:00Z
osm_overpass,osm_44.05258_10.85702,La Lama,,,altro,44.0525807,10.8570244,,,gym,,gym,False,discovered,2026-06-03T22:00:00Z
osm_overpass,osm_41.95117_12.58,Heaven Due Sporting Club,,,Roma,41.9511691,12.5799969,,,gym,,gym,False,discovered,2026-06-03T22:00:00Z
osm_overpass,osm_45.13446_8.45623,Palestra Bistolfi,,,altro,45.1344562,8.4562324,,,gym,,gym,False,discovered,2026-06-03T22:00:00Z
osm_overpass,osm_45.5386_9.37461,Associazione Sportiva Dilettantistica Macallesi Bussero,https://www.asdmacallesibussero.it/,"Via San Francesco, 20041, Bussero",Bussero,45.5385989,9.3746098,,,gym,,gym,False,discovered,2026-06-03T22:00:00Z
osm_overpass,osm_44.40451_8.96725,Curves,,,altro,44.404509,8.9672501,,Curves,gym,,gym,False,discovered,2026-06-03T22:00:00Z
osm_overpass,osm_41.10416_16.87978,Meta Health Club,,,altro,41.1041586,16.8797806,,,gym,,gym,False,discovered,2026-06-03T22:00:00Z
osm_overpass,osm_43.55764_10.34032,Original gym,,,altro,43.5576414,10.340325,,,gym,,gym,False,discovered,2026-06-03T22:00:00Z
osm_overpass,osm_46.09442_11.10994,Star Club,,"Via Giambattista Unterveger, 38121, Trento",Trento,46.0944237,11.1099442,,,gym,,gym,False,discovered,2026-06-03T22:00:00Z
osm_overpass,osm_46.54961_11.87085,Centro Volo Libero Alta Badia,https://www.tandemflights.it/flight-school,,altro,46.5496146,11.8708498,,,gym,,gym,False,discovered,2026-06-03T22:00:00Z
osm_overpass,osm_45.67546_11.81704,Karate Galliera,,,altro,45.6754565,11.8170375,,,martial_arts,,gym,False,discovered,2026-06-03T22:00:00Z
osm_overpass,osm_45.87262_11.56572,Valbella Ski Area,,,altro,45.8726213,11.56572,,,gym,,gym,False,discovered,2026-06-03T22:00:00Z
osm_overpass,osm_44.60108_8.35456,Circolo sportivo la Fornace,,"Piazza Fornace, 15010",altro,44.6010839,8.3545598,,,gym,,gym,False,discovered,2026-06-03T22:00:00Z
osm_overpass,osm_46.14949_10.1457,Palazzetto dello Sport,,,altro,46.1494893,10.1456977,,,gym,,gym,False,discovered,2026-06-03T22:00:00Z
osm_overpass,osm_44.48242_11.28382,Piscina Martin Luther King,,,Bologna,44.4824189,11.2838243,,,pool,,gym,False,discovered,2026-06-03T22:00:00Z
osm_overpass,osm_43.3017_12.34321,Palazzetto dello Sport,,,altro,43.3016979,12.3432119,,,gym,,gym,False,discovered,2026-06-03T22:00:00Z
osm_overpass,osm_41.35196_13.41741,Planet Fitness,,,altro,41.3519618,13.4174077,,,gym,,gym,False,discovered,2026-06-03T22:00:00Z
osm_overpass,osm_44.39754_8.96219,Centro Tecnico Federale D'Area Liguria Est Valletta Cambiaso,,,altro,44.3975386,8.9621862,,,gym,,gym,False,discovered,2026-06-03T22:00:00Z
osm_overpass,osm_43.6566_11.3025,Palazzetto dello Sport di Strada In Chianti,,"Via Giuseppe Mazzini, 50027, Greve in Chianti",Greve in Chianti,43.6566017,11.3025014,,,gym,,gym,False,discovered,2026-06-03T22:00:00Z
osm_overpass,osm_43.65742_11.30259,Campo da calcio,,,altro,43.6574165,11.3025877,,,gym,,gym,False,discovered,2026-06-03T22:00:00Z
osm_overpass,osm_45.7492_7.64816,Palazzetto del tennis,,,altro,45.7491964,7.6481566,,,gym,,gym,False,discovered,2026-06-03T22:00:00Z
osm_overpass,osm_45.58348_9.65932,Beretta Equisport,,,altro,45.5834832,9.6593164,,,gym,,gym,False,discovered,2026-06-03T22:00:00Z
osm_overpass,osm_41.80889_12.52445,Padel club ardeatino,,,Roma,41.8088857,12.5244508,,,gym,,gym,False,discovered,2026-06-03T22:00:00Z
osm_overpass,osm_46.15971_13.18097,Bocciodromo,,,altro,46.1597098,13.1809732,,,gym,,gym,False,discovered,2026-06-03T22:00:00Z
osm_overpass,osm_44.3225_11.40389,Monterenzio Calcio,,,altro,44.322498,11.4038891,,,gym,,gym,False,discovered,2026-06-03T22:00:00Z
osm_overpass,osm_42.66266_11.70116,Maneggio Belvedere,,"SP4, 58010",altro,42.6626574,11.701157,,,gym,,gym,False,discovered,2026-06-03T22:00:00Z
osm_overpass,osm_40.09549_15.41491,Impianti sportivi,,,altro,40.0954856,15.4149076,,,gym,,gym,False,discovered,2026-06-03T22:00:00Z
osm_overpass,osm_45.19822_9.14228,C.U.S. Pavia,,,altro,45.198218,9.1422759,,,gym,,gym,False,discovered,2026-06-03T22:00:00Z
osm_overpass,osm_44.50543_11.29309,Shotokan Palestra,,"Via Telemaco Signorini, 40133, Bologna",Bologna,44.5054268,11.2930903,,,gym,,gym,False,discovered,2026-06-03T22:00:00Z
osm_overpass,osm_45.93535_13.5725,Circolo Tennis Corallo,,,altro,45.9353488,13.5725003,,,gym,,gym,False,discovered,2026-06-03T22:00:00Z
osm_overpass,osm_41.83639_12.55832,Sporting Village,http://www.sportingvillage.it/,"Via Polia, 00178, Roma",Roma,41.8363938,12.5583205,,,gym,,gym,False,discovered,2026-06-03T22:00:00Z
osm_overpass,osm_45.20024_9.17506,PalaRavizza,,,altro,45.200237,9.1750589,,,gym,,gym,False,discovered,2026-06-03T22:00:00Z
osm_overpass,osm_44.48492_12.01827,Piscina Intercomunale,,,altro,44.4849204,12.0182734,,,pool,,gym,False,discovered,2026-06-03T22:00:00Z
osm_overpass,osm_43.53445_10.3049,Oriente Acquaviva,,,altro,43.5344451,10.3048982,,,gym,,gym,False,discovered,2026-06-03T22:00:00Z
osm_overpass,osm_44.98733_9.00698,La tana del geco,,"27058, Voghera",Voghera,44.98733,9.0069815,,,gym,,gym,False,discovered,2026-06-03T22:00:00Z
osm_overpass,osm_43.83344_7.75422,Golf Green,,"Strada Campo Golf, 18038",altro,43.8334433,7.7542244,,,gym,,gym,False,discovered,2026-06-03T22:00:00Z
osm_overpass,osm_44.43412_8.89164,Folzer,,,altro,44.4341169,8.8916357,,,gym,,gym,False,discovered,2026-06-03T22:00:00Z
osm_overpass,osm_45.66572_7.69092,Piscina,,"Via XXVI Febbraio, 11029, Verrès",Verrès,45.6657163,7.6909185,,,pool,,gym,False,discovered,2026-06-03T22:00:00Z
osm_overpass,osm_41.10155_16.9191,Intesa Calcio,,,altro,41.1015492,16.9190974,,,gym,,gym,False,discovered,2026-06-03T22:00:00Z
osm_overpass,osm_46.71546_10.86721,Sportzone Texel,,,altro,46.7154599,10.8672139,,,gym,,gym,False,discovered,2026-06-03T22:00:00Z
osm_overpass,osm_44.27201_9.40538,Piscine comunali Sestri Levante,,"Via Vincenzo Fascie, 16039, Sestri Levante",Sestri Levante,44.2720056,9.4053751,+39 0185 491152,,gym,,gym,False,discovered,2026-06-03T22:00:00Z
osm_overpass,osm_44.40396_8.93058,Peter Pan Fitness,,,altro,44.4039567,8.9305827,,,gym,,gym,False,discovered,2026-06-03T22:00:00Z
osm_overpass,osm_44.72437_10.11605,Polisportiva la Felce,,Via fratelli Busani,altro,44.7243666,10.116054,,,gym,,gym,False,discovered,2026-06-03T22:00:00Z
osm_overpass,osm_45.59846_10.70815,Falesia di Marciaga,,,altro,45.5984628,10.7081515,,,climbing_gym,,gym,False,discovered,2026-06-03T22:00:00Z
osm_overpass,osm_45.5991_7.78191,Stadio Crestella,,,altro,45.5990969,7.7819096,,,gym,,gym,False,discovered,2026-06-03T22:00:00Z
osm_overpass,osm_43.894_11.0988,A.S.D. Sinergie,,,altro,43.8939978,11.0987966,,,gym,,gym,False,discovered,2026-06-03T22:00:00Z
osm_overpass,osm_41.96301_12.52085,Virgin Active,,,Roma,41.9630121,12.5208543,,Virgin Active,gym,,gym,False,discovered,2026-06-03T22:00:00Z
osm_overpass,osm_44.17674_12.42433,Paradiso Sportcenter,,,altro,44.1767408,12.4243347,,,gym,,gym,False,discovered,2026-06-03T22:00:00Z
osm_overpass,osm_45.66888_9.24636,Action Fit,https://www.actionfit.it/carate-brianza/,"Via Brenta, 20841, Carate Brianza",Carate Brianza,45.668882,9.2463579,,,gym,,gym,False,discovered,2026-06-03T22:00:00Z
osm_overpass,osm_44.26955_9.40097,Kodokan Judo,,"Via Val di Canepa, 16039",altro,44.2695546,9.4009716,,,martial_arts,,gym,False,discovered,2026-06-03T22:00:00Z
osm_overpass,osm_45.38644_9.29668,6 24 palestre,,,altro,45.3864359,9.2966794,,,gym,,gym,False,discovered,2026-06-03T22:00:00Z
osm_overpass,osm_43.61584_13.51437,Urban Fitness,,"Via San Martino, 60122, Ancona",Ancona,43.6158427,13.5143702,,,gym,,gym,False,discovered,2026-06-03T22:00:00Z
osm_overpass,osm_46.48808_10.28822,Presura,,,altro,46.4880809,10.2882237,,,gym,,gym,False,discovered,2026-06-03T22:00:00Z
osm_overpass,osm_42.31512_14.07695,Mistral,,"Via Tiburtina Valeria, 65024, Manoppello",Manoppello,42.3151177,14.0769459,+39 085 856 1696,,gym,,gym,False,discovered,2026-06-03T22:00:00Z
osm_overpass,osm_44.12199_10.77671,Scuola Sci Doganaccia 2000,,,altro,44.1219949,10.776708,,,gym,,gym,False,discovered,2026-06-03T22:00:00Z
osm_overpass,osm_44.12462_10.77222,Parco Avventura,,,altro,44.1246238,10.7722234,,,climbing_gym,,gym,False,discovered,2026-06-03T22:00:00Z
osm_overpass,osm_45.71111_7.2381,Priorato,,,altro,45.71111,7.2380993,,,climbing_gym,,gym,False,discovered,2026-06-03T22:00:00Z
osm_overpass,osm_45.53841_7.84114,Falesia La Turna,https://www.laturna.it/,,altro,45.5384139,7.8411434,,,climbing_gym,,gym,False,discovered,2026-06-03T22:00:00Z
osm_overpass,osm_44.90458_8.92636,Palestra di Viguzzolo,,,altro,44.9045751,8.9263621,,,gym,,gym,False,discovered,2026-06-03T22:00:00Z
osm_overpass,osm_45.02752_9.15891,Starbene,,,altro,45.0275204,9.1589149,,,gym,,gym,False,discovered,2026-06-03T22:00:00Z
osm_overpass,osm_44.00293_10.14356,Meeting Place,,,altro,44.002929,10.1435599,,,gym,,gym,False,discovered,2026-06-03T22:00:00Z
osm_overpass,osm_38.35799_15.85623,Crossfit,,,altro,38.3579936,15.8562274,,CrossFit,crossfit_box,,gym,False,discovered,2026-06-03T22:00:00Z
osm_overpass,osm_41.10079_14.21298,Planet Fitness,,"Via Umberto d'Aquino, 81043, Capua",Capua,41.1007887,14.2129783,,,gym,,gym,False,discovered,2026-06-03T22:00:00Z
osm_overpass,osm_45.35312_11.76223,Centro Sportivo di Abano Terme,,,altro,45.3531164,11.7622306,,,gym,,gym,False,discovered,2026-06-03T22:00:00Z
osm_overpass,osm_43.28523_13.42904,Centro Sportivo Collevario,,,altro,43.285231,13.4290372,,,gym,,gym,False,discovered,2026-06-03T22:00:00Z
osm_overpass,osm_40.30909_15.10968,"Calciotto, Green Volley, Beach volley, Minibasket",,,altro,40.3090868,15.1096843,,,gym,,gym,False,discovered,2026-06-03T22:00:00Z
osm_overpass,osm_40.31865_15.12734,Canoa,,,altro,40.3186502,15.1273439,,,gym,,gym,False,discovered,2026-06-03T22:00:00Z
osm_overpass,osm_40.31786_15.10844,Pedalò,,,altro,40.317862,15.1084439,,,gym,,gym,False,discovered,2026-06-03T22:00:00Z
osm_overpass,osm_40.30969_15.1093,Tiro con l'arco tridimensionale,,,altro,40.3096897,15.1093033,,,gym,,gym,False,discovered,2026-06-03T22:00:00Z
osm_overpass,osm_41.67849_13.34994,Jump,,,altro,41.6784885,13.3499432,,,gym,,gym,False,discovered,2026-06-03T22:00:00Z
osm_overpass,osm_45.7027_9.56296,U.S. Locate 1968,,,altro,45.7027013,9.5629587,,,gym,,gym,False,discovered,2026-06-03T22:00:00Z
osm_overpass,osm_45.45012_7.89943,Legio Canavesana SoftAir,,,altro,45.4501181,7.899428,,,gym,,gym,False,discovered,2026-06-03T22:00:00Z
osm_overpass,osm_43.24629_13.00504,Campetto de Regina Pacis,,,altro,43.2462894,13.0050355,,,gym,,gym,False,discovered,2026-06-03T22:00:00Z
osm_overpass,osm_45.54713_9.38123,Attrezzi Ginnici,,,altro,45.5471319,9.3812306,,,gym,,gym,False,discovered,2026-06-03T22:00:00Z
osm_overpass,osm_40.78895_14.75932,Olimpic Planet,,,altro,40.7889517,14.7593245,,,gym,,gym,False,discovered,2026-06-03T22:00:00Z
osm_overpass,osm_37.56041_15.16114,Circolo Polisportivo Acitrezza,,,altro,37.5604092,15.1611352,,,gym,,gym,False,discovered,2026-06-03T22:00:00Z
osm_overpass,osm_43.1151_12.35614,U.S. B. Fortebraccio,,,altro,43.1150977,12.356139,,,gym,,gym,False,discovered,2026-06-03T22:00:00Z
osm_overpass,osm_44.03675_10.0431,Tennis Club Nautico,,,altro,44.0367468,10.0431012,,,gym,,gym,False,discovered,2026-06-03T22:00:00Z
osm_overpass,osm_45.07031_7.50522,Oratorio San Bartolomeo,,,altro,45.0703138,7.505221,,,gym,,gym,False,discovered,2026-06-03T22:00:00Z
osm_overpass,osm_46.21926_11.04854,Palestra,,,altro,46.219264,11.0485419,,,gym,,gym,False,discovered,2026-06-03T22:00:00Z
osm_overpass,osm_46.4702_11.31477,Salewa Cube,https://www.salewa-cube.com/,Via Waltraud Gebert Deeg - Waltraud-Gebert-Deeg-Straße,altro,46.4701955,11.3147706,,,climbing_gym,,gym,False,discovered,2026-06-03T22:00:00Z
osm_overpass,osm_39.04443_8.54895,Kite Sardegna,http://www.kitesardegna.it/index.html,,altro,39.0444327,8.5489452,,,gym,,gym,False,discovered,2026-06-03T22:00:00Z
osm_overpass,osm_45.55537_10.88941,Centro Sportivo Fumane sas,,"Via Progni, 37022",altro,45.5553652,10.889415,,,gym,,gym,False,discovered,2026-06-03T22:00:00Z
osm_overpass,osm_43.7249_11.45701,Palazzetto dello Sport,,,altro,43.724905,11.457014,,,gym,,gym,False,discovered,2026-06-03T22:00:00Z
osm_overpass,osm_43.72109_11.45813,Polisportiva San Clemente,,,altro,43.7210913,11.4581278,,,gym,,gym,False,discovered,2026-06-03T22:00:00Z
osm_overpass,osm_43.71813_11.45104,Stadio Comunale Davide Astori,,,altro,43.7181332,11.4510363,,,gym,,gym,False,discovered,2026-06-03T22:00:00Z
osm_overpass,osm_43.71638_11.45152,Tennis Club Rignano,,,altro,43.7163822,11.4515158,,,gym,,gym,False,discovered,2026-06-03T22:00:00Z
osm_overpass,osm_44.173_10.87333,Campi Tennis,,,altro,44.1729977,10.8733273,,,gym,,gym,False,discovered,2026-06-03T22:00:00Z
osm_overpass,osm_40.74366_14.62291,Oxigen,http://www.oxygen.it/index.html,,altro,40.7436628,14.6229102,+39 081 5154022,,gym,,gym,False,discovered,2026-06-03T22:00:00Z
osm_overpass,osm_45.53283_9.41529,Piscina Comune di Gorgonzola,,,altro,45.5328301,9.4152888,,,pool,,gym,False,discovered,2026-06-03T22:00:00Z
osm_overpass,osm_38.25889_15.60663,Crazy Gym,,,altro,38.2588859,15.6066273,,,gym,,gym,False,discovered,2026-06-03T22:00:00Z
osm_overpass,osm_44.91599_8.61591,Ego Palestre,,"Via Emanuele Boidi, 15121, Alessandria",Alessandria,44.9159917,8.6159111,,,gym,,gym,False,discovered,2026-06-03T22:00:00Z
osm_overpass,osm_46.3726_11.68418,Palestra di roccia,,,altro,46.3725992,11.6841828,,,climbing_gym,,gym,False,discovered,2026-06-03T22:00:00Z
osm_overpass,osm_41.74482_12.77471,Circolo Ippico del Vivaro,,,altro,41.7448236,12.7747114,,,gym,,gym,False,discovered,2026-06-03T22:00:00Z
osm_overpass,osm_45.12216_9.53196,"Club nautico ""Le gabbiane""",,,altro,45.122164,9.5319632,,,gym,,gym,False,discovered,2026-06-03T22:00:00Z
osm_overpass,osm_46.55957_11.18058,Sportplatz Tisens - Campo sportivo di Tesimo,,,altro,46.5595736,11.1805823,,,gym,,gym,False,discovered,2026-06-03T22:00:00Z
osm_overpass,osm_45.80482_8.97627,Pista pattinaggio,,,altro,45.8048196,8.9762677,,,gym,,gym,False,discovered,2026-06-03T22:00:00Z
osm_overpass,osm_38.15669_13.33049,Mickey Club,,,altro,38.1566922,13.3304939,,,gym,,gym,False,discovered,2026-06-03T22:00:00Z
osm_overpass,osm_37.69031_15.14198,Tennistavolo Santa Venerina,,,altro,37.6903133,15.1419831,,,gym,,gym,False,discovered,2026-06-03T22:00:00Z
osm_overpass,osm_41.97327_13.03714,Campo Sportivo,,,altro,41.9732687,13.0371385,,,gym,,gym,False,discovered,2026-06-03T22:00:00Z
osm_overpass,osm_43.66905_10.64431,Stadio Mannucci,,,altro,43.6690485,10.6443139,,,gym,,gym,False,discovered,2026-06-03T22:00:00Z
osm_overpass,osm_45.45234_9.1166,Yamambo Dance School,,,Milano,45.4523393,9.1165994,,,gym,,gym,False,discovered,2026-06-03T22:00:00Z
osm_overpass,osm_41.83067_12.6145,La Scuola Bailamos,,,Roma,41.8306743,12.6144993,,,gym,,gym,False,discovered,2026-06-03T22:00:00Z
osm_overpass,osm_41.91185_12.53779,Fitvillage,,"Largo Paolo Mattei Gentili, 00157",Roma,41.9118503,12.537786,,,gym,,gym,False,discovered,2026-06-03T22:00:00Z
osm_overpass,osm_43.84404_10.74679,Power Gym,,,altro,43.84404,10.7467901,,,gym,,gym,False,discovered,2026-06-03T22:00:00Z
osm_overpass,osm_43.94851_10.89982,Universo Sporting Center,https://www.palestrauniverso.it/,"Via dell'Olmo, 51100, Pistoia",Pistoia,43.9485052,10.8998187,+39 0573 400489,,gym,,gym,False,discovered,2026-06-03T22:00:00Z
osm_overpass,osm_45.21997_7.59998,Centro Sportivo Le Spine,,,altro,45.2199668,7.5999836,,,gym,,gym,False,discovered,2026-06-03T22:00:00Z
osm_overpass,osm_41.64394_13.34214,Tennis Club T2 A.S.D.,,"Piazza Salvo D'Acquisto, 03100, Frosinone",Frosinone,41.6439395,13.3421431,+39 0775 874448,,gym,,gym,False,discovered,2026-06-03T22:00:00Z
osm_overpass,osm_41.83588_12.46618,Eur Gym Center,https://www.eurgymcenter.it,,Roma,41.8358756,12.4661849,+39 06 5916446,,gym,,gym,False,discovered,2026-06-03T22:00:00Z
osm_overpass,osm_41.48046_14.03672,Los Cocos,,,altro,41.4804578,14.0367229,,,gym,,gym,False,discovered,2026-06-03T22:00:00Z
osm_overpass,osm_44.08019_9.7901,FItness st. 14,,,altro,44.0801886,9.7901019,,,gym,,gym,False,discovered,2026-06-03T22:00:00Z
osm_overpass,osm_44.08556_9.77991,FItness st. 18,,,altro,44.0855551,9.7799074,,,gym,,gym,False,discovered,2026-06-03T22:00:00Z
osm_overpass,osm_44.08679_9.77814,FItness st. 20,,,altro,44.0867859,9.7781396,,,gym,,gym,False,discovered,2026-06-03T22:00:00Z
osm_overpass,osm_44.08438_9.78212,FItness st. 8,,,altro,44.0843803,9.7821198,,,gym,,gym,False,discovered,2026-06-03T22:00:00Z
osm_overpass,osm_44.08389_9.7833,FItness st. 9,,,altro,44.0838895,9.7832954,,,gym,,gym,False,discovered,2026-06-03T22:00:00Z
osm_overpass,osm_44.08752_9.77771,FItness st. 4,,,altro,44.0875201,9.7777111,,,gym,,gym,False,discovered,2026-06-03T22:00:00Z
osm_overpass,osm_45.03274_6.96593,Villa Plinia,,,altro,45.0327406,6.9659319,,,gym,,gym,False,discovered,2026-06-03T22:00:00Z
osm_overpass,osm_42.29526_14.32682,Palestra comunale,,,altro,42.2952589,14.326821,,,gym,,gym,False,discovered,2026-06-03T22:00:00Z
osm_overpass,osm_44.43531_10.4169,Onda della Pietra,,,altro,44.4353113,10.4169045,,,gym,,gym,False,discovered,2026-06-03T22:00:00Z
osm_overpass,osm_40.0007_9.21884,Palestra Gennargentu,,,altro,40.0006961,9.2188355,,,gym,,gym,False,discovered,2026-06-03T22:00:00Z
osm_overpass,osm_40.01468_9.23135,Palestra Antares,,,altro,40.014676,9.231348,,,gym,,gym,False,discovered,2026-06-03T22:00:00Z
osm_overpass,osm_37.46281_14.95986,Spare Time,,,altro,37.4628111,14.9598586,,,wellness_center,,gym,False,discovered,2026-06-03T22:00:00Z
osm_overpass,osm_37.45922_14.96008,Paintball Field,,,altro,37.4592237,14.9600839,,,gym,,gym,False,discovered,2026-06-03T22:00:00Z
osm_overpass,osm_46.16642_10.75731,Palestra Carisolo,,,altro,46.1664209,10.7573106,,,gym,,gym,False,discovered,2026-06-03T22:00:00Z
osm_overpass,osm_46.89359_11.43792,Bodyfit,,"Karl-Riedmann-Platz - Piazza Karl Riedmann, 39049, Sterzing - Vipiteno",Sterzing - Vipiteno,46.8935898,11.4379244,,,gym,,gym,False,discovered,2026-06-03T22:00:00Z
osm_overpass,osm_44.41254_8.88058,Virgin Active,https://www.virginactive.it/club/genova,"Via Paolo Mantovani, 16149, Genova",Genova,44.4125433,8.8805843,,Virgin Active,yoga_studio,,gym,False,discovered,2026-06-03T22:00:00Z
osm_overpass,osm_42.99226_10.51233,scuola vela FIV,,,altro,42.9922588,10.5123327,,,gym,,gym,False,discovered,2026-06-03T22:00:00Z
osm_overpass,osm_45.81141_9.40192,Pratogrande,,,altro,45.8114101,9.4019181,,,gym,,gym,False,discovered,2026-06-03T22:00:00Z
osm_overpass,osm_43.84946_10.35481,Stadio,,,altro,43.8494603,10.3548062,,,gym,,gym,False,discovered,2026-06-03T22:00:00Z
osm_overpass,osm_44.89307_9.29917,Campo di calcio,,,altro,44.8930687,9.2991694,,,gym,,gym,False,discovered,2026-06-03T22:00:00Z
osm_overpass,osm_43.85404_7.96394,Palestra Gym Power,,"Via Vignasse, 18017, San Lorenzo al Mare",San Lorenzo al Mare,43.8540384,7.9639419,,,gym,,gym,False,discovered,2026-06-03T22:00:00Z
osm_overpass,osm_44.56885_8.94976,Tennis Club Busalla,,,altro,44.5688549,8.9497617,,,gym,,gym,False,discovered,2026-06-03T22:00:00Z
osm_overpass,osm_43.85785_10.34964,Play & Jump,,,altro,43.8578506,10.3496358,,,gym,,gym,False,discovered,2026-06-03T22:00:00Z
osm_overpass,osm_45.6218_11.45319,Impianti sportivi Vallorcola,,,altro,45.6218017,11.4531917,,,gym,,gym,False,discovered,2026-06-03T22:00:00Z
osm_overpass,osm_45.4602_7.87261,Performa Fitness Center,http://www.centroperforma.com,"Via Giuseppe Di Vittorio, 10015, Ivrea",Ivrea,45.4602007,7.8726119,+39 0125 627338,,gym,,gym,False,discovered,2026-06-03T22:00:00Z
osm_overpass,osm_46.42791_12.37394,Tennis Club Tiziano,www.tennisclubtiziano.it,"Piazzale Martiri della Libertà, 32044",altro,46.4279124,12.3739425,,,gym,,gym,False,discovered,2026-06-03T22:00:00Z
osm_overpass,osm_45.46871_11.12924,Nettuno Sporting Club,,"Via Venturi, 37030",altro,45.4687095,11.1292373,,,gym,,gym,False,discovered,2026-06-03T22:00:00Z
osm_overpass,osm_44.60039_10.70651,Palestra Dinamica,,,altro,44.6003949,10.7065108,,,gym,,gym,False,discovered,2026-06-03T22:00:00Z
osm_overpass,osm_45.31482_8.43432,Palestra Planet Body,,,altro,45.3148159,8.4343227,,,gym,,gym,False,discovered,2026-06-03T22:00:00Z
osm_overpass,osm_45.60027_13.82763,Centro Ippico Monte d'Oro - Konjeniški Center Dolga Krona,,,altro,45.6002748,13.8276284,,,gym,,gym,False,discovered,2026-06-03T22:00:00Z
osm_overpass,osm_45.35422_12.09764,Newgym Wellness Center,,"Piazza Giacomo Matteotti, 30010, Campagna Lupia",Campagna Lupia,45.354225,12.0976426,,,wellness_center,,gym,False,discovered,2026-06-03T22:00:00Z
osm_overpass,osm_45.33267_7.72206,Palestra Ibis,,,altro,45.3326676,7.7220557,,,gym,,gym,False,discovered,2026-06-03T22:00:00Z
osm_overpass,osm_43.25029_13.51187,"Palestra Dojo Kenshiro Abbe - Gruppo Marche, Judo Ginnastica Danza",https://www.corradocrocerijudo.com/,"Via Santa Chiara, 62014, Corridonia",Corridonia,43.2502885,13.5118663,+39 0733 431350,,martial_arts,,gym,False,discovered,2026-06-03T22:00:00Z
osm_overpass,osm_44.96936_7.3052,Rocca Sbarua - Torrione del bimbo,,,altro,44.9693592,7.3052012,,,climbing_gym,,gym,False,discovered,2026-06-03T22:00:00Z
osm_overpass,osm_44.41681_8.86845,U.S. Federico Ozanam,,,altro,44.4168086,8.8684514,,,gym,,gym,False,discovered,2026-06-03T22:00:00Z
osm_overpass,osm_44.77614_7.04153,Parete del Prà,,,altro,44.7761391,7.0415281,,,climbing_gym,,gym,False,discovered,2026-06-03T22:00:00Z
osm_overpass,osm_45.0598_7.68454,wod hub,,,Torino,45.0598047,7.6845356,,,gym,,gym,False,discovered,2026-06-03T22:00:00Z
osm_overpass,osm_44.41843_8.87338,Hobby Gym,,,altro,44.41843,8.87338,,,gym,,gym,False,discovered,2026-06-03T22:00:00Z
osm_overpass,osm_41.63818_12.90854,Palazzetto dello Sport,,,altro,41.6381834,12.9085419,,,gym,,gym,False,discovered,2026-06-03T22:00:00Z
osm_overpass,osm_45.31225_7.74002,Gym Tonic,,,altro,45.3122468,7.7400175,,,gym,,gym,False,discovered,2026-06-03T22:00:00Z
osm_overpass,osm_44.38431_9.03348,Canoa Verde,,,altro,44.3843126,9.03348,,,gym,,gym,False,discovered,2026-06-03T22:00:00Z
osm_overpass,osm_40.19884_18.28799,Campo Comunale Martano,,,altro,40.198838,18.2879887,,,gym,,gym,False,discovered,2026-06-03T22:00:00Z
osm_overpass,osm_45.43409_9.09035,Fit-Star,,,Milano,45.434094,9.0903543,,,gym,,gym,False,discovered,2026-06-03T22:00:00Z
osm_overpass,osm_40.7033_17.33152,La Palestra,,,altro,40.7033021,17.3315154,,,gym,,gym,False,discovered,2026-06-03T22:00:00Z
osm_overpass,osm_44.20754_8.34544,Gola dei Briganti inferiore,,,altro,44.2075359,8.3454377,,,climbing_gym,,gym,False,discovered,2026-06-03T22:00:00Z
osm_overpass,osm_44.20761_8.34217,Falesia del Delfino,,,altro,44.2076093,8.342169,,,climbing_gym,,gym,False,discovered,2026-06-03T22:00:00Z
osm_overpass,osm_44.20783_8.34281,Falesia del Gufo,,,altro,44.2078325,8.3428117,,,climbing_gym,,gym,False,discovered,2026-06-03T22:00:00Z
osm_overpass,osm_38.00722_12.54088,Locomotiva,,,altro,38.0072215,12.5408836,,,gym,,gym,False,discovered,2026-06-03T22:00:00Z
osm_overpass,osm_38.00816_12.56936,forese,,,altro,38.0081571,12.5693624,,,gym,,gym,False,discovered,2026-06-03T22:00:00Z
osm_overpass,osm_43.668_10.59089,Valdera Wellness,,"Via Fermi, 56012",altro,43.6679978,10.5908872,,,wellness_center,,gym,False,discovered,2026-06-03T22:00:00Z
osm_overpass,osm_42.60079_12.62584,Falesia Madonna dell'Ulivo,,,altro,42.600791,12.6258399,,,climbing_gym,,gym,False,discovered,2026-06-03T22:00:00Z
osm_overpass,osm_41.96198_12.75799,Hobbyson,,,altro,41.9619767,12.7579876,,,gym,,gym,False,discovered,2026-06-03T22:00:00Z
osm_overpass,osm_41.19787_16.59805,Pentathlon,,,altro,41.1978747,16.5980548,,,gym,,gym,False,discovered,2026-06-03T22:00:00Z
osm_overpass,osm_45.78243_11.90849,Palestra,,,altro,45.7824326,11.9084879,,,gym,,gym,False,discovered,2026-06-03T22:00:00Z
osm_overpass,osm_41.82151_12.97709,C.T. La Signoretta,http://www.genazzanotenniscamp.com/,,altro,41.8215119,12.97709,+39 06 9578891,,gym,,gym,False,discovered,2026-06-03T22:00:00Z
osm_overpass,osm_45.16044_8.09596,Cycling Team Verrua,http://www.cyclingteamverrua.com,,altro,45.1604424,8.0959582,,,gym,,gym,False,discovered,2026-06-03T22:00:00Z
osm_overpass,osm_40.84071_14.36793,Tennis Club Canterbury,,,altro,40.8407056,14.3679304,,,gym,,gym,False,discovered,2026-06-03T22:00:00Z
osm_overpass,osm_43.79041_11.22826,Virgin Active,,,Firenze,43.790411,11.2282556,,Virgin Active,gym,,gym,False,discovered,2026-06-03T22:00:00Z
osm_overpass,osm_45.47064_10.85052,Anytime fitness,,"Piazzale Vittorio Veneto, 37012, Bussolengo",Bussolengo,45.470637,10.8505217,,Anytime Fitness,gym,,gym,False,discovered,2026-06-03T22:00:00Z
osm_overpass,osm_44.83315_8.05961,Centro Sportivo,,,altro,44.8331536,8.0596096,,,gym,,gym,False,discovered,2026-06-03T22:00:00Z
osm_overpass,osm_46.80207_11.92813,Fitnesscenter BodyTec,,"Rienzfeldstraße, 39031, Bruneck - Brunico",Bruneck - Brunico,46.8020718,11.92813,+39 0474 411292,,gym,,gym,False,discovered,2026-06-03T22:00:00Z
osm_overpass,osm_45.43486_9.09736,Virgin Active,,,Milano,45.434864,9.0973631,,Virgin Active,gym,,gym,False,discovered,2026-06-03T22:00:00Z
osm_overpass,osm_45.65675_13.78617,Danza10,http://www.danzadieci.org/,"Via del Monte Cengio, 34127, Trieste",Trieste,45.656755,13.7861657,+39 040 576240,,gym,,gym,False,discovered,2026-06-03T22:00:00Z
osm_overpass,osm_44.99839_9.00465,Dopolavoro Ferroviario Voghera,,,altro,44.9983859,9.0046503,,,gym,,gym,False,discovered,2026-06-03T22:00:00Z
osm_overpass,osm_42.03165_12.6627,Mezzaluna,,,altro,42.0316518,12.6626956,,,gym,,gym,False,discovered,2026-06-03T22:00:00Z
osm_overpass,osm_45.7092_8.51965,A.S.D. Polisportiva Atlantide Gym,,,altro,45.709196,8.5196516,,,gym,,gym,False,discovered,2026-06-03T22:00:00Z
osm_overpass,osm_41.16819_15.17241,Campo volo Paramotor,,,altro,41.1681892,15.1724084,,,gym,,gym,False,discovered,2026-06-03T22:00:00Z
osm_overpass,osm_41.22999_15.26529,Decollo Deltaplani e Parapendio,,,altro,41.2299922,15.2652884,,,gym,,gym,False,discovered,2026-06-03T22:00:00Z
osm_overpass,osm_41.52668_15.90425,Campo volo,,,altro,41.5266847,15.9042542,,,gym,,gym,False,discovered,2026-06-03T22:00:00Z
osm_overpass,osm_43.53819_11.31567,campo sportivo di Panzano,,,altro,43.538193,11.3156672,,,gym,,gym,False,discovered,2026-06-03T22:00:00Z
osm_overpass,osm_44.36203_11.72573,Oficina do Corpo,https://www.italianfitnessschool.it/,,altro,44.3620261,11.7257307,,,gym,,gym,False,discovered,2026-06-03T22:00:00Z
osm_overpass,osm_45.41503_9.27044,Judo Club,,"Piazza Carlo Alberto Dalla Chiesa, 20097, San Donato Milanese",San Donato Milanese,45.4150276,9.2704353,,,martial_arts,,gym,False,discovered,2026-06-03T22:00:00Z
osm_overpass,osm_41.88373_12.5088,Istituto Yoga Universale,,"Largo Magnagrecia, 00183, Roma",Roma,41.8837333,12.5088047,+39 06 70454370,,yoga_studio,,gym,False,discovered,2026-06-03T22:00:00Z
osm_overpass,osm_40.89594_15.36529,Decollo volo libero,,,altro,40.8959361,15.3652882,,,gym,,gym,False,discovered,2026-06-03T22:00:00Z
osm_overpass,osm_41.11874_14.97898,Decollo volo libero,,,altro,41.1187369,14.9789758,,,gym,,gym,False,discovered,2026-06-03T22:00:00Z
osm_overpass,osm_41.12921_14.9728,Decollo volo libero,,,altro,41.129211,14.972796,,,gym,,gym,False,discovered,2026-06-03T22:00:00Z
osm_overpass,osm_41.13551_14.99189,Volo libero atterraggio,,,altro,41.1355141,14.9918933,,,gym,,gym,False,discovered,2026-06-03T22:00:00Z
osm_overpass,osm_41.64268_15.8949,Impianti Sportivi Salvemini,,,altro,41.6426769,15.8948967,,,gym,,gym,False,discovered,2026-06-03T22:00:00Z
osm_overpass,osm_45.89_11.02958,PlasticRock,,,altro,45.8900047,11.029582,,,gym,,gym,False,discovered,2026-06-03T22:00:00Z
osm_overpass,osm_44.03016_10.11488,Campo Scuola di Massa,,,altro,44.0301589,10.1148837,,,gym,,gym,False,discovered,2026-06-03T22:00:00Z
osm_overpass,osm_45.62948_10.81155,Falesia Sengietto,,,altro,45.6294791,10.8115547,,,climbing_gym,,gym,False,discovered,2026-06-03T22:00:00Z
osm_overpass,osm_45.62892_10.8087,Falesia Sengio Rosso,,,altro,45.6289187,10.8087049,,,climbing_gym,,gym,False,discovered,2026-06-03T22:00:00Z
osm_overpass,osm_45.78499_12.12443,Palestra,,,altro,45.7849875,12.1244283,,,gym,,gym,False,discovered,2026-06-03T22:00:00Z
osm_overpass,osm_45.78386_12.12765,Tennis Club,,,altro,45.7838601,12.1276535,,,gym,,gym,False,discovered,2026-06-03T22:00:00Z
osm_overpass,osm_45.78014_12.07167,Palestra di Caonada,,,altro,45.7801391,12.0716692,,,gym,,gym,False,discovered,2026-06-03T22:00:00Z
osm_overpass,osm_40.17084_18.16506,Family Sport,,,altro,40.170838,18.1650574,,,gym,,gym,False,discovered,2026-06-03T22:00:00Z
osm_overpass,osm_41.6127_15.89454,Impianti Sportivi Gatterman,,,altro,41.6126995,15.8945422,,,gym,,gym,False,discovered,2026-06-03T22:00:00Z
osm_overpass,osm_41.1309_16.52022,Italia 90,,,altro,41.1308965,16.5202184,,,gym,,gym,False,discovered,2026-06-03T22:00:00Z
osm_overpass,osm_41.64133_15.92715,Scuola di Danza Mary J Style,,"Via Gargano, 71043, Manfredonia",Manfredonia,41.6413264,15.9271484,,,gym,,gym,False,discovered,2026-06-03T22:00:00Z
osm_overpass,osm_44.34854_11.69968,Palestra Brusa S. Zennaro,,,altro,44.3485372,11.6996773,,,climbing_gym,,gym,False,discovered,2026-06-03T22:00:00Z
osm_overpass,osm_44.37473_11.72289,Equilibrio,,"Via Primo Maggio, 40026, Imola",Imola,44.3747323,11.7228885,,,gym,,gym,False,discovered,2026-06-03T22:00:00Z
osm_overpass,osm_44.32741_11.7887,Volere é Potere A.S.D.,,"Via dell'Industria, 48014",altro,44.3274133,11.7886988,,,gym,,gym,False,discovered,2026-06-03T22:00:00Z
osm_overpass,osm_42.57058_12.62828,Centro Moveo,,"Via del Sersimone, 05100, Terni",Terni,42.5705802,12.6282773,,,gym,,gym,False,discovered,2026-06-03T22:00:00Z
osm_overpass,osm_37.48761_14.04645,Bocciodromo comunale,,,altro,37.4876121,14.046455,,,gym,,gym,False,discovered,2026-06-03T22:00:00Z
osm_overpass,osm_44.40746_8.92712,Palestra Mandraccio,,Calata Mandraccio,altro,44.4074566,8.9271206,,,gym,,gym,False,discovered,2026-06-03T22:00:00Z
osm_overpass,osm_42.33713_12.30127,Centro Sportivo,,,altro,42.3371293,12.3012725,,,gym,,gym,False,discovered,2026-06-03T22:00:00Z
osm_overpass,osm_39.89135_18.13346,Pista Salentina,https://www.pistasalentina.it/,,altro,39.89135,18.1334575,,,gym,,gym,False,discovered,2026-06-03T22:00:00Z
osm_overpass,osm_46.02794_10.94601,Campfour Boulder,,,altro,46.0279392,10.9460088,,,climbing_gym,,gym,False,discovered,2026-06-03T22:00:00Z
osm_overpass,osm_41.81711_12.9402,Campo Sportivo Luigi Ariola,,,altro,41.8171052,12.9402021,,,gym,,gym,False,discovered,2026-06-03T22:00:00Z
osm_overpass,osm_46.02799_10.96993,Falesia S.Siro,,,altro,46.0279922,10.9699262,,,climbing_gym,,gym,False,discovered,2026-06-03T22:00:00Z
osm_overpass,osm_42.70539_12.88437,gavelli settore a,,,altro,42.7053902,12.8843749,,,climbing_gym,,gym,False,discovered,2026-06-03T22:00:00Z
osm_overpass,osm_42.70627_12.88347,gavelli settore b,,,altro,42.7062688,12.8834698,,,climbing_gym,,gym,False,discovered,2026-06-03T22:00:00Z
osm_overpass,osm_45.4924_8.72582,Circolo Ippico La Robinia,,,altro,45.492404,8.7258219,,,gym,,gym,False,discovered,2026-06-03T22:00:00Z
osm_overpass,osm_40.87443_14.13758,palestra,,,altro,40.8744292,14.1375842,,,gym,,gym,False,discovered,2026-06-03T22:00:00Z
osm_overpass,osm_41.04836_15.79758,Palestra Bios,,,altro,41.04836,15.7975824,,,gym,,gym,False,discovered,2026-06-03T22:00:00Z
osm_overpass,osm_46.76849_12.02526,Fußballplatz Olang,,,altro,46.7684861,12.0252634,,,gym,,gym,False,discovered,2026-06-03T22:00:00Z
osm_overpass,osm_45.34669_10.88149,Circolo NOI Il Gabbiano,,"Piazza IV Novembre, 37064, Povegliano Veronese",Povegliano Veronese,45.3466915,10.8814914,,,gym,,gym,False,discovered,2026-06-03T22:00:00Z
osm_overpass,osm_45.34825_10.8856,Palestra Scuole Medie,,,altro,45.3482474,10.8856042,,,gym,,gym,False,discovered,2026-06-03T22:00:00Z
osm_overpass,osm_42.73009_12.31048,Falesia Gola del Forello,,,altro,42.7300908,12.3104822,,,climbing_gym,,gym,False,discovered,2026-06-03T22:00:00Z
osm_overpass,osm_42.51772_14.14632,Fisicoidea,,,altro,42.5177186,14.1463239,,,gym,,gym,False,discovered,2026-06-03T22:00:00Z
osm_overpass,osm_45.78273_11.76617,Jaco Sport Center,,"Via Benedetto Marcello, 36060, Romano d’Ezzelino",Romano d’Ezzelino,45.7827339,11.7661711,+39 389 049 3972,,gym,,gym,False,discovered,2026-06-03T22:00:00Z
osm_overpass,osm_44.68922_10.96675,"Palestra parrocchiale ""Franco Ferrari""",,,altro,44.6892209,10.9667473,,,gym,,gym,False,discovered,2026-06-03T22:00:00Z
osm_overpass,osm_44.68701_10.96493,Palestra comunale di Albareto,,,altro,44.6870051,10.9649288,,,gym,,gym,False,discovered,2026-06-03T22:00:00Z
osm_overpass,osm_45.58516_10.69601,Falesia Di Garda Alta,,,altro,45.585157,10.696011,,,climbing_gym,,gym,False,discovered,2026-06-03T22:00:00Z
osm_overpass,osm_46.63112_11.54061,Sporthaus Villanders,,"J.Schguaninstraße, 39040",altro,46.6311165,11.5406085,,,gym,,gym,False,discovered,2026-06-03T22:00:00Z
osm_overpass,osm_44.21101_8.33816,Ciappo delle Conche - Sett superiore,,,altro,44.211009,8.3381597,,,climbing_gym,,gym,False,discovered,2026-06-03T22:00:00Z
osm_overpass,osm_39.85215_18.23587,"Località ""LI FANI"" MTB e Motocross",,,altro,39.8521507,18.2358705,,,gym,,gym,False,discovered,2026-06-03T22:00:00Z
osm_overpass,osm_44.27992_11.89519,Palestra Carchidio Strocchi,,"Via Zauli Naldi, 48018",altro,44.279922,11.8951944,,,gym,,gym,False,discovered,2026-06-03T22:00:00Z
osm_overpass,osm_44.28081_11.88866,Palestra Lucchesi,,"Piazzale Golinelli, 48018, Faenza",Faenza,44.280814,11.8886551,,,gym,,gym,False,discovered,2026-06-03T22:00:00Z
osm_overpass,osm_45.1126_8.66607,Parco giochi comunale Mike Bongiorno,,,altro,45.1126026,8.6660746,,,gym,,gym,False,discovered,2026-06-03T22:00:00Z
osm_overpass,osm_41.22315_15.38258,Piscina Comunale,,,altro,41.2231533,15.382577,,,pool,,gym,False,discovered,2026-06-03T22:00:00Z
osm_overpass,osm_37.30644_13.58313,Kokko Fitness Club,,,altro,37.3064386,13.583125,,,gym,,gym,False,discovered,2026-06-03T22:00:00Z
osm_overpass,osm_45.58404_10.69471,Falesia Di Garda,,,altro,45.5840444,10.6947081,,,climbing_gym,,gym,False,discovered,2026-06-03T22:00:00Z
osm_overpass,osm_46.15968_11.14312,A.S.D. US Montecorona,,,altro,46.1596792,11.1431236,,,gym,,gym,False,discovered,2026-06-03T22:00:00Z
osm_overpass,osm_43.92405_11.09401,Falesia di Figline,https://www.caiprato.it/archivi-doc/relazioni-vie/falesie-di-arrampicata/falesia-di-figline/,,altro,43.9240506,11.0940055,,,climbing_gym,,gym,False,discovered,2026-06-03T22:00:00Z
osm_overpass,osm_45.62947_7.97392,Parco Avventura Funivie Oropa,,,altro,45.629471,7.9739211,,,climbing_gym,,gym,False,discovered,2026-06-03T22:00:00Z
osm_overpass,osm_43.2465_11.22455,Palestra Fitness Point,,,altro,43.2465015,11.224551,,,gym,,gym,False,discovered,2026-06-03T22:00:00Z
osm_overpass,osm_44.82748_11.61393,Palestra Polisportiva Putinati,,,altro,44.8274751,11.6139341,,,gym,,gym,False,discovered,2026-06-03T22:00:00Z
osm_overpass,osm_44.82403_11.61162,Palestra New Life Center,,,altro,44.8240287,11.6116158,,,gym,,gym,False,discovered,2026-06-03T22:00:00Z
osm_overpass,osm_44.81908_11.62859,Palestra Dynamic Club,,,altro,44.8190784,11.6285861,,,gym,,gym,False,discovered,2026-06-03T22:00:00Z
osm_overpass,osm_45.31539_9.2065,Centro sportivo comunale di Siziano,,,altro,45.3153911,9.2064998,,,gym,,gym,False,discovered,2026-06-03T22:00:00Z
osm_overpass,osm_45.31905_9.19911,Campo Sportivo,,,altro,45.3190501,9.1991077,,,gym,,gym,False,discovered,2026-06-03T22:00:00Z
osm_overpass,osm_45.48234_9.1677,Eisho Sporting Club,http://www.eishoclub.it,"Via Piero della Francesca, 20154, Milano",Milano,45.4823432,9.1677013,,,martial_arts,,gym,False,discovered,2026-06-03T22:00:00Z
osm_overpass,osm_43.62172_11.47218,Basket Don Bosco Figline,,,altro,43.6217152,11.4721769,,,gym,,gym,False,discovered,2026-06-03T22:00:00Z
osm_overpass,osm_44.82709_11.60487,"Palestra Pugilistica ""Amici del pugilato estense""",,,altro,44.8270883,11.60487,,,gym,,gym,False,discovered,2026-06-03T22:00:00Z
osm_overpass,osm_46.13855_11.11304,Centro DOMS,,"Via Fabio Filzi, 38015, Lavis",Lavis,46.138546,11.1130433,,,gym,,gym,False,discovered,2026-06-03T22:00:00Z
osm_overpass,osm_41.70426_12.66132,Vallericcia,,,altro,41.7042567,12.6613242,,,gym,,gym,False,discovered,2026-06-03T22:00:00Z
osm_overpass,osm_45.65502_11.40156,Piscina Comunale,,,altro,45.6550153,11.4015631,,,pool,,gym,False,discovered,2026-06-03T22:00:00Z
osm_overpass,osm_41.50626_15.33147,Naky Sport (chiusa definitivamente),,,altro,41.506259,15.3314707,,,gym,,gym,False,discovered,2026-06-03T22:00:00Z
osm_overpass,osm_45.55143_10.72431,Sail Tribe,,"Via Europa Unita, 37011, Bardolino",Bardolino,45.5514268,10.7243085,,,gym,,gym,False,discovered,2026-06-03T22:00:00Z
osm_overpass,osm_45.46496_9.19566,Skorpion,,"Corso Vittorio Emanuele Secondo, 20122, Milano",Milano,45.4649628,9.1956599,,,gym,,gym,False,discovered,2026-06-03T22:00:00Z
osm_overpass,osm_44.15055_12.2431,StreetWall,,"Via Alfonsine, 47521, Cesena",Cesena,44.150546,12.2431013,,,climbing_gym,,gym,False,discovered,2026-06-03T22:00:00Z
osm_overpass,osm_44.1506_12.26087,Sabbione Frutipapalina Sport Arena,http://www.sabbione.it,"Piazzale Enrico Berlinguer, 47521, Cesena",Cesena,44.1506036,12.2608659,,,gym,,gym,False,discovered,2026-06-03T22:00:00Z
osm_overpass,osm_46.81501_11.24291,Sportplatz St. Leonhard,,,altro,46.8150138,11.2429087,,,gym,,gym,False,discovered,2026-06-03T22:00:00Z
osm_overpass,osm_45.55486_9.21663,Sporting Club Palestra,,,altro,45.5548624,9.2166341,,,gym,,gym,False,discovered,2026-06-03T22:00:00Z
osm_overpass,osm_44.43297_8.80751,Sporting Club Pegli2,,,altro,44.4329747,8.8075125,,,gym,,gym,False,discovered,2026-06-03T22:00:00Z
osm_overpass,osm_45.85994_9.44411,Falesia Parete Stoppani,,,altro,45.8599368,9.4441134,,,climbing_gym,,gym,False,discovered,2026-06-03T22:00:00Z
osm_overpass,osm_44.42764_8.77476,Centro Polifunzionale Palmaro,,,altro,44.4276413,8.7747635,,,gym,,gym,False,discovered,2026-06-03T22:00:00Z
osm_overpass,osm_46.55216_12.85289,Associazione Piani di Vas,,,altro,46.5521553,12.8528871,,,gym,,gym,False,discovered,2026-06-03T22:00:00Z
osm_overpass,osm_45.92918_10.90258,Policromuro,,,altro,45.9291847,10.9025846,,,climbing_gym,,gym,False,discovered,2026-06-03T22:00:00Z
osm_overpass,osm_44.37864_11.79997,Circolo Tennis Spadoni,,"Via Lughese, 40026, Imola",Imola,44.3786408,11.7999714,,,wellness_center,,gym,False,discovered,2026-06-03T22:00:00Z
osm_overpass,osm_43.75834_11.21195,KLAB Marignolle,https://www.klab.it/,,Firenze,43.7583361,11.2119453,,,gym,,gym,False,discovered,2026-06-03T22:00:00Z
osm_overpass,osm_45.46561_9.1934,Prime Milano Duomo,https://www.primefitness.it/club/milano-duomo/,,Milano,45.4656146,9.1934007,,,gym,,gym,False,discovered,2026-06-03T22:00:00Z
osm_overpass,osm_37.35027_13.55822,ATENEA Soccer Club,,,altro,37.3502721,13.5582212,,,gym,,gym,False,discovered,2026-06-03T22:00:00Z
osm_overpass,osm_44.21351_8.35107,Sasso Scorpion,,,altro,44.2135114,8.3510692,,,climbing_gym,,gym,False,discovered,2026-06-03T22:00:00Z
osm_overpass,osm_44.2142_8.35145,il Pilastro,,,altro,44.2142025,8.351447,,,climbing_gym,,gym,False,discovered,2026-06-03T22:00:00Z
osm_overpass,osm_43.86031_10.49857,"Centro Sportivo ""Le Madonne Bianche""",,,altro,43.8603138,10.4985713,,,gym,,gym,False,discovered,2026-06-03T22:00:00Z
osm_overpass,osm_43.47818_12.69184,Comprensorio sciistico Monte Catria-Acuto,,,altro,43.4781814,12.6918421,,,gym,,gym,False,discovered,2026-06-03T22:00:00Z
osm_overpass,osm_41.19336_9.31919,Windsurfing,,,altro,41.1933551,9.3191865,,,gym,,gym,False,discovered,2026-06-03T22:00:00Z
osm_overpass,osm_45.32191_8.43247,New Gold Gym,https://www.newgoldgym.com/,"Via Vinzaglio, 13100, Vercelli",Vercelli,45.321907,8.432473,,,gym,,gym,False,discovered,2026-06-03T22:00:00Z
osm_overpass,osm_44.2144_8.33315,Settore della Caverna,,,altro,44.2144007,8.3331513,,,climbing_gym,,gym,False,discovered,2026-06-03T22:00:00Z
osm_overpass,osm_45.46204_9.1895,Virgin Active,,"Piazza Armando Diaz, 20122, Milano",Milano,45.462038,9.1894971,,Virgin Active,gym,,gym,False,discovered,2026-06-03T22:00:00Z
osm_overpass,osm_45.46252_9.18788,City Club,https://www.7cityclub.it/,"Via Falcone, 20123, Milano",Milano,45.4625169,9.1878753,+390245373880,,gym,,gym,False,discovered,2026-06-03T22:00:00Z
osm_overpass,osm_39.49985_16.38139,"Palasport ""Città di Acri""",,"Via Salvatore Scervini, 87041, Acri",Acri,39.4998515,16.3813912,,,gym,,gym,False,discovered,2026-06-03T22:00:00Z
osm_overpass,osm_39.49903_16.3814,Bocciodromo comunale,,,altro,39.4990319,16.3814019,,,gym,,gym,False,discovered,2026-06-03T22:00:00Z
osm_overpass,osm_45.91693_12.85744,Palazzetto Oratorio,,,altro,45.9169286,12.8574402,,,gym,,gym,False,discovered,2026-06-03T22:00:00Z
osm_overpass,osm_45.95756_8.87084,Water Park,,,altro,45.9575551,8.8708399,,,gym,,gym,False,discovered,2026-06-03T22:00:00Z
osm_overpass,osm_43.79158_11.24962,AYFI Ashtanga Yoga Firenze,,"Via Giovanni Fabbroni, 50134, Firenze",Firenze,43.7915755,11.2496176,,,yoga_studio,,gym,False,discovered,2026-06-03T22:00:00Z
osm_overpass,osm_45.27442_9.2541,Automotive Safety Center,https://www.pista-asc.it/,,altro,45.2744235,9.2540988,,,gym,,gym,False,discovered,2026-06-03T22:00:00Z
osm_overpass,osm_44.97696_7.70721,Virgin Active,https://www.virginactive.it/,"Via Postiglione, 10024, Moncalieri",Moncalieri,44.9769553,7.7072053,+39 800 914555,Virgin Active,gym,,gym,False,discovered,2026-06-03T22:00:00Z
osm_overpass,osm_38.57249_16.32491,"Stadio Comunale ""La Quercia""",,"Viale Aldo Moro, 89822, Serra San Bruno",Serra San Bruno,38.5724869,16.3249103,,,gym,,gym,False,discovered,2026-06-03T22:00:00Z
osm_overpass,osm_46.16891_11.08717,Centro sportivo Nave San Rocco,,"Località Strada Alta, 38010",altro,46.1689058,11.0871736,,,gym,,gym,False,discovered,2026-06-03T22:00:00Z
osm_overpass,osm_45.61911_9.28264,Autodromo Nazionale di Monza,https://www.monzanet.it/,"Viale Vedano, 20900, Monza",Monza,45.6191059,9.282641,,,gym,,gym,False,discovered,2026-06-03T22:00:00Z
osm_overpass,osm_45.70087_8.51031,Centro Arcieristico Altana del Motto Rosso,,"Località Motto Rosso, 28013, Gattico-Veruno",Gattico-Veruno,45.7008706,8.5103139,+39 3356124797,,gym,,gym,False,discovered,2026-06-03T22:00:00Z
osm_overpass,osm_45.87405_9.12255,Falesia di Carate,,,altro,45.8740522,9.1225547,,,climbing_gym,,gym,False,discovered,2026-06-03T22:00:00Z
osm_overpass,osm_46.39717_11.23465,Hochseilgarten Kaltern - Parco Avventura Caldaro,https://www.abenteuerpark.it/,,altro,46.3971725,11.2346516,+393478010960,,climbing_gym,,gym,False,discovered,2026-06-03T22:00:00Z
osm_overpass,osm_45.4242_10.78468,Polisportiva San Giorgio,,,altro,45.4241994,10.7846785,,,gym,,gym,False,discovered,2026-06-03T22:00:00Z
osm_overpass,osm_45.82842_11.84134,Centro Sportivo Parrocchiale,,,altro,45.8284163,11.8413442,,,gym,,gym,False,discovered,2026-06-03T22:00:00Z
osm_overpass,osm_44.34747_7.50265,Bowling Queentouch,http://www.queentouch.it/,Via Fratelli Rosselli,altro,44.3474737,7.5026487,+39 0171 261764,,gym,,gym,False,discovered,2026-06-03T22:00:00Z
osm_overpass,osm_45.36787_8.16771,Twentyfit,,"Corso Santo Ignazio da Santhià, 13048, Santhià",Santhià,45.367865,8.1677109,+39 388 7975691,,gym,,gym,False,discovered,2026-06-03T22:00:00Z
osm_overpass,osm_45.48272_9.17967,20Hours & Best Price,,,Milano,45.4827154,9.1796741,,,gym,,gym,False,discovered,2026-06-03T22:00:00Z
osm_overpass,osm_43.52126_10.31672,Villa Letizia,,,altro,43.5212626,10.3167175,,,gym,,gym,False,discovered,2026-06-03T22:00:00Z
osm_overpass,osm_45.86111_9.43876,Falesia Erna,,,altro,45.8611113,9.4387581,,,climbing_gym,,gym,False,discovered,2026-06-03T22:00:00Z
osm_overpass,osm_45.89376_9.43096,Falesia Le Torrette,,,altro,45.893762,9.4309582,,,climbing_gym,,gym,False,discovered,2026-06-03T22:00:00Z
osm_overpass,osm_45.58221_9.28634,Judo Club Ronin,http://www.roninmonza.it/,"Via Gerolamo Savonarola, 20900, Monza",Monza,45.5822062,9.2863409,,,martial_arts,,gym,False,discovered,2026-06-03T22:00:00Z
osm_overpass,osm_46.0917_11.09176,Falesia della Vela - Settore B,,,altro,46.0917036,11.0917611,,,climbing_gym,,gym,False,discovered,2026-06-03T22:00:00Z
osm_overpass,osm_45.49089_9.19088,Tra cielo e terra,,,Milano,45.4908928,9.1908778,,,gym,,gym,False,discovered,2026-06-03T22:00:00Z
osm_overpass,osm_45.57782_9.26947,Palestra San Carlo,,"Via Venti Settembre, 20900, Monza",Monza,45.5778207,9.2694707,,,gym,,gym,False,discovered,2026-06-03T22:00:00Z
osm_overpass,osm_45.81123_8.92034,Polisportiva intercomunale,,,altro,45.811228,8.9203427,,,gym,,gym,False,discovered,2026-06-03T22:00:00Z
osm_overpass,osm_45.52166_9.21558,Virgin Active,https://www.virginactive.it/centri_fitness/milano/bicocca,"Viale Sarca, 20126, Milano",Milano,45.5216623,9.2155777,+39 800 914 555,Virgin Active,gym,,gym,False,discovered,2026-06-03T22:00:00Z
osm_overpass,osm_45.58616_9.26932,Lady'n'move,http://www.ladynmove.it/,"Via Achille Varisco, 20900, Monza",Monza,45.5861629,9.2693228,+39 039 2247199,,gym,,gym,False,discovered,2026-06-03T22:00:00Z
osm_overpass,osm_45.58406_9.26484,Palestra Freesport,,"Via Moncenisio, 20900, Monza",Monza,45.5840588,9.2648354,+39 039 386397,,gym,,gym,False,discovered,2026-06-03T22:00:00Z
osm_overpass,osm_40.53871_17.44003,Palestra Gym for Healt,,"Via Platone, 74023, Grottaglie",Grottaglie,40.5387116,17.4400274,+39 340 699 5353,,gym,,gym,False,discovered,2026-06-03T22:00:00Z
osm_overpass,osm_45.2799_8.75108,Palestra Comunale,,,altro,45.2799044,8.7510818,,,gym,,gym,False,discovered,2026-06-03T22:00:00Z
osm_overpass,osm_44.91829_9.03128,"Campo Sportivo""E. De Martino""",,,altro,44.9182859,9.0312756,,,gym,,gym,False,discovered,2026-06-03T22:00:00Z
osm_overpass,osm_45.58602_9.28675,Mirtillo Club,http://www.mirtilloclub.it/,"Via Antonio Canova, 20900, Monza",Monza,45.5860216,9.2867481,+39 039 3900811,,gym,,gym,False,discovered,2026-06-03T22:00:00Z
osm_overpass,osm_46.5279_13.54648,Palestra della Val Bartolo - Camporosso,,,altro,46.5278976,13.5464768,,,climbing_gym,,gym,False,discovered,2026-06-03T22:00:00Z
osm_overpass,osm_45.57579_9.27924,Sport Village Monza,https://www.sportvillagemonza.it/,"Via Tommaso Campanella, 20900, Monza",Monza,45.5757938,9.2792365,+39 039 2912947,,gym,,gym,False,discovered,2026-06-03T22:00:00Z
osm_overpass,osm_45.58304_9.26576,Get Fit,,"Via Sempione, 20900, Monza",Monza,45.5830362,9.2657615,,,gym,,gym,False,discovered,2026-06-03T22:00:00Z
osm_overpass,osm_45.55464_11.54244,palestra boxe,,,altro,45.5546364,11.5424371,,,boxing_gym,,gym,False,discovered,2026-06-03T22:00:00Z
osm_overpass,osm_43.75433_11.19913,Piscina Comunale Scandicci,,,Firenze,43.7543321,11.1991335,,,pool,,gym,False,discovered,2026-06-03T22:00:00Z
osm_overpass,osm_45.48286_9.18691,Virgin Active,https://www.virginactive.it/club/milano-corso-como,"Corso Como, 20154, Milano",Milano,45.4828625,9.1869055,,Virgin Active,gym,,gym,False,discovered,2026-06-03T22:00:00Z
osm_overpass,osm_44.32619_11.78802,Danza & danza,,Via Martiri di Felisio,altro,44.3261902,11.788022,,,gym,,gym,False,discovered,2026-06-03T22:00:00Z
osm_overpass,osm_41.20375_16.58741,Centro ginnico Delta,,,altro,41.2037452,16.587413,,,gym,,gym,False,discovered,2026-06-03T22:00:00Z
osm_overpass,osm_45.44837_12.32839,Centro Sportivo Costantino Reyer,,30121,Venezia,45.4483695,12.3283863,,,gym,,gym,False,discovered,2026-06-03T22:00:00Z
osm_overpass,osm_45.48939_9.19469,You Fit,https://sportsmanclub.it/,"Via Ippolito Rosellini, 20124, Milano",Milano,45.4893909,9.1946921,,,gym,,gym,False,discovered,2026-06-03T22:00:00Z
osm_overpass,osm_45.48911_9.18618,Miele,http://news.mieleonline.it/sito/,"Via Luigi Porro Lambertenghi, 20159, Milano",Milano,45.4891126,9.1861786,,,gym,,gym,False,discovered,2026-06-03T22:00:00Z
osm_overpass,osm_45.8092_9.41831,Canoa Kajak 90 A.s.d.,,,altro,45.8092005,9.4183132,,,gym,,gym,False,discovered,2026-06-03T22:00:00Z
osm_overpass,osm_42.29255_12.40725,Palestra Comunale Pino Smargiassi,,,altro,42.2925501,12.4072544,,,gym,,gym,False,discovered,2026-06-03T22:00:00Z
osm_overpass,osm_39.07127_17.12992,Dolphin,,,altro,39.071267,17.1299217,,,gym,,gym,False,discovered,2026-06-03T22:00:00Z
osm_overpass,osm_39.06735_17.13013,Oxyde,,,altro,39.0673534,17.1301344,,,gym,,gym,False,discovered,2026-06-03T22:00:00Z
osm_overpass,osm_44.5336_10.82886,"Palestra ""Luisa Guidotti""",,"Via Tamigi, 41042, Fiorano Modenese",Fiorano Modenese,44.5335975,10.8288554,+39 0536 831123,,gym,,gym,False,discovered,2026-06-03T22:00:00Z
osm_overpass,osm_45.57814_9.26904,Palestra La Baita,https://www.palestralabaita.com/,"Via Solferino, 20900, Monza",Monza,45.5781423,9.2690356,+39 039 324262,,gym,,gym,False,discovered,2026-06-03T22:00:00Z
osm_overpass,osm_44.21308_8.35227,Avancorpo di Boragni,,,altro,44.2130838,8.3522693,,,climbing_gym,,gym,False,discovered,2026-06-03T22:00:00Z
osm_overpass,osm_44.2164_8.34701,Bastionata settore destro,,,altro,44.2163985,8.3470118,,,climbing_gym,,gym,False,discovered,2026-06-03T22:00:00Z
osm_overpass,osm_44.20873_8.33977,Bocca di Bacco,,,altro,44.2087261,8.3397696,,,climbing_gym,,gym,False,discovered,2026-06-03T22:00:00Z
osm_overpass,osm_44.20687_8.31659,Bric del Frate - settore Ovest,,,altro,44.2068663,8.3165856,,,climbing_gym,,gym,False,discovered,2026-06-03T22:00:00Z
osm_overpass,osm_44.21109_8.34489,Falesia del Guru,,,altro,44.211086,8.3448857,,,climbing_gym,,gym,False,discovered,2026-06-03T22:00:00Z
osm_overpass,osm_45.46471_9.16992,Centro Sportivo San Carlo,,"Via Bernardino Zenale, 20123, Milano",Milano,45.4647114,9.1699191,+390243063403/04/11/12,,gym,,gym,False,discovered,2026-06-03T22:00:00Z
osm_overpass,osm_40.66875_16.59804,Cloè,,Via Ferruccio Parri,altro,40.6687493,16.5980414,,,gym,,gym,False,discovered,2026-06-03T22:00:00Z
osm_overpass,osm_45.7594_11.0027,Active Gym,,,altro,45.7593968,11.0027011,,,gym,,gym,False,discovered,2026-06-03T22:00:00Z
osm_overpass,osm_45.75966_11.00753,Center Sport Ala Vivaldi,,,altro,45.7596591,11.0075254,,,gym,,gym,False,discovered,2026-06-03T22:00:00Z
osm_overpass,osm_44.53158_10.83322,Athletic Club Snc,,"Via Ghiarella, 41042, Fiorano Modenese",Fiorano Modenese,44.5315825,10.833221,,,gym,,gym,False,discovered,2026-06-03T22:00:00Z
osm_overpass,osm_45.66173_8.7934,Life Village,,"Via Venti Settembre, 21013, Gallarate",Gallarate,45.6617254,8.793405,+39 0331 1852014,,gym,,gym,False,discovered,2026-06-03T22:00:00Z
osm_overpass,osm_44.5039_11.40405,UP Urban Climbing,https://www.upurbanclimbing.it/,,Bologna,44.5038973,11.4040502,+39 0514122365,,climbing_gym,,gym,False,discovered,2026-06-03T22:00:00Z
osm_overpass,osm_44.39672_8.99721,Palestra TNT,,,altro,44.3967185,8.997209,,,gym,,gym,False,discovered,2026-06-03T22:00:00Z
osm_overpass,osm_40.66863_16.59441,Palestra del Campo Scuola,,,altro,40.6686254,16.5944125,,,gym,,gym,False,discovered,2026-06-03T22:00:00Z
osm_overpass,osm_45.22849_8.46146,Associazione Nuoto Stroppianese,,,altro,45.228488,8.4614601,,,gym,,gym,False,discovered,2026-06-03T22:00:00Z
osm_overpass,osm_44.28844_11.87703,Lotofit,https://www.lotofit.it/,Corso Giuseppe Mazzini,altro,44.2884399,11.8770329,,,gym,,gym,False,discovered,2026-06-03T22:00:00Z
osm_overpass,osm_45.65287_9.94936,Olimpic Climbing Sebino,,Via Giuseppe Garibaldi,altro,45.652868,9.9493575,,,climbing_gym,,gym,False,discovered,2026-06-03T22:00:00Z
osm_overpass,osm_46.09324_11.11782,Max Village Wellness Club,,"Via Romano Guardini, 38121, Trento",Trento,46.0932396,11.1178172,,,wellness_center,,gym,False,discovered,2026-06-03T22:00:00Z
osm_overpass,osm_44.36824_11.70767,Sport garage,,,altro,44.3682393,11.7076713,,,gym,,gym,False,discovered,2026-06-03T22:00:00Z
osm_overpass,osm_45.73639_7.32678,Circolo Tennis Aosta,,,altro,45.736393,7.3267764,,,gym,,gym,False,discovered,2026-06-03T22:00:00Z
osm_overpass,osm_44.53111_10.83871,Piscina Scoperta,,"Via Ghiarella, 41042, Fiorano Modenese",Fiorano Modenese,44.5311051,10.8387149,+39 333 8472204,,pool,,gym,False,discovered,2026-06-03T22:00:00Z
osm_overpass,osm_44.54211_10.80735,Palestra “Francesca Bursi” Fiorano,www.gslibertasfioranoad.it,"Via San Giovanni Bosco, 41042, Fiorano Modenese",Fiorano Modenese,44.5421101,10.8073518,,,gym,,gym,False,discovered,2026-06-03T22:00:00Z
osm_overpass,osm_44.53943_10.83907,Treppi della Ruzzola,,"Via della Chimica, 41042, Fiorano Modenese",Fiorano Modenese,44.5394312,10.8390713,,,gym,,gym,False,discovered,2026-06-03T22:00:00Z
osm_overpass,osm_46.05979_11.11572,Palestra Defant's Club,,"Via Adalberto Libera, 38122, Trento",Trento,46.0597894,11.1157196,,,gym,,gym,False,discovered,2026-06-03T22:00:00Z
osm_overpass,osm_45.59593_9.04835,Piscina Comunale,,,altro,45.5959319,9.0483454,,,pool,,gym,False,discovered,2026-06-03T22:00:00Z
osm_overpass,osm_39.07334_17.12708,Magna Graecia,,,altro,39.0733408,17.1270797,,,gym,,gym,False,discovered,2026-06-03T22:00:00Z
osm_overpass,osm_44.30864_11.70125,La Rondinella,,,altro,44.3086422,11.7012532,,,gym,,gym,False,discovered,2026-06-03T22:00:00Z
osm_overpass,osm_43.68447_10.79244,Palextra,,,altro,43.6844726,10.7924379,,,gym,,gym,False,discovered,2026-06-03T22:00:00Z
osm_overpass,osm_45.64596_8.81798,ActionFit Gallarate,https://www.actionfit.it/,"Viale Milano, 21013, Gallarate",Gallarate,45.6459568,8.8179785,+39 351 319 1509,,gym,,gym,False,discovered,2026-06-03T22:00:00Z
osm_overpass,osm_45.67364_8.35882,Ippica San Michele,,,altro,45.6736364,8.3588231,,,gym,,gym,False,discovered,2026-06-03T22:00:00Z
osm_overpass,osm_45.67052_8.31573,Maneggio,,,altro,45.6705177,8.3157324,,,gym,,gym,False,discovered,2026-06-03T22:00:00Z
osm_overpass,osm_45.67194_8.32293,Bowling - Sala giochi,,,altro,45.6719421,8.3229281,,,gym,,gym,False,discovered,2026-06-03T22:00:00Z
osm_overpass,osm_41.91397_12.61434,A.S.D. Nuova Superiride La Rustica,,"Via Galatea, 00155, Roma",Roma,41.9139715,12.6143432,+39 06 22 95 029,,gym,,gym,False,discovered,2026-06-03T22:00:00Z
osm_overpass,osm_45.81581_8.83538,Palestra Kodokan,,,altro,45.8158133,8.8353821,,,martial_arts,,gym,False,discovered,2026-06-03T22:00:00Z
osm_overpass,osm_43.65891_10.66308,Tarpons Wake Park,,,altro,43.6589075,10.6630786,,,gym,,gym,False,discovered,2026-06-03T22:00:00Z
osm_overpass,osm_45.97217_9.45196,Oratorio San Giovanni Bosco,,,altro,45.9721745,9.4519617,,,gym,,gym,False,discovered,2026-06-03T22:00:00Z
osm_overpass,osm_46.19068_12.70755,Val Colvera,,,altro,46.1906849,12.7075534,,,climbing_gym,,gym,False,discovered,2026-06-03T22:00:00Z
osm_overpass,osm_39.45933_17.03382,Palestra Martial Arts di Romeo,,,altro,39.4593329,17.0338229,,,martial_arts,,gym,False,discovered,2026-06-03T22:00:00Z
osm_overpass,osm_45.81971_8.24937,Palestra XXV Aprile,,,altro,45.8197127,8.2493701,,,gym,,gym,False,discovered,2026-06-03T22:00:00Z
osm_overpass,osm_44.82699_11.64581,Palestra Cocoon,,,altro,44.8269875,11.6458139,,,gym,,gym,False,discovered,2026-06-03T22:00:00Z
osm_overpass,osm_45.58846_9.26548,Palestra Oratorio di San Biagio,,"Via Luciano Manara, 20900, Monza",Monza,45.5884574,9.2654783,,,gym,,gym,False,discovered,2026-06-03T22:00:00Z
osm_overpass,osm_46.0466_11.13327,Palestra di roccia Sanbàpolis,,"Via della Malpensada, 38123, Trento",Trento,46.046605,11.1332747,,,climbing_gym,,gym,False,discovered,2026-06-03T22:00:00Z
osm_overpass,osm_43.78056_10.38429,Shabby Chic fitness,http://www.shabbychicfitness.com/,"Via Argine Vecchio, 56019, Vecchiano",Vecchiano,43.7805589,10.3842937,+39 050 859059,,gym,,gym,False,discovered,2026-06-03T22:00:00Z
osm_overpass,osm_44.81561_11.58629,Palestra New Freedom,,,altro,44.8156088,11.5862914,,,gym,,gym,False,discovered,2026-06-03T22:00:00Z
osm_overpass,osm_45.56518_9.26892,Fit Active,,"Via Zara, 20900, Monza",Monza,45.5651793,9.2689222,+39 039 837545,,gym,,gym,False,discovered,2026-06-03T22:00:00Z
osm_overpass,osm_45.34406_10.84365,La Spalliera,http://www.laspalliera.com,"Via Orientale, 37069, Villafranca di Verona",Villafranca di Verona,45.3440639,10.8436538,+39 045 63300312,,wellness_center,,gym,False,discovered,2026-06-03T22:00:00Z
osm_overpass,osm_45.47613_9.22613,Poli Squash,,,Milano,45.4761278,9.2261312,,,gym,,gym,False,discovered,2026-06-03T22:00:00Z
osm_overpass,osm_43.7237_10.43312,Formazione Danza,,,altro,43.7236955,10.4331166,,,gym,,gym,False,discovered,2026-06-03T22:00:00Z
osm_overpass,osm_41.7858_12.43458,Centro Benessere Aloe Spa,https://aloespa.it/,"Viale degli Eroi di Cefalonia, 00128, Roma",Roma,41.7858007,12.43458,+39 06 5084497,,wellness_center,,gym,False,discovered,2026-06-03T22:00:00Z
osm_overpass,osm_41.54089_14.66234,Associazione Sportiva la Baita,,,altro,41.5408947,14.6623447,,,gym,,gym,False,discovered,2026-06-03T22:00:00Z
osm_overpass,osm_45.45294_10.083,Palestra polivalente,,,altro,45.4529412,10.0830003,,,gym,,gym,False,discovered,2026-06-03T22:00:00Z
osm_overpass,osm_45.81253_9.29532,Landing Paragliding CornizzoloInVolo,https://www.cornizzolo.it/,,altro,45.8125265,9.295316,,,gym,,gym,False,discovered,2026-06-03T22:00:00Z
osm_overpass,osm_42.05004_12.39936,Global Fitness,,,altro,42.0500374,12.399364,,,gym,,gym,False,discovered,2026-06-03T22:00:00Z
osm_overpass,osm_45.57774_9.27748,Ironfit,https://ironfit.it/,"Via Mentana, 20900, Monza",Monza,45.5777379,9.2774841,+393939995554,,crossfit_box,,gym,False,discovered,2026-06-03T22:00:00Z
osm_overpass,osm_45.72891_7.67,Campo Tsan,,,altro,45.728907,7.6699959,,,gym,,gym,False,discovered,2026-06-03T22:00:00Z
osm_overpass,osm_45.78009_12.07008,Gaia Fitness Center Montebelluna,https://montebelluna.gaiafitness.it/,"Via Schiavonesca Priula, 31044, Montebelluna",Montebelluna,45.7800866,12.0700835,+39 0423 609241,,gym,,gym,False,discovered,2026-06-03T22:00:00Z
osm_overpass,osm_45.58096_9.26363,Palestra Renbukai K1,,"Via Fratelli Bandiera, 20900, Monza",Monza,45.5809631,9.2636343,,,martial_arts,,gym,False,discovered,2026-06-03T22:00:00Z
osm_overpass,osm_44.04794_12.5588,Virtute Training,,"Via dell'Abete, 47923, Rimini",Rimini,44.0479427,12.558803,+39 392 133 4112,,gym,,gym,False,discovered,2026-06-03T22:00:00Z
osm_overpass,osm_44.05773_12.56477,Arco Boulder Rimini,,"Via Bastioni Occidentali, 47921, Rimini",Rimini,44.0577273,12.5647749,,,gym,,gym,False,discovered,2026-06-03T22:00:00Z
osm_overpass,osm_44.06463_12.56873,Palestra 0.2 Rimini,,"Via dei Mille, 47921, Rimini",Rimini,44.0646257,12.5687341,,,gym,,gym,False,discovered,2026-06-03T22:00:00Z
osm_overpass,osm_44.05968_12.543,IGym,https://www.igymrimini.it/p?n=IGYM,"Via Circonvallazione Nuova, 47922, Rimini",Rimini,44.0596821,12.5429985,+39 0541 450713,,gym,,gym,False,discovered,2026-06-03T22:00:00Z
osm_overpass,osm_44.04485_12.55934,FitUp,https://fitup.it/club/rimini/,"Via Marte, 47923, Rimini",Rimini,44.0448528,12.5593366,+39 0541 17 87440,,gym,,gym,False,discovered,2026-06-03T22:00:00Z
osm_overpass,osm_44.04243_12.58727,Schilling Squash & Gym,https://schillingrimini.it/,"Via Antonio Draghi, 47924, Rimini",Rimini,44.0424272,12.5872735,,,gym,,gym,False,discovered,2026-06-03T22:00:00Z
osm_overpass,osm_44.05826_12.5729,gym,,"Via Marco Minghetti, 47921, Rimini",Rimini,44.0582638,12.5729022,,,gym,,gym,False,discovered,2026-06-03T22:00:00Z
osm_overpass,osm_44.04255_12.5914,Mia Gym,https://www.miagym.com/,"Viale Rimembranze, 47924, Rimini",Rimini,44.0425539,12.5914011,+39 0541 39 1100,,gym,,gym,False,discovered,2026-06-03T22:00:00Z
osm_overpass,osm_45.86008_10.13254,Falesia di Rogno,,,altro,45.8600841,10.1325391,,,climbing_gym,,gym,False,discovered,2026-06-03T22:00:00Z
osm_overpass,osm_45.98617_12.32178,Tiro a Segno Nazionale Sezione di Vittorio Veneto,,"Via Carlo Forlanini, 31029, Vittorio Veneto",Vittorio Veneto,45.9861662,12.3217783,,,gym,,gym,False,discovered,2026-06-03T22:00:00Z
osm_overpass,osm_44.647_8.69732,Maneggio Castello di Tagliolo,,,altro,44.6469997,8.6973189,,,gym,,gym,False,discovered,2026-06-03T22:00:00Z
osm_overpass,osm_38.18513_15.23592,T.H.E.S. Scuola di Equitazione,,,altro,38.1851346,15.2359197,,,gym,,gym,False,discovered,2026-06-03T22:00:00Z
osm_overpass,osm_46.49352_11.341,CircuitGym,https://www.circuitgym.eu/,"Via Roma - Romstraße, 39100, Bolzano - Bozen",Bolzano - Bozen,46.4935217,11.3410002,+39 333 101 0727,,gym,,gym,False,discovered,2026-06-03T22:00:00Z
osm_overpass,osm_46.50055_11.33832,Eden 2000 Palestra Fitness Center,,"Via Cesare Battisti - Cesare-Battisti-Straße, 39100, Bolzano - Bozen",Bolzano - Bozen,46.5005482,11.33832,,,gym,,gym,False,discovered,2026-06-03T22:00:00Z
osm_overpass,osm_46.48465_11.33187,Centro Fitness 2Fit,http://www.2fitsrl.it,"Via Antonio Pacinotti - Antonio-Pacinotti-Straße, 39100, Bolzano - Bozen",Bolzano - Bozen,46.4846451,11.3318711,+39 0471 508750,,gym,,gym,False,discovered,2026-06-03T22:00:00Z
osm_overpass,osm_46.50106_11.35221,Train To Smile,,"Via dei Vanga - Wangergasse, 39100, Bolzano - Bozen",Bolzano - Bozen,46.5010592,11.3522131,,,gym,,gym,False,discovered,2026-06-03T22:00:00Z
osm_overpass,osm_46.70751_11.66169,Knackig,,"Millander Weg - Via Millan, 39042, Brixen - Bressanone",Brixen - Bressanone,46.707512,11.6616898,,,gym,,gym,False,discovered,2026-06-03T22:00:00Z
osm_overpass,osm_46.43982_11.34706,Palestra Comunale,,"Via Dolomiti - Dolomitenstraße, 39055, Laives - Leifers",Laives - Leifers,46.4398176,11.3470628,,,gym,,gym,False,discovered,2026-06-03T22:00:00Z
osm_overpass,osm_41.11345_16.87188,Fitness Lab,,Via Donato Gargasole,altro,41.1134462,16.8718797,,,gym,,gym,False,discovered,2026-06-03T22:00:00Z
osm_overpass,osm_42.40949_12.85601,Planet Fitness Club,,,altro,42.4094935,12.8560069,,,gym,,gym,False,discovered,2026-06-03T22:00:00Z
osm_overpass,osm_45.38992_10.43342,Palestra dei Novagli,,"Piazza Don Bruno Melchiorri, 25018, Montichiari",Montichiari,45.3899181,10.433424,,,gym,,gym,False,discovered,2026-06-03T22:00:00Z
osm_overpass,osm_45.29285_11.53876,"Stadio Comunale ""G. Fracca""",,"Viale dei Martiri, 36025",altro,45.2928487,11.5387581,,,gym,,gym,False,discovered,2026-06-03T22:00:00Z
osm_overpass,osm_44.53301_10.83821,Pista di Atletica / Spezzano,https://www.acfiorano.com/,"Via della Villa, 41042, Fiorano Modenese",Fiorano Modenese,44.5330053,10.8382056,+39 0536 910050,,gym,,gym,False,discovered,2026-06-03T22:00:00Z
osm_overpass,osm_36.91886_14.70257,Vitality,,,altro,36.9188598,14.7025676,,,gym,,gym,False,discovered,2026-06-03T22:00:00Z
osm_overpass,osm_43.71108_10.40073,5.2,,Via Filippo Turati,altro,43.7110809,10.4007327,,,gym,,gym,False,discovered,2026-06-03T22:00:00Z
osm_overpass,osm_41.73669_12.27347,Samurai Zen Club,,"Piazza di Santa Monica, 00121, Roma",Roma,41.7366869,12.2734673,,,gym,,gym,False,discovered,2026-06-03T22:00:00Z
osm_overpass,osm_42.29823_12.41371,Palestra Body Shape,,"Via Rio Fratta, 01033, Civita Castellana",Civita Castellana,42.2982263,12.4137091,+39 0761 514261,,gym,,gym,False,discovered,2026-06-03T22:00:00Z
osm_overpass,osm_39.91492_8.5867,Onirika,,,altro,39.914917,8.5867,,,gym,,gym,False,discovered,2026-06-03T22:00:00Z
osm_overpass,osm_45.42755_11.06162,Centro Arti Marziali Yawara Verona,http://www.camyawaravr.it,"Via Maiella, 37132, Verona",Verona,45.4275545,11.0616219,,,martial_arts,,gym,False,discovered,2026-06-03T22:00:00Z
osm_overpass,osm_44.99833_9.0287,Palestra Futura,,,altro,44.9983315,9.028701,,,gym,,gym,False,discovered,2026-06-03T22:00:00Z
osm_overpass,osm_39.22679_9.13338,Step & fitness,,,altro,39.2267941,9.1333783,,,gym,,gym,False,discovered,2026-06-03T22:00:00Z
osm_overpass,osm_45.81487_12.0136,Palestra-Fitness,,,altro,45.8148748,12.0136017,,,gym,,gym,False,discovered,2026-06-03T22:00:00Z
osm_overpass,osm_43.30093_13.43471,Bocciofila Maceratese,,,altro,43.3009318,13.4347133,,,gym,,gym,False,discovered,2026-06-03T22:00:00Z
osm_overpass,osm_42.45047_14.19192,Centro sportivo e ricreativo Sacci,,,altro,42.4504741,14.1919183,,,gym,,gym,False,discovered,2026-06-03T22:00:00Z
osm_overpass,osm_45.71715_11.31634,Rendez-Vous,,,altro,45.7171517,11.3163443,,,gym,,gym,False,discovered,2026-06-03T22:00:00Z
osm_overpass,osm_41.22521_9.16774,Sporting Club Baia Santa Riparata,,,altro,41.225214,9.1677428,,,gym,,gym,False,discovered,2026-06-03T22:00:00Z
osm_overpass,osm_41.54991_14.67394,Galassport,,,altro,41.5499058,14.6739381,+39 0874 92620,,gym,,gym,False,discovered,2026-06-03T22:00:00Z
osm_overpass,osm_43.80308_12.0597,Falesia Moia,,,altro,43.8030797,12.0597028,,,gym,,gym,False,discovered,2026-06-03T22:00:00Z
osm_overpass,osm_43.78164_12.075,Falesia Balze,,,altro,43.7816449,12.0750036,,,gym,,gym,False,discovered,2026-06-03T22:00:00Z
osm_overpass,osm_43.1892_13.79085,Centro Sociale Viale dei Pini,,,altro,43.1891982,13.790851,,,gym,,gym,False,discovered,2026-06-03T22:00:00Z
osm_overpass,osm_43.18891_13.79081,Palestra Nardi,,,altro,43.1889124,13.7908062,,,gym,,gym,False,discovered,2026-06-03T22:00:00Z
osm_overpass,osm_43.57188_11.87109,A.S.D. Studio 82,,"Via Siro Fantoni, 52010, Subbiano",Subbiano,43.5718842,11.8710908,,,gym,,gym,False,discovered,2026-06-03T22:00:00Z
osm_overpass,osm_45.96464_12.67167,Kosmic Therme Romane fitness centre,,,altro,45.9646373,12.6716669,,,gym,,gym,False,discovered,2026-06-03T22:00:00Z
osm_overpass,osm_40.87619_17.39932,San Domenico Golf,,,altro,40.876191,17.3993167,,,gym,,gym,False,discovered,2026-06-03T22:00:00Z
osm_overpass,osm_43.02659_11.61777,Piscina Termale Val di Sole,,,altro,43.0265851,11.6177679,,,pool,,gym,False,discovered,2026-06-03T22:00:00Z
osm_overpass,osm_43.30522_13.44052,ABM,,"Contrada Fontezucca, 62100, Macerata",Macerata,43.3052215,13.4405198,,,gym,,gym,False,discovered,2026-06-03T22:00:00Z
osm_overpass,osm_43.9978_12.6303,Palestra Gold,,,altro,43.9977956,12.6302979,,,gym,,gym,False,discovered,2026-06-03T22:00:00Z
osm_overpass,osm_44.90661_8.19494,Fidia,,"Via Raffaello Sanzio, 14100, Asti",Asti,44.9066111,8.1949409,,,gym,,gym,False,discovered,2026-06-03T22:00:00Z
osm_overpass,osm_45.90052_9.67089,Falesia di Portiera,,,altro,45.90052,9.6708852,,,climbing_gym,,gym,False,discovered,2026-06-03T22:00:00Z
