source_platform,source_venue_id,venue_name,address,city,latitude,longitude,brand,venue_type,vertical
fitprime,4191,Sharphin Studio,Via Uberto Visconti di Modrone,Milano,45.4637708,9.2001193,,gym,gym
fitprime,4498,MotionLab97,Via Chiaravalle,Milano,45.4605344,9.192682,,gym,gym
fitprime,1363,Fit and Go Milano - V Giornate,Via Fontana 19,Milano,45.4615159,9.2058601,,gym,gym
fitprime,553,Urban Fitness Milano - V Giornate,Piazza Cinque Giornate 6,Milano,45.4614703,9.2070542,,gym,gym
fitprime,1917,Opi Gym,Corso di Porta Romana,Milano,45.4541672,9.1986087,,gym,gym
fitprime,4173,The Garden Milano,Viale Monte Nero,Milano,45.4613788,9.2085903,,gym,gym
fitprime,3787,Justfit 2.0 Missori,Via Maddalena 3/5,Milano,45.4595329,9.1886161,,gym,gym
fitprime,116,7 City Club,Via Falcone 5,Milano,45.462392,9.1879812,,gym,gym
fitprime,1533,Studio Gem Large,Corso di Porta Vigentina 35,Milano,45.452462,9.1965185,,gym,gym
fitprime,1532,Studio Gem Medium,Corso di Porta Vigentina 35,Milano,45.452462,9.1965185,,gym,gym
fitprime,1531,Studio Gem Basic,Corso di Porta Vigentina 35,Milano,45.452462,9.1965185,,gym,gym
fitprime,4340,Mc Wellness Club Milano,Via Torino 23,Milano,45.4622665,9.186638,,gym,gym
fitprime,108,Universo Fitness,Via Crocefisso 5,Milano,45.4569494,9.1867732,,gym,gym
fitprime,2471,Cinque Via del Don YogaPilates,Via del Don 5,Milano,45.4581714,9.1854325,,gym,gym
fitprime,2470,Cinque Via del Don Aerialyoga,Via Privata del Don 5,Milano,45.4581714,9.1854325,,gym,gym
fitprime,549,Urban Fitness Milano - Sabotino,Viale Sabotino 20,Milano,45.4507358,9.2010141,,gym,gym
fitprime,340,Boxing Lab,Via Gabrio Serbelloni 4,Milano,45.4700792,9.2016137,,gym,gym
fitprime,2490,Active 24,Via Altaguardia 6,Milano,45.4500233,9.1997509,,gym,gym
fitprime,99,20 Hours Zecca,Via Zecca Vecchia 6,Milano,45.4623939,9.1843159,,gym,gym
fitprime,2281,Fidia Fitness Lab,Via Gerolamo Tiraboschi 8,Milano,45.4527843,9.2092476,,gym,gym
fitprime,2262,Cryovis,Viale Luigi Majno 19,Milano,45.4700494,9.2052713,,gym,gym
fitprime,4478,Ayoga Milano,Via Marina 3,Milano,45.4710944,9.1980329,,gym,gym
fitprime,2107,In Ex Palestre,Via Molino delle Armi 7,Milano,45.4567224,9.1838215,,gym,gym
fitprime,2455,Bossy Fitness Club,Piazzetta Maurilio Bossi 4,Milano,45.4678492,9.1870551,,gym,gym
fitprime,1542,Total Studio Fitness Club,Via Pasquale Sottocorno 54,Milano,45.4662451,9.2128297,,gym,gym
fitprime,2958,The Art Of Pilates Tower - Bellezza,Via Giovanni Bellezza 8A,Milano,45.4487415,9.1965936,,gym,gym
fitprime,2957,The Art Of Pilates Matwork - Bellezza,Via Giovanni Bellezza 8A,Milano,45.4487415,9.1965936,,gym,gym
fitprime,1411,Barry's Bootcamp - Via Senato,Via Senato 36,Milano,45.4719719,9.1957457,,gym,gym
fitprime,359,Body Balance Center,Via Contardo Ferrini 11,Milano,45.452681,9.2123476,,gym,gym
fitprime,121,BaliYoga Porta Romana,Via Friuli 26,Milano,45.4518508,9.2114777,,gym,gym
fitprime,765,Urban Fitness Massaia,Piazza Guglielmo Massaia 3,Milano,45.4615228,9.1811981,,gym,gym
fitprime,3549,Meditation Lounge Studio Yoga e Meditazione,"Via Ciro Menotti, 2A",Milano,45.4685114,9.2134892,,gym,gym
fitprime,4636,Milan Pole Dance Col di Lana,Viale Col di Lana,Milano,45.4519148,9.1841076,,gym,gym
fitprime,4174,Total Studio Bixio,Via Nino Bixio,Milano,45.4719537,9.2080963,,gym,gym
fitprime,4071,Total Studio Col di Lana,Viale Col di Lana,Milano,45.4519409,9.1837195,,gym,gym
fitprime,1568,Plus 1 Gym Concept,Via Friuli 8A,Milano,45.4491144,9.2100411,,gym,gym
fitprime,1777,Action Fit Cairoli,Largo Cairoli,Milano,45.4681076,9.1826567,,gym,gym
fitprime,539,Urban Fitness Milano - S. Giovanni sul Muro,Via San Giovanni sul Muro 17,Milano,45.466289,9.1810257,,gym,gym
fitprime,1690,The Longevity Suite Milano Brera,Via Cusani 18,Milano,45.4688059,9.1832055,,gym,gym
fitprime,2503,Nexus Sport Academy Colletta,Via Pietro Colletta 29,Milano,45.4491601,9.2110027,,gym,gym
fitprime,1050,Accademia Europea Fitness,Via Melzo 11,Milano,45.4734089,9.209376,,gym,gym
fitprime,2511,Nexus Sport Academy Pietrasanta,Via Pietrasanta 14,Milano,45.4449025,9.1956383,,gym,gym
fitprime,756,Sensus Club,Via Pietrasanta 14,Milano,45.4449025,9.1956383,,gym,gym
fitprime,1808,BaliYoga Porta Venezia,Via Panfilo Castaldi 42,Milano,45.4754425,9.205563,,gym,gym
fitprime,90,20 Hours Panzeri,Via Pietro Panzeri 10,Milano,45.4532944,9.1780814,,gym,gym
fitprime,4241,Fits You,Via Galeazzo Alessi 5,Milano,45.4559188,9.1763516,,gym,gym
fitprime,4327,Bulb Corso Lodi,Via Sannio 18,Milano,45.4470206,9.2125239,,gym,gym
fitprime,828,Anytime Fitness Manusardi,Corso Luigi Manusardi 10,Milano,45.4509798,9.1786009,,gym,gym
fitprime,2842,Mrs.Sporty Milano Porta Venezia,Viale Regina Giovanna 8,Milano,45.475515,9.2099341,,gym,gym
fitprime,3259,Fit Stop,Corso di Porta Nuova 32,Milano,45.4768306,9.1920843,,gym,gym
fitprime,4526,Beyond A.S.D.,Via Daniele Crespi 4,Milano,45.4575544,9.1744301,,gym,gym
fitprime,4821,YOGALATES REFORMER,Viale Tunisia 13 CITOFONO 39,Milano,45.4773734,9.2050159,,gym,gym
fitprime,4284,Garibaldi Fitness 34,Corso Garibaldi 34,Milano,45.4743399,9.1836561,,gym,gym
fitprime,3555,DNR Boxing School,"Via Benaco, 1",Milano,45.444575,9.211927,,gym,gym
fitprime,466,Crossfit 97 Scalo Romana,Via Benaco 1,Milano,45.444575,9.211927,,gym,gym
fitprime,1978,MilanoSport Cozzi,Viale Tunisia 35,Milano,45.4790632,9.2012865,,gym,gym
fitprime,334,Spazio Garibaldi77,Corso Garibaldi 77,Milano,45.4757781,9.1835277,,gym,gym
fitprime,4039,Fitness Studio Cadorna,Via Giacomo Leopardi,Milano,45.4684939,9.1740722,,gym,gym
fitprime,4158,Fudokan Milano Lima,Via Bartolomeo Eustachi 22,Milano,45.4758442,9.215254,,gym,gym
fitprime,1634,True Training,Via della Moscova 46/3,Milano,45.4776326,9.1862252,,gym,gym
fitprime,89,20 Hours Brioschi,Via Francesco Brioschi 26,Milano,45.4456279,9.1806032,,gym,gym
fitprime,3831,Real TDK,Via Gian Battista Vico 4,Milano,45.4605146,9.1708871,,gym,gym
fitprime,4375,XShape - This is the Way,Via Ampola,Milano,45.4405724,9.2017459,,gym,gym
fitprime,1732,Studio Personal Trainer,Viale Papiniano 45,Milano,45.4578548,9.1707557,,gym,gym
fitprime,1099,Urban Fitness Milano - Coni Zugna,Viale Coni Zugna 63,Milano,45.456116,9.1711561,,gym,gym
fitprime,3812,Fusco Fitness Milano Città Studi,Via Amedeo D'Aosta 11,Milano,45.4752302,9.2177968,,gym,gym
fitprime,85,Joy Fit,Via Amedeo D'Aosta 8,Milano,45.4753225,9.2184334,,gym,gym
fitprime,4474,OMM Center Milano,Viale Papiniano,Milano,45.4577095,9.1697995,,gym,gym
fitprime,169,New Life,Via Giuseppe Ripamonti 110,Milano,45.4396201,9.1998132,,gym,gym
fitprime,3676,YOGA Olistico Leopardi,Via G. Leopardi 28,Milano,45.4699419,9.1724893,,gym,gym
fitprime,2506,Nexus Sport Academy Symbiosis,"via Gargano, angolo viale Ortles",Milano,45.4398197,9.2062328,,gym,gym
fitprime,1862,Barbara Gruich Yoga,Via Bernardino Telesio 2,Milano,45.4691624,9.1712081,,gym,gym
fitprime,555,Urban Fitness Milano - Vittor Pisani,Via Vittor Pisani 9,Milano,45.4817279,9.1996711,,gym,gym
fitprime,1375,Body \u0026 Mind Yoga Studio,Via Casale 3a,Milano,45.4520993,9.1704608,,gym,gym
fitprime,1197,amaTi Spa Moscova,Viale Monte Grappa 12,Milano,45.4810268,9.1899853,,gym,gym
fitprime,1075,Bodytec Milano,Via Carlo de Cristoforis 15,Milano,45.4811799,9.1905439,,gym,gym
fitprime,755,Urban Fitness Milano - Carlo Erba,Piazza Carlo Erba,Milano,45.4751174,9.2214838,,gym,gym
fitprime,92,Action Fit Gargano,Via Gargano 3,Milano,45.4390291,9.205957,,gym,gym
fitprime,4650,Bulb P.ta Genova,Via Valenza,Milano,45.451782,9.1697395,,gym,gym
fitprime,1364,Urban Fitness Milano - Piranesi,Via Giovanni Battista Piranesi 34,Milano,45.4606153,9.2304859,,gym,gym
fitprime,1933,10XAthletics,Via Ruggero Boscovich,Milano,45.4823963,9.2021716,,gym,gym
fitprime,1329,Anytime Fitness Centrale,Via Ruggero Boscovich 14,Milano,45.4823963,9.2021716,,gym,gym
fitprime,1178,Mrs.Sporty Milano Susa,Via Sighele 2,Milano,45.4673038,9.2290543,,gym,gym
fitprime,4916,The Room Studio,VIALE STELVIO 61/C,Milano,45.4641567,9.1672418,,gym,gym
fitprime,4524,ASD Cuor di Leone Jiu-Jitsu Milano,Via Napo Torriani 19,Milano,45.4828584,9.2030047,,gym,gym
fitprime,1687,The Longevity Suite Milano Flagship,Via Antonio Bordoni 8,Milano,45.4830366,9.1960964,,gym,gym
fitprime,4882,Bodytech Wellness Studio - Anna Rivieri,Via Domenico Scarlatti,Milano,45.481737,9.2110752,,gym,gym
fitprime,4675,Fit Class Pilates Reformer,Via Voghera,Milano,45.4539687,9.1671474,,gym,gym
fitprime,1980,MilanoSport Mincio,Via Mincio,Milano,45.4402955,9.2163686,,gym,gym
fitprime,1979,MilanoSport Solari,Via Montevideo,Milano,45.4583007,9.1653089,,gym,gym
fitprime,4637,Milan Pole Dance Rasori,Via Giovanni Rasori,Milano,45.4392376,9.1815831,,gym,gym
fitprime,1970,MilanoSport Bacone,Via Nicola Piccinni 8,Milano,45.4822168,9.2151475,,gym,gym
fitprime,747,Polisquash,Via Giovanni Pascoli 70,Milano,45.47685,9.22566,,gym,gym
fitprime,2966,Solaris Fitness - super open,Via Andrea Solari,Milano,45.4556786,9.1634839,,gym,gym
fitprime,1918,Solaris - sala pesi open,Via Andrea Solari,Milano,45.4556786,9.1634839,,gym,gym
fitprime,3890,Crossfit 97 Corvetto,Via Marco D'Agrate 23,Milano,45.4367415,9.2130999,,gym,gym
fitprime,537,Urban Fitness Milano - Guido D’Arezzo,Via Guido D'Arezzo 1,Milano,45.468033,9.1638144,,gym,gym
fitprime,2033,A2 Training Club,Via Domenico Cirillo 10,Milano,45.4775846,9.1715301,,gym,gym
fitprime,1609,University Of Fighting,Via Cortina d'Ampezzo 14,Milano,45.435004,9.2075575,,gym,gym
fitprime,1608,Allenamento Funzionale Milano,Via Cortina d'Ampezzo 14,Milano,45.435004,9.2075575,,gym,gym
fitprime,1182,Centro Yoga Bhadra,Via Giordano Bruno 11,Milano,45.4806543,9.1756524,,gym,gym
fitprime,3100,Figurella Milano Loreto,Via Antonio Stradivari 4,Milano,45.4841687,9.2155004,,gym,gym
fitprime,3813,Fusco Fitness Milano Sempione,Corso Sempione 11,Milano,45.4774094,9.1696464,,gym,gym
fitprime,1377,Personal Trainer Studio,Via Morazzone 7,Milano,45.480381,9.173446,,gym,gym
fitprime,3532,Control Fitness Small Group,"Via Polibio, 2",Milano,45.4641858,9.1608435,,gym,gym
fitprime,1100,Urban Fitness Milano - Confalonieri,Via Federico Confalonieri 15,Milano,45.4867722,9.1912055,,gym,gym
fitprime,1701,Centro Belfiore Pilates,Via Paolo Giovio 15,Milano,45.4646454,9.1608303,,gym,gym
fitprime,1700,Centro Belfiore Yoga,Via Paolo Giovio 15,Milano,45.4646454,9.1608303,,gym,gym
fitprime,548,FITclass,Via Savona 45,Milano,45.4531131,9.1614971,,gym,gym
fitprime,1464,Milano Yoga Space,Via Pastrengo 7,Milano,45.48645,9.187368,,gym,gym
fitprime,2514,Crossfit Darsena,Viale Cassala 61,Milano,45.4443964,9.1665925,,gym,gym
fitprime,3349,Lbra Training Studio Criosauna,Via Alberto da Giussano 23,Milano,45.4698598,9.1617167,,gym,gym
fitprime,4184,BULB CITTA STUDI,Via Giuseppe Pecchio,Milano,45.4843483,9.2187043,,gym,gym
fitprime,1124,Lbra Ems,Via Giorgio Pallavicino 29,Milano,45.4696948,9.1615047,,gym,gym
fitprime,562,Yogamilan,Via Luca Signorelli 4,Milano,45.4818951,9.1734078,,gym,gym
fitprime,623,L'Etude De Bleuciel,Via Cola di Rienzo 26,Milano,45.4557619,9.1585466,,gym,gym
fitprime,4328,Bulb Isola,Via Guglielmo Pepe 36,Milano,45.4871784,9.1845769,,gym,gym
fitprime,1074,Bodyset,Via Volturno 47,Milano,45.4885466,9.1908131,,gym,gym
fitprime,1987,MilanoSport Romano,Via Giuseppe Zanoia,Milano,45.4806966,9.2281386,,gym,gym
fitprime,4610,Padel Club Ripamonti,Via Cascina Belcasule 15,Milano,45.4309711,9.1963573,,gym,gym
fitprime,4293,Axis Palestre - Vetrina Corsi Extra,Via Luigi Pirandello 4/A,Milano,45.4633615,9.1564889,,gym,gym
fitprime,3874,Orange Palestre Italiane Milano Cassala,"Viale Cassala, 22",Milano,45.4442088,9.162942,,gym,gym
fitprime,3534,Lambda Yoga,"Via Giulio Cesare Procaccini, 23",Milano,45.4836099,9.172007,,gym,gym
fitprime,4620,Urban Fitness Milano Pacini,Via Giovanni Pacini,Milano,45.4818071,9.2286899,,gym,gym
fitprime,2143,Axis Palestre,Via Luigi Pirandello 4/A,Milano,45.4631443,9.1562283,,gym,gym
fitprime,4771,Yoga con Annalisa,Via Elba 14/2,Milano,45.4644165,9.1559972,,gym,gym
fitprime,4175,Piscine Jacaranda,Via Giulio Cesare Procaccini,Milano,45.4809605,9.1669135,,gym,gym
fitprime,2371,Sporting Club Leonardo Da Vinci,Via Natale Battaglia 6,Milano,45.4883174,9.2161142,,gym,gym
fitprime,2662,Club Motus Palestre,Viale Lombardia 20,Milano,45.4860246,9.223558,,gym,gym
fitprime,4285,TTCAGE,Via Privata Pomezia 10/A,Milano,45.4894306,9.2154105,,gym,gym
fitprime,4959,Lo Studio Pilates,Via Giovanni Prati,Milano,45.478753,9.162612,,gym,gym
fitprime,2426,20 Hours Cassiodoro,Viale Cassiodoro 30,Milano,45.4766751,9.160285,,gym,gym
fitprime,4819,SKILLS PILATES,Via Dionigi Bussola 4,Milano,45.4459185,9.1585072,,gym,gym
fitprime,1863,Crespi Sport Village,Via Carlo Valvassori Peroni 48,Milano,45.4776161,9.2368411,,gym,gym
fitprime,369,Heracles Gymnasium,Via Padova 21,Milano,45.4886765,9.2197388,,gym,gym
fitprime,4028,DĀNA YOGA MILANO,Via Oldrado da Tresseno 5,Milano,45.49041,9.21423,,gym,gym
fitprime,1055,Urban Fitness Mantegna,Via Andrea Mantegna 17,Milano,45.4836763,9.1675496,,gym,gym
fitprime,4440,Kmg Milano Via Gessi,Via Romolo Gessi,Milano,45.458413,9.1529477,,gym,gym
fitprime,100,20 Hours Marghera,Via Marghera 12,Milano,45.4675377,9.1540354,,gym,gym
fitprime,3365,Fit Art Studio,Via Mecenate 32,Milano,45.4548625,9.2443677,,gym,gym
fitprime,1013,Bulldog's Gym,Via Luigi Pasteur 19,Milano,45.4898822,9.2190136,,gym,gym
fitprime,4679,CITYLIFE PT STUDIO,Via Raffaello Sanzio 4,Milano,45.4694593,9.1537384,,gym,gym
fitprime,1043,CrossFit Nolo,Via Temperanza 6,Milano,45.4900684,9.2204373,,gym,gym
fitprime,4894,Padeland Milano,Via Vincenzo Toffetti,Milano,45.4378297,9.2342662,,gym,gym
fitprime,119,BaliYoga Marghera,Via Marghera 43,Milano,45.4666316,9.1518322,,gym,gym
fitprime,1751,PuraForma Lambrate PT,Via Averardo Buschi 21,Milano,45.4828863,9.2347809,,gym,gym
fitprime,1750,PuraForma Lambrate Small Group,Via Averardo Buschi 21,Milano,45.4828863,9.2347809,,gym,gym
fitprime,4956,Bulb Sempione,Via Piero della Francesca,Milano,45.483635,9.1638869,,gym,gym
fitprime,1184,Mrs.Sporty Milano Carbonari,Piazza Carbonari,Milano,45.4944438,9.2015181,,gym,gym
fitprime,1974,MilanoSport Procida,Via Giovanni da Procida 20,Milano,45.4813994,9.1602814,,gym,gym
fitprime,1513,E\u0026F Fitness Factory,"Via Desiderio, 3/9",Milano,45.4853265,9.232369,,gym,gym
fitprime,1300,Canottieri Olona 1984,Alzaia Naviglio Grande 146,Milano,45.4476138,9.1531123,,gym,gym
fitprime,884,Studio Personal Training Gracchi 26,Via dei Gracchi 26,Milano,45.4634374,9.1489698,,gym,gym
fitprime,4911,Milano Urban Gym,Via Giovanni Cagliero 14,Milano,45.4954769,9.2037381,,gym,gym
fitprime,2050,La Palestra Ssd,Via Giuseppe Giacosa 3,Milano,45.491458,9.2228674,,gym,gym
fitprime,4663,3 Fit Club Lambrate,Via Lambrate 20,Milano,45.4902753,9.2257558,,gym,gym
fitprime,3914,Elev8,Via Giambellino 34,Milano,45.4510285,9.1492261,,gym,gym
fitprime,441,Metis'Art,Via Angelo Morbelli 7,Milano,45.4712564,9.1497,,gym,gym
fitprime,4329,Bulb Piazza De Angeli,Via Vittoria Colonna 54,Milano,45.467047,9.1480564,,gym,gym
fitprime,2734,Equimonia,Via Angelo Morbelli 8,Milano,45.4715527,9.1494739,,gym,gym
fitprime,4825,Second Floor Studio Training,Via Domenico Cucchiari 25,Milano,45.490259,9.1674562,,gym,gym
fitprime,3757,20 Hours Vespri Siciliani,Via Vespri Siciliani 70,Milano,45.4519483,9.1467584,,gym,gym
fitprime,1110,Anytime Fitness Milano Sempione,Via Giovanni da Procida 36,Milano,45.4838096,9.1571193,,gym,gym
fitprime,1536,Criosauna - Criotraining Milano,Via Giacinto Bruzzesi 35,Milano,45.4496297,9.1467413,,gym,gym
fitprime,1213,Criotraining Milano EMS,Via Giacinto Bruzzesi 35/A,Milano,45.4496297,9.1467413,,gym,gym
fitprime,487,Fit and Go Milano,Via Piero della Francesca 69,Milano,45.4868428,9.1590039,,gym,gym
fitprime,1462,Q Move,Via Sebastiano del Piombo 10,Milano,45.4770565,9.1493624,,gym,gym
fitprime,80,Mengiu Palestre,"Viale ranzoni, 5 20149 Milano",Milano,45.4689766,9.1450928,,gym,gym
fitprime,1127,CrossFit Lambrate,Via Privata Oslavia 1,Milano,45.4817465,9.2456431,,gym,gym
fitprime,98,20 Hours Rubens,Via Rubens 19,Milano,45.4670756,9.1435208,,gym,gym
fitprime,1976,MilanoSport Sant'Abbondio,Via Sant'Abbondio 12,Milano,45.425064,9.173044,,gym,gym
fitprime,1981,MilanoSport Murat,Via Dino Villani,Milano,45.4997251,9.1898463,,gym,gym
fitprime,1972,MilanoSport De Marchi,Via Emilio de Marchi 17,Milano,45.499755,9.2080843,,gym,gym
fitprime,4001,Pilates Space,Via Legnone 15,Milano,45.4986758,9.181466,,gym,gym
fitprime,2529,HERO FIT,Via Legnone 15,Milano,45.4986866,9.1815011,,gym,gym
fitprime,3978,Murat 4 All,Via Gioacchino Murat 29,Milano,45.5002831,9.1903361,,gym,gym
fitprime,4400,Lab15,Via Privata Oslavia 17,Milano,45.4832036,9.2474768,,gym,gym
fitprime,4631,Skills Training Lab,Via Lorenteggio 139,Milano,45.4512114,9.1411398,,gym,gym
fitprime,4445,Kmg Milano Don Orione,Piero Strozzi 2,Milano,45.4559037,9.1399727,,gym,gym
fitprime,3480,MilanoSport Cambini Fossati,Via Leonardo Cambini 4,Milano,45.4948776,9.2317768,,gym,gym
fitprime,3926,For Life asd,Via Lorenteggio 147,Milano,45.4509309,9.140096,,gym,gym
fitprime,3814,Fusco Fitness Milano D'Alviano,Via Bartolomeo D'Alviano 55,Milano,45.4586804,9.1381821,,gym,gym
fitprime,3875,Orange Palestre Italiane Milano Certosa,"Viale Certosa, 21A",Milano,45.4892866,9.1526657,,gym,gym
fitprime,2442,Youcan Fitness Factory,Via Camillo Ugoni 15,Milano,45.5006667,9.1709635,,gym,gym
fitprime,4690,Pole Dance Area Milano,Via Francesco Paolo Michetti,Milano,45.5007393,9.1660357,,gym,gym
fitprime,2947,Vuorkout Milano,Via Bernardo Davanzati 33,Milano,45.5042783,9.1739198,,gym,gym
fitprime,4627,Corner 73,Via Pier Alessandro Paravia 73,Milano,45.4737295,9.1337621,,gym,gym
fitprime,1396,Anytime Fitness Milano Sarca,Viale Sarca 80,Milano,45.5082419,9.2046856,,gym,gym
fitprime,3952,ARCTOS ACADEMY,Via Privata Fidenza 1,Milano,45.427857,9.2499004,,gym,gym
fitprime,3942,Metodo Salute Sport,Via Giuseppe Candiani 26,Milano,45.5044201,9.1687805,,gym,gym
fitprime,3965,Metodo Salute Sport Corsi,Via Giuseppe Candiani 26,Milano,45.5051677,9.1703024,,gym,gym
fitprime,4384,Cimiano Sport Center - Padel,Via Don Giovanni Calabria,Milano,45.499263,9.241875,,gym,gym
fitprime,4352,Cimiano Sports Center,Via Don Giovanni Calabria,Milano,45.499263,9.241875,,gym,gym
fitprime,1163,Milano Training Club,Via Privata Paolo Paruta 59,Milano,45.5037656,9.2383254,,gym,gym
fitprime,1471,CrossFit Full Gear,Piazza Carlo Amati 3,Milano,45.4693339,9.1264192,,gym,gym
fitprime,4792,Twelve San Siro Fitness Lab,Via Pessano 5,Milano,45.475134,9.1279941,,gym,gym
fitprime,4872,Kreo Team,Via Angelo Inganni,Milano,45.454326,9.1242984,,gym,gym
fitprime,4267,Crossfit Factory Precotto,Via Apelle 48,Milano,45.509537,9.2268591,,gym,gym
fitprime,703,New Gymnika Fitness,Via Bernardo Rucellai 20,Milano,45.5122787,9.220822,,gym,gym
fitprime,1977,MilanoSport Cardellino,Via del Cardellino,Milano,45.4483778,9.1231531,,gym,gym
fitprime,4396,BJJ SanSiro Milano,Piazza Axum,Milano,45.4754735,9.1228361,,gym,gym
fitprime,3944,LORENTEGGIO 1947,Via Francesco Gonin 16,Milano,45.4425103,9.1236972,,gym,gym
fitprime,4017,Padel San Siro - Triestina,Via Alessandro Fleming 13,Milano,45.46852,9.1198778,,gym,gym
fitprime,4642,Fitsuite,Viale Piero e Alberto Pirelli,Milano,45.515811,9.2118616,,gym,gym
fitprime,3717,Palestra Jason Fitness Milano Precotto,Via Sergio Corazzini 9,Milano,45.5115333,9.2321752,,gym,gym
fitprime,529,ABC Palestre,"Via Zurigo, 20",Milano,45.4571625,9.118515,,gym,gym
fitprime,3129,Figurella San Donato Milanese,Via Triulziana 14,Milano,45.4267376,9.2645531,,gym,gym
fitprime,1447,Manga Climbing,Via Privata Giovanni Livraghi 25,Milano,45.5162562,9.2225565,,gym,gym
fitprime,1146,Padel Club Milano,Viale Enrico Forlanini,Milano,45.462928,9.2820178,,gym,gym
fitprime,1323,CrossFit Thorax,Via Anna Kuliscioff 9,Milano,45.4476368,9.1172742,,gym,gym
fitprime,1985,MilanoSport Suzzani,Via Luigi Beccali,Milano,45.5195198,9.2061789,,gym,gym
fitprime,4724,Sensus Club Milano Certosa,Via Varesina 173,Milano,45.5033376,9.1386645,,gym,gym
fitprime,4020,Padel San Siro - Gescal Boys,Via Alessio Olivieri,Milano,45.4641781,9.1124402,,gym,gym
fitprime,2137,Milago Fitness,Via Indipendenza 3,Milano,45.4241575,9.1282739,,gym,gym
fitprime,1975,MilanoSport Quarto Cagnino,Via F. R. Lamennais 20,Milano,45.473406,9.1130247,,gym,gym
fitprime,1982,MilanoSport Arioli Venegoni,Via Arioli Venegoni,Milano,45.468126,9.110845,,gym,gym
fitprime,1473,Quanta Club,Via Assietta 19,Milano,45.5175668,9.1633623,,gym,gym
fitprime,1971,MilanoSport Iseo,Via Iseo,Milano,45.5205528,9.1738368,,gym,gym
fitprime,4016,The Gym,Via Guido da Velate,Milano,45.5241652,9.1947926,,gym,gym
fitprime,4848,MCB Studio Pilates,"Viale Sarca 336 - edificio 16, piano terra",Milano,45.5231994,9.2208298,,gym,gym
fitprime,127,Centro Sportivo di Corsico,Via Don Flaminio Tornaghi,Milano,45.4393172,9.111493,,gym,gym
fitprime,1636,The Rise - Crossfit San Siro,Via Gallarate 207,Milano,45.4995028,9.1251231,,gym,gym
fitprime,3019,Gardanella Sport Village,Via Achille Grandi 46,Milano,45.4471341,9.2894774,,gym,gym
fitprime,2430,Asd Postura e Benessere,Via Pompeo Marchesi 18,Milano,45.4715183,9.1073107,,gym,gym
fitprime,1986,MilanoSport Parri Mengoni,Via Luigi Mengoni,Milano,45.4516145,9.1063001,,gym,gym
fitprime,523,CrossFit Mediolanvm,Via Antonio Mambretti 9,Milano,45.5078158,9.1335261,,gym,gym
fitprime,1983,MilanoSport Daniele Carella Cantù,Via Arturo Graf,Milano,45.5125329,9.1402162,,gym,gym
fitprime,4387,Quartosport Club,Via Arturo Graf,Milano,45.5126859,9.1386684,,gym,gym
fitprime,4190,BeStrong Milano,"Via Evaristo Baschenis, 11",Milano,45.5099429,9.1330807,,gym,gym
fitprime,1814,Fit Garden,Piazza Primo Maggio 9,Milano,45.4305095,9.112035,,gym,gym
fitprime,2373,MC2 Sport Way,Via Aldo Moro 1,Milano,45.4167191,9.1240614,,gym,gym
fitprime,4376,The Lab Buccinasco,Via F.lli Rosselli,Milano,45.4220049,9.1176377,,gym,gym
fitprime,3482,Palestra Jason Fitness,Via Dante Alighieri 21B,Milano,45.4112317,9.2673402,,gym,gym
fitprime,3474,MilanoFiori Padel Club,Strada 2 n. 7,Milano,45.4010492,9.1489859,,gym,gym
fitprime,489,NamaYoga Studio,Via Antonio Cechov 48,Milano,45.495992,9.114543,,gym,gym
fitprime,3742,LabArtS,Via Carlo Mazzola 1 bis,Milano,45.4440824,9.2946247,,gym,gym
fitprime,3476,MilanoFiori Personal Training,Strada 2/A,Milano,45.4008108,9.1486042,,gym,gym
fitprime,3475,MilanoFiori EMS,Strada 2/A,Milano,45.4008108,9.1486042,,gym,gym
fitprime,4386,Sport Time Corsico,Via Visconti di Modrone,Milano,45.4271754,9.1121338,,gym,gym
fitprime,4354,Sport Time Corsico,Via Visconti di Modrone,Milano,45.4271754,9.1121338,,gym,gym
fitprime,1218,Factory Fitness,Via Giuseppe di Vittorio 59,Milano,45.4271492,9.2855455,,gym,gym
fitprime,4982,Arona Active San Donato Milanese,Via Ferruccio Parri,Milano,45.4075207,9.2632886,,gym,gym
fitprime,1151,CrossFit Ant,Via Veneto 5,Milano,45.415194,9.122707,,gym,gym
fitprime,1419,Fitlevel Palestre - Acerbi,Via Enrico Acerbi n. 34,Milano,45.5284266,9.1744537,,gym,gym
fitprime,1845,Evolution Sport,Via Isonzo 27,Milano,45.444051,9.101261,,gym,gym
fitprime,3828,Studio Atlas,Viale Italia 12,Milano,45.4375589,9.1022628,,gym,gym
fitprime,4037,Little Gym,Via Giosuè Carducci 125,Milano,45.5300042,9.2233554,,gym,gym
fitprime,3514,My Wellness Boutique,"Via Giosuè Carducci, 221",Milano,45.5308497,9.2223111,,gym,gym
fitprime,4282,Athena Functional Training,Via Falcone e Borsellino,Milano,45.5034608,9.282096,,gym,gym
fitprime,3777,Innfit Segrate,Via Falcone e Borsellino 3,Milano,45.5034357,9.2821233,,gym,gym
fitprime,3516,Urban Fitness Assago,"Via Roma, 33",Milano,45.4063415,9.1291039,,gym,gym
fitprime,3583,SportPlus Segrate,"Via Roma, 37",Milano,45.4926752,9.2921157,,gym,gym
fitprime,4607,Savate Boxing Club,Via G. di Vittorio,Milano,45.4048058,9.266611,,gym,gym
fitprime,3035,TJ FITCLUB,Via della Liberazione 16,Milano,45.4023568,9.2634195,,gym,gym
fitprime,3960,20' Training Lab Sesto,Via Felice Cavallotti 257,Milano,45.5303301,9.2346036,,gym,gym
fitprime,2296,Sagittario Club,Via Felice Cavallotti 171,Milano,45.5313966,9.2358772,,gym,gym
fitprime,1092,New Gym by Marconi,Via San Bovio 1-3,Milano,45.4752374,9.3049098,,gym,gym
fitprime,3719,Cs Quadrifoglio,Viale I Maggio,Milano,45.4284924,9.2970427,,gym,gym
fitprime,4032,RX 20 Fitness Boutique Milano,Via Bolla 12,Milano,45.5031072,9.1089923,,gym,gym
fitprime,3863,HANGAR Sport Community,Via Enrico Mattei snc,Milano,45.4885758,9.3005285,,gym,gym
fitprime,1947,CrossFit Segrate,Via Tiepolo,Milano,45.4849478,9.3024592,,gym,gym
fitprime,70,Accademia Kurgan,Via Emilia Reggio 9,Milano,45.4020015,9.1274512,,gym,gym
fitprime,1622,Elite Fitness Segrate,Piazza Centro Commerciale 39,Milano,45.4737619,9.307163,,gym,gym
fitprime,2110,Penta Crossfit,Viale Lombardia 9,Milano,45.3931012,9.2564076,,gym,gym
fitprime,1028,Palestra Moncada,Largo Brugnatelli 5,Milano,45.4093527,9.1134126,,gym,gym
fitprime,1203,Zenfit,Via Edilizia 1,Milano,45.5279816,9.136392,,gym,gym
fitprime,488,Il Sentiero dello Yoga,Via Roma 89,Milano,45.5409284,9.1864057,,gym,gym
fitprime,1318,CrossFit Sesto San Giovanni,Via Pisa 134,Milano,45.531386,9.2553184,,gym,gym
fitprime,84,Spazio Fitness Club,Via Pisa 134,Milano,45.5316,9.25499,,gym,gym
fitprime,3899,Studio Pilates Bresso,Via Galileo Galilei 3,Milano,45.5433283,9.1888785,,gym,gym
fitprime,1725,Palestra Le Lune,via Longarone 7,Milano,45.5246923,9.1215171,,gym,gym
fitprime,4421,Bono Academy,Via Giuseppe Mazzini,Milano,45.5384682,9.2437692,,gym,gym
fitprime,2467,Claw Hammer Milano,Via Giuseppe Mazzini 33,Milano,45.5384682,9.2437692,,gym,gym
fitprime,914,Street Gorilla Gym,Via Vittorio Alfieri 72,Milano,45.3775423,9.1759696,,gym,gym
fitprime,3610,Sport Active Cormano,"Via Giacomo Leopardi, 2",Milano,45.5428644,9.1656522,,gym,gym
fitprime,77,CrossFit The Shelter,Piazza I Maggio,Milano,45.5414869,9.2387832,,gym,gym
fitprime,1160,Albatros,Via Don Sturzo 2,Milano,45.420805,9.3101623,,gym,gym
fitprime,2480,Kick and Punch Rozzano,Via Sardegna 60,Milano,45.374308,9.1714469,,gym,gym
fitprime,1157,CrossFit Corsico,Via Marchesi 20,Milano,45.425177,9.083203,,gym,gym
fitprime,4043,Anytime Fitness Mind,Viale Decumano 41,Milano,45.5196062,9.1010898,,gym,gym
fitprime,3790,Fitness Factory 4.2,Via Martiri di Cefalonia 42,Milano,45.3702427,9.1815489,,gym,gym
fitprime,2999,Gate Sport La Fenice,Via Muggiano 14,Milano,45.4487232,9.0698978,,gym,gym
fitprime,3826,Gb Fitness,Via Giacomo Puccini 60,Milano,45.5472785,9.241574,,gym,gym
fitprime,3892,Crossfit Martesana,Via Walter Tobagi 13,Milano,45.516839,9.3025841,,gym,gym
fitprime,4180,èSport Cinisello Balsamo,Via Giosuè Carducci 3,Milano,45.5548126,9.2164038,,gym,gym
fitprime,2420,20' Training Lab Cinisello Balsamo,Via XXV Aprile,Milano,45.5557131,9.205522,,gym,gym
fitprime,829,Anytime Fitness Cologno Monzese,Via Treviso 5,Milano,45.5346567,9.2861964,,gym,gym
fitprime,779,MSX Sporting Club,Via Virgilio 14,Milano,45.4167528,9.0753921,,gym,gym
fitprime,575,Company of Boxe,Via Stoppani 2,Milano,45.428708,9.067895,,gym,gym
fitprime,4668,Strength\u0026Flex,Via Oreste Terenghi 1,Milano,45.5567425,9.2225364,,gym,gym
fitprime,3575,In Sport Trezzano sul Naviglio,Via Giuseppe di Vittorio,Milano,45.4221832,9.0698308,,gym,gym
fitprime,4385,Pero Sporting Club,Via Papa Giovanni XXIII,Milano,45.5114578,9.0773265,,gym,gym
fitprime,4353,Pero Sporting Club,Via Papa Giovanni XXIII,Milano,45.5114578,9.0773265,,gym,gym
fitprime,4291,Revolution Fit Settimo Milanese,Via Ugo Foscolo 5,Milano,45.4882626,9.0601295,,gym,gym
fitprime,4012,ENERGY ASD,Viale dell'Industria 57,Milano,45.5611263,9.182895,,gym,gym
fitprime,3833,Real Box Crossfit,Via Margherita de Vizzi Viganò 8,Milano,45.5599859,9.2282237,,gym,gym
fitprime,1440,Enjoy Sport,Via Michelangelo Buonarroti 44A,Milano,45.5213904,9.3163628,,gym,gym
fitprime,4931,Fit and Go Settimo Milanese,Piazza degli Eroi,Milano,45.4803194,9.054879,,gym,gym
fitprime,607,GoWater,Via San Vittore 30,Milano,45.358268,9.226673,,gym,gym
fitprime,679,Palestra Energy Cinisello,Via Edmondo de Amicis 67,Milano,45.5646255,9.2269404,,gym,gym
fitprime,1731,Sporting Milano 3,Piazza Marco Polo 3,Milano,45.3578441,9.157233,,gym,gym
fitprime,4645,Metamorphosis - Personal Training Studio,Via Torino 31,Milano,45.5091732,9.3389852,,gym,gym
fitprime,4531,Vibe Fitness Paderno Dugnano,Via Piaggio 82,Milano,45.5650933,9.1508544,,gym,gym
fitprime,921,Innfit,Via Camillo Benso Conte di Cavour 6,Milano,45.5228392,9.331781,,gym,gym
fitprime,3985,20' Training Lab - Brugherio,Via Dante,Milano,45.5490484,9.3007681,,gym,gym
fitprime,3206,Athletic Dance,Via Magnolie 1,Milano,45.3456561,9.1978393,,gym,gym
fitprime,4925,MORE Movement + Rehabilitation,Viale Lombardia,Milano,45.5535749,9.2977744,,gym,gym
fitprime,3003,Molinello Play Village,Via Trecate 52,Milano,45.5365475,9.0625543,,gym,gym
fitprime,4719,CROSSFIT ANKOR MEDIGLIA,Via Vincenzo Monti 6,Milano,45.4225888,9.36613,,gym,gym
fitprime,4040,Holistic Bay,Via Monte Oliveto,Milano,45.577412,9.2577298,,gym,gym
fitprime,3776,Crossfit 1995,Via Lombardia 21,Milano,45.5013727,9.3660383,,gym,gym
fitprime,4937,Veri Sport,Via Terrazzano,Milano,45.5364099,9.0566504,,gym,gym
fitprime,4667,Lombardia Nuoto Cassina Dè Pecchi,Via Radioamatori 1,Milano,45.5157665,9.3604688,,gym,gym
fitprime,1470,Anytime Fitness Monza,Via Solferino 23,Milano,45.577544,9.2658016,,gym,gym
fitprime,4455,6 Padel,Via Aldo Moro 5,Milano,45.5285671,9.0471732,,gym,gym
fitprime,159,Show Dance Club,Via Filippo Meda 16,Milano,45.5835497,9.1490348,,gym,gym
fitprime,674,New Life Center Rho,Via Piave 30,Milano,45.532157,9.0474029,,gym,gym
fitprime,4417,Sport Village Monza,Via Tommaso Campanella,Milano,45.5755424,9.2796181,,gym,gym
fitprime,2545,Prime Fitness Lab Arese,Viale dei Platani 42,Milano,45.5554079,9.0755686,,gym,gym
fitprime,3620,20' Training Lab Rho,"Via Buon Gesù, 27",Milano,45.5252612,9.040535,,gym,gym
fitprime,701,Spartacus Team,Via Cerca 23,Milano,45.4328,9.3788458,,gym,gym
fitprime,1233,Sporting Club Le Bandiere,Via delle Industrie 10,Milano,45.3755675,9.3380453,,gym,gym
fitprime,491,Ironfit Monza Combat,Via Mentana 17,Milano,45.5777538,9.2776069,,gym,gym
fitprime,490,IronFit Monza Crossfit e Strenght,Via Mentana 17,Milano,45.5777538,9.2776069,,gym,gym
fitprime,554,Urban Fitness - Monza,Via Lodovico Pavoni 7,Milano,45.5814478,9.2701082,,gym,gym
fitprime,4844,No Limits,Via Roma N 21,Milano,45.5913435,9.1994911,,gym,gym
fitprime,3200,Corona Ferrea Crossfit,Via Isonzo 26,Milano,45.569397,9.3046256,,gym,gym
fitprime,3783,New Energy Fit Melegnano,Via G. Verdi 3,Milano,45.3634254,9.3270411,,gym,gym
fitprime,1995,Freesport Palestre,Via Moncenisio 16,Milano,45.5841913,9.2648963,,gym,gym
fitprime,4127,Vibe Fitness,Via Bergamo,Milano,45.5915185,9.1740195,,gym,gym
fitprime,1399,Anytime Fitness Rho,Via Giorgio Martinelli 55,Milano,45.5314615,9.0386107,,gym,gym
fitprime,3950,Kinesis Sport Monza,"Via Buccari, 9",Milano,45.5808286,9.2813819,,gym,gym
fitprime,4666,Lombardia Nuoto Arese,Viale Achille Varzi 13,Milano,45.5544816,9.0633807,,gym,gym
fitprime,653,Infinity Club,Via Terni 16,Milano,45.5937947,9.1749221,,gym,gym
fitprime,2078,The Longevity Suite Monza,Piazza Achille Grandi 19,Milano,45.585777,9.2725115,,gym,gym
fitprime,3517,Evolve Always Train Better,"Piazza Giuseppe Garibaldi, 6",Milano,45.5847996,9.2774545,,gym,gym
fitprime,4846,Lido Azzurro,Via F. Rebuzzini 20,Milano,45.5948431,9.1621722,,gym,gym
fitprime,4623,In Sport Carugate,Via Fidelina 26,Milano,45.5535409,9.3447045,,gym,gym
fitprime,559,Spazio Yoga di Federica Stabile,Via Giovanni Cannito 37,Milano,45.3360495,9.0999299,,gym,gym
fitprime,3772,Blue Beach Club,Via Cusago 1,Milano,45.443642,8.9958371,,gym,gym
fitprime,4654,Lombardia Nuoto Garbagnate,Via Monte Nero 15,Milano,45.572488,9.0669082,,gym,gym
fitprime,1076,Urban Fitness Lissone,Via Fratelli Bandiera 4,Milano,45.6026056,9.2475454,,gym,gym
fitprime,4010,20' Training Lab - Monza Libertà,Viale Libertà 94,Milano,45.589822,9.2971662,,gym,gym
fitprime,4121,Pentagym Paullo,Via Giuseppe Mazzini,Milano,45.4171372,9.3998183,,gym,gym
fitprime,3941,Kinesis Sport Agrate Colleoni,Via Cardano 1,Milano,45.5724071,9.336291,,gym,gym
fitprime,604,Events,Viale della Repubblica 116,Milano,45.6039697,9.251732,,gym,gym
fitprime,4007,20' Training Lab - Lissone,Via Montello,Milano,45.6060921,9.2461595,,gym,gym
fitprime,3830,Crossfit No Days Off - Sevenhead,Via Como 34,Milano,45.6048121,9.1422257,,gym,gym
fitprime,3887,Scorpion Studio,Via San Rocco 55,Milano,45.6077445,9.2429486,,gym,gym
fitprime,3911,Crossfit Groane,Via Monte Nero 184,Milano,45.5734672,9.0546712,,gym,gym
fitprime,2087,Kimera Club,Via Carso,Milano,45.4159845,9.4063235,,gym,gym
fitprime,711,Dancers \u0026 Fun,Via Augusto Righi 10,Milano,45.6083631,9.2514328,,gym,gym
fitprime,2748,Forma La Boutique del Movimento,Via Giacomo Puccini,Milano,45.5593777,9.0309612,,gym,gym
fitprime,3935,Kinesis Sport Lissone,via tiziano vecellio 28,Milano,45.6103512,9.249999,,gym,gym
fitprime,3579,In Sport Concorezzo,"Via Pio X, 34",Milano,45.5838356,9.3360067,,gym,gym
fitprime,3473,MC Wellness Club,Via Sant'Agnese 47/B,Milano,45.6136471,9.2453097,,gym,gym
fitprime,4669,Garage Gym Melzo,Via U. La Malfa 39,Milano,45.4898706,9.4186266,,gym,gym
fitprime,3584,Sport Plus Melzo,"Via Bruno Buozzi, 1",Milano,45.4953154,9.4182059,,gym,gym
fitprime,1726,Neomotus Lissone,Via Antonio Pacinotti 60,Milano,45.6126921,9.25742,,gym,gym
fitprime,3940,Kinesis Sport Agrate Brianza,Via Giuseppe Mazzini 31,Milano,45.5775979,9.3513331,,gym,gym
fitprime,403,Hatlex Desio,Via XXV Aprile 2,Milano,45.6185849,9.2162755,,gym,gym
fitprime,3596,Yoly Crossfit,"Via G. Marconi, 20",Milano,45.3308433,9.0658323,,gym,gym
fitprime,695,Lottatori Milano,Via Luigi Einaudi 16,Milano,45.5475591,9.391402,,gym,gym
fitprime,3194,Lainate Padel,Via Circonvallazione Ovest,Milano,45.561968,9.0179794,,gym,gym
fitprime,3795,Crossfit No Days Off Vedano,Via della Misericordia 39,Milano,45.6182141,9.2664149,,gym,gym
fitprime,2899,Gold Academy,Via Mincio 168,Milano,45.6003972,9.0712894,,gym,gym
fitprime,4801,Padel4All,Via Goffredo Mameli 45,Milano,45.6043534,9.317135,,gym,gym
fitprime,4539,Seven Infinity Padel,Via Toscana 7,Milano,45.5309662,9.4169905,,gym,gym
fitprime,3939,SEVEN INFINITY,Via Toscana 7,Milano,45.5309662,9.4169905,,gym,gym
fitprime,732,Brianza Fighting,Viale Risorgimento 32A,Milano,45.6069832,9.3179273,,gym,gym
fitprime,4860,èSport Caronno Pertusella,Via Bergamo,Milano,45.5921821,9.0437089,,gym,gym
fitprime,4035,Fitlab Cesano,Via Enrico Cialdini,Milano,45.6271196,9.1374239,,gym,gym
fitprime,811,The Body,Corso Europa 23,Milano,45.6157994,9.0906992,,gym,gym
fitprime,4977,Palestra Olympia Cesano Maderno,Via Nazionale dei Giovi,Milano,45.6283912,9.139005,,gym,gym
fitprime,396,Eagle Fight Club,Via Giuseppe Mazzini 86,Milano,45.6292109,9.2648971,,gym,gym
fitprime,3581,In Sport Cesano Maderno,"Via Po, 55",Milano,45.6359433,9.1749317,,gym,gym
fitprime,3759,Upgrade Training Center,Via Po 2,Milano,45.5970319,9.3604635,,gym,gym
fitprime,556,Meccanica CrossFit Seregno,Via Cascina Ida 3,Milano,45.6381778,9.2048886,,gym,gym
fitprime,1897,CrossFit Arcore,Via Monte Rosa,Milano,45.6214604,9.3081179,,gym,gym
fitprime,3829,Crossfit No Days Off Seveso,Via Monte Cevedale,Milano,45.6380424,9.1428039,,gym,gym
fitprime,4615,Sporting Club Dance Center Solaro,Via Varese,Milano,45.6178668,9.0659771,,gym,gym
fitprime,3752,Eximus Performance,Via Milano 8,Milano,45.6433174,9.2052385,,gym,gym
fitprime,3597,In Sport Arcore,Viale San Martino,Milano,45.6256663,9.3157262,,gym,gym
fitprime,3931,Kinesis Sport Gessate,Via Aldo Moro 31,Milano,45.5502349,9.4331289,,gym,gym
fitprime,3766,Crossfit Saronno,Viale Lombardia 19,Milano,45.6145971,9.0440019,,gym,gym
fitprime,1339,CrossFit Wild Lions,Via Salvador Allende 8,Milano,45.4175338,8.9365676,,gym,gym
fitprime,694,Fast\u0026Fit Seregno,Via San Vitale 10,Milano,45.6513462,9.2003163,,gym,gym
fitprime,1629,Sovico Fitness Club,Via Silvio Pellico 6,Milano,45.6497225,9.257999,,gym,gym
fitprime,4875,Fisiologym,Piazza della Vittoria,Milano,45.5567589,8.9521116,,gym,gym
fitprime,2303,Gymnasion Parabiago,Via Eugenio Villoresi 14,Milano,45.561861,8.9548495,,gym,gym
fitprime,4511,Sistemha Sport Salute Forma Reformer,Via Giuseppe Parini,Milano,45.6259885,9.0412515,,gym,gym
fitprime,3599,SportPlus Seregno,"Via G. Colombo, 12",Milano,45.659242,9.186222,,gym,gym
fitprime,2495,Club Elettro Fitness Saronno,Via Caduti della Liberazione 24,Milano,45.624412,9.0340566,,gym,gym
fitprime,2554,Pilates PPM Parabiago,Piazza Maggiolini 34,Milano,45.5584674,8.9488765,,gym,gym
fitprime,1638,Club Italian Fitness,Via Circonvallazione 5,Milano,45.3097742,9.0080174,,gym,gym
fitprime,2253,Fit And Go Saronno,Via Solferino 7,Milano,45.626893,9.034133,,gym,gym
fitprime,2487,Mrs.Sporty Saronno,Via Giuseppe Verdi 2,Milano,45.6283739,9.0345529,,gym,gym
fitprime,4512,Sistemha Sport Salute Forma Fitness,Via P. Togliatti,Milano,45.6343229,9.0425058,,gym,gym
fitprime,3767,Crossfit No Days Off  Parabiago,Via Appennini 80,Milano,45.5756111,8.9554696,,gym,gym
fitprime,407,Seven Stars Training,Via Ciucani 21,Milano,45.6039109,9.411082,,gym,gym
fitprime,3677,YOUrbanFit,Via Dante Alighieri 88,Milano,45.3879077,8.9217884,,gym,gym
fitprime,462,3F Studio Pilates,Via Damiano Chiesa 19,Milano,45.3943835,8.9184238,,gym,gym
fitprime,3949,Kinesis Sport Bellusco,Via Brianza 2,Milano,45.6145028,9.4121057,,gym,gym
fitprime,4502,Studio Pilates La Ginnastica,Via Galvani 4,Milano,45.2494947,9.1307336,,gym,gym
fitprime,4147,Up Level Legnano,SS33 del Sempione 33,Milano,45.58411,8.9457692,,gym,gym
fitprime,354,MB Fitness,Via F. Petrarca,Milano,45.6764337,9.2218753,,gym,gym
fitprime,3771,618 Resolution Training,Via Pola 23,Milano,45.6782566,9.209047,,gym,gym
fitprime,4933,Fit and Go Magenta,Via IV Giugno,Milano,45.4665602,8.8827929,,gym,gym
fitprime,3256,Emotion Wellness Center,Via Arti e Mestieri 12,Milano,45.4741799,9.5149719,,gym,gym
fitprime,592,Hyperlift Arena,Via San Gaetano 7,Milano,45.57549,8.92445,,gym,gym
fitprime,4533,CrossFiT DEA,Via Riviera 45,Milano,45.2343708,9.1777426,,gym,gym
fitprime,3574,SportPlusCassano D'Adda,Via Papa Giovanni XXIII,Milano,45.514463,9.512782,,gym,gym
fitprime,603,Ambition Fitness,Via Cosimo Del Fante 19,Milano,45.6011618,8.9400613,,gym,gym
fitprime,3611,Sport Active Giussano,"Via della Conciliazione, 9",Milano,45.6930901,9.2003202,,gym,gym
fitprime,3932,Kinesis Sport Trezzano Rosa,Via Rodari 14,Milano,45.5827555,9.4823352,,gym,gym
fitprime,4004,Stria Aerial Lab Asd,Via Alexander Fleming 160/5,Milano,45.4772929,8.8632816,,gym,gym
fitprime,4044,One to One Studio PT Legnano,Corso Magenta,Milano,45.592486,8.9188441,,gym,gym
fitprime,4272,Mariano Sports Arena,Via Lambro 15,Milano,45.6977554,9.18825,,gym,gym
fitprime,4614,Sporting Club Dance Center Legnano,Via Salvatore Quasimodo,Milano,45.614948,8.9353508,,gym,gym
fitprime,793,CrossFit Mesero,Via Antonio Meucci 6,Milano,45.4970741,8.8587376,,gym,gym
fitprime,792,G.P. Gym,Via Antonio Meucci 2,Milano,45.4970741,8.8587376,,gym,gym
fitprime,4299,Elle Padel Club,Via Monviso,Milano,45.7036576,9.1873747,,gym,gym
fitprime,4664,Lombardia Nuoto Busto Garolfo,Via per Busto Arsizio 102,Milano,45.5519092,8.8766743,,gym,gym
fitprime,2057,Be Fit,Viale Milano,Milano,45.321397,9.4901484,,gym,gym
fitprime,4651,Atomic Shape,Via Carlo Cattaneo,Milano,45.5940995,8.9019993,,gym,gym
fitprime,1236,CrossFit Sempione,Via per Castellanza 15,Milano,45.6049816,8.9089453,,gym,gym
fitprime,925,Free Weights,Via San Rocco 78,Milano,45.688361,9.0543004,,gym,gym
fitprime,2648,Up Level Cermenate,Via Europa Unita 82,Milano,45.6944881,9.0697642,,gym,gym
fitprime,3193,Blu Pandino,Via Roggetto 5,Milano,45.4106575,9.5555421,,gym,gym
fitprime,1489,L'arte del Movimento,Via Lorenzo Cassani 7,Milano,45.2029226,9.1733605,,gym,gym
fitprime,1345,Dynamic Training Lab,Via delle Betulle 17,Milano,45.5996155,8.8882475,,gym,gym
fitprime,3613,Fit and Go Castellanza,Corso G. Matteotti 14,Milano,45.6131706,8.8990989,,gym,gym
fitprime,1743,Zer03 Fitness Club,Via Toscana 67,Milano,45.2887475,9.4771494,,gym,gym
fitprime,3972,T. Academy 20,Via delle Rimembranze 20,Milano,45.61097,8.8956161,,gym,gym
fitprime,1084,Urban Fitness Lodi,Via XX Settembre 18,Milano,45.3117222,9.5040527,,gym,gym
fitprime,3896,Crossfit Tritium,Via Giuseppe Mazzini 70,Milano,45.5981886,9.5177182,,gym,gym
fitprime,4235,20' Training Lab Lodi,Via Aldo Moro,Milano,45.3002314,9.4953801,,gym,gym
fitprime,2381,Crossfit Six Feet Under,Viale Trento 3,Milano,45.6986416,9.0350509,,gym,gym
fitprime,1742,Crossfit Deed,Via Selvagreca 6,Milano,45.3090354,9.5093815,,gym,gym
fitprime,1433,Fit Express Cantù,Via Monte Baldo 30,Milano,45.7258323,9.1640658,,gym,gym
fitprime,4080,CrossFit 268 Cantù,Via Marmolada,Milano,45.7261319,9.1653126,,gym,gym
fitprime,3794,Crossfit No Days Off Cantù,Via Milano 129,Milano,45.7250028,9.1473964,,gym,gym
fitprime,2412,20' Training Lab Pavia,Viale Ludovico Il Moro 46a,Milano,45.1939231,9.1614817,,gym,gym
fitprime,4495,Proforma 2020 - Sant'Angelo Lodigiano,Viale Trento Trieste,Milano,45.2331206,9.4047534,,gym,gym
fitprime,3464,JKS Gym,Via Vercelli 2,Milano,45.1897953,9.1843029,,gym,gym
fitprime,4497,Proforma 2020 - Gerenzago,Via Villanterio,Milano,45.211033,9.3620084,,gym,gym
fitprime,3026,20' Training Lab Vigevano,Corso Milano 6,Milano,45.3209615,8.8621242,,gym,gym
fitprime,1880,Nuotatori Milanesi,Via Europa 6,Milano,45.2293092,9.4117823,,gym,gym
fitprime,1626,Area 4 sas,Via Fratelli Cremona 5,Milano,45.1868713,9.148984,,gym,gym
fitprime,1502,Palestra Vita,Via per Robbiate 60,Milano,45.6873603,9.4230443,,gym,gym
fitprime,1716,Let's Move PT,Via Libertà 39,Milano,45.733463,9.2613598,,gym,gym
fitprime,1715,Let's Move Fitness,Via Libertà 39,Milano,45.733463,9.2613598,,gym,gym
fitprime,4201,Elève Pavia,Via Jacopo Menocchio,Milano,45.185584,9.151232,,gym,gym
fitprime,4100,Remisecenter Pavia,Via Giacomo Franchi 6,Milano,45.1835406,9.1455328,,gym,gym
fitprime,4408,Palestra Olimpic Center Cantù,Via Domea 47,Milano,45.7375751,9.1453525,,gym,gym
fitprime,939,Joyfit,Via Pertini 2,Milano,45.7174393,9.040285,,gym,gym
fitprime,2988,Life\u0026Sport,Via Porta Nuova 27,Milano,45.1807706,9.1590094,,gym,gym
fitprime,4181,MBM Palestre,Via Armando Diaz,Milano,45.3164853,8.8538031,,gym,gym
fitprime,680,Primo Piano Onda Fitness,Via Papa Giovanni XXIII 4,Milano,45.6206878,9.5312246,,gym,gym
fitprime,4733,Rimoldi Fitness Boutique,Via Marsala 12,Milano,45.61727,8.8581817,,gym,gym
fitprime,4228,Olympus Avant Busto Arsizio,Via Osimo 1,Milano,45.6069897,8.8437859,,gym,gym
fitprime,2270,1to1 Fitness  Busto Arsizio,Piazza A. Manzoni 12,Milano,45.611686,8.8459299,,gym,gym
fitprime,3835,Armgym Palestre,Via San Giorgio,Milano,45.6295782,8.8604028,,gym,gym
fitprime,1758,Ego Club,Strada Statale Rivoltana,Milano,45.4763339,9.6141396,,gym,gym
fitprime,3501,Piscina Calusco D'Adda,Via Adda 565,Milano,45.6883157,9.4599968,,gym,gym
fitprime,4939,SPH Lodi,Via per Ca' de' Bolli,Milano,45.2835299,9.5383763,,gym,gym
fitprime,3745,Standup Kinesis,Via Bramante 175,Milano,45.1660325,9.1402294,,gym,gym
fitprime,3302,Crossfit Ticinvm,Via Brodolini 7,Milano,45.165447,9.1315031,,gym,gym
fitprime,4063,Next Palestra,Largo Madre Teresa Cabrini 4,Milano,45.1906326,9.3905705,,gym,gym
fitprime,4006,4MINDS PROJECT ASD,Via Roma 21,Milano,45.7629616,9.1075558,,gym,gym
fitprime,3768,159 Padel,Via Mario Albino Bonicalza 159,Milano,45.6502748,8.8491777,,gym,gym
fitprime,4691,Pole Dance Area Merlese,Via Socrate,Milano,45.7606905,9.0833416,,gym,gym
fitprime,3943,Cryo Dynamic,Piazzetta Sandro Pertini 3,Milano,45.7224063,9.4421434,,gym,gym
fitprime,3525,Padel Park Belgioioso,Piazza Europa,Milano,45.1595636,9.3223669,,gym,gym
fitprime,4091,Victory Gym Garbagnate,"Via Strada Statale 36, km36, 2",Milano,45.7655932,9.3022844,,gym,gym
fitprime,4496,Proforma 2020 - Corteolona,Via Olona,Milano,45.1607839,9.359176,,gym,gym
fitprime,3711,Crossfit Mibe,Via Don Camillo Gandossi 3,Milano,45.6206339,9.5993763,,gym,gym
fitprime,4695,JStudy Dance Institution (Danza),Via Olanda,Milano,45.6514443,8.819725,,gym,gym
fitprime,3922,JStudy Dance Institution,Via Olanda 5,Milano,45.6514443,8.819725,,gym,gym
fitprime,2647,Up Level Gallarate,Viale Milano 99,Milano,45.6467214,8.8147574,,gym,gym
fitprime,1919,Fit Your Life,Via Tramia,Milano,45.1954206,8.917079,,gym,gym
fitprime,3586,SportPlus Villa Guardia,Via Tevere,Milano,45.7740956,9.0287334,,gym,gym
fitprime,4592,Musashi,Via Belvedere,Milano,45.7706917,9.0150103,,gym,gym
fitprime,394,CrossFit V-one,Via Cesare Correnti 2,Milano,45.644298,8.789289,,gym,gym
fitprime,2547,Play Fitness Gallarate,Via Adelaide Ristori 17,Milano,45.6670596,8.8115594,,gym,gym
fitprime,2230,1to1 Fitness Gallarate,Via Torino,Milano,45.6566656,8.7989532,,gym,gym
fitprime,4357,Centro Benessere La Cascade,Via Ruggero Leoncavallo,Milano,45.6370347,9.6193489,,gym,gym
fitprime,3977,20' Training Lab - Gallarate,Largo Guido Camussi,Milano,45.6588714,8.7944703,,gym,gym
fitprime,3616,The Gym Game Mapello,Via XI Febbraio 40,Milano,45.7133039,9.5485348,,gym,gym
fitprime,4824,ASD ZANIIFIT,Via Roma 50,Milano,45.652099,8.7735882,,gym,gym
fitprime,3246,Moves Club Gallarate,Corso Sempione 41,Milano,45.663418,8.7833523,,gym,gym
fitprime,3948,Thunder Top Team,Corso Sempione 39,Milano,45.6649369,8.7767899,,gym,gym
fitprime,2951,Green Padel,Via delle Biolle 78,Milano,45.6479317,8.7606938,,gym,gym
fitprime,4621,SteelGrip Fitness \u0026 Pesistica,Via Cantalupa,Milano,45.6905915,8.8032561,,gym,gym
fitprime,3846,Aquamore Stezzano,Via Carlo Cattaneo 5,Milano,45.6469478,9.6402756,,gym,gym
fitprime,1387,Gfs Training,Via Silvio Pellico 31/B,Milano,45.6465679,9.6454389,,gym,gym
fitprime,803,CrossFit Orobica,Via Giulio Terzi di Sant'Agata,Milano,45.7093196,9.5795703,,gym,gym
fitprime,3034,Piscine Ponte,Via San Clemente 66,Milano,45.7062028,9.5913839,,gym,gym
fitprime,4510,Mabi Fitness Club,Via Manzoni,Milano,45.7043311,8.7916594,,gym,gym
fitprime,737,CrossFit Venkon,Via per Grumello 32,Milano,45.6734837,9.645361,,gym,gym
fitprime,4816,Metabolik Medical Fitness,Via Italia,Milano,45.7123068,9.6055997,,gym,gym
fitprime,3653,Andrea Regazzoni PT,Via Vincenzo Bellini 15,Milano,45.6948411,9.6311788,,gym,gym
fitprime,1239,La Quarenga Fitness,Via Piusano 2,Milano,45.74425,9.58126,,gym,gym
fitprime,1275,CrossFit Brembo,Via Riviera 15,Milano,45.739859,9.607206,,gym,gym
fitprime,4922,Stile Nuoto Quadri,Via Olimpia 10,Milano,45.7352808,9.616357,,gym,gym
fitprime,1224,Seven Club,Via Olimpia 13,Milano,45.7352947,9.6172237,,gym,gym
fitprime,125,Kinesi Club,Via Giordano Bruno 4,Milano,45.1850288,9.639701,,gym,gym
fitprime,4132,Crossfit Varese,Via 1º Maggio 10/A,Milano,45.7722845,8.7852748,,gym,gym
fitprime,3878,Orange Palestre Italiane Roma Termini,Via Giovanni Giolitti 44,Roma,41.8984794,12.5041825,,gym,gym
fitprime,4876,The Hive Spa \u0026 Fitness,Via Torino,Roma,41.8994994,12.4968506,,gym,gym
fitprime,292,Gracie Barra,Viale Castro Pretorio 88,Roma,41.9055556,12.5055325,,gym,gym
fitprime,37,Icon palestre Barberini,Via Barberini 84,Roma,41.9047377,12.4927868,,gym,gym
fitprime,4392,Your Personal Trainer Barberini PT Reformer,Via Barberini 37,Roma,41.9044911,12.4909435,,gym,gym
fitprime,4745,Fit And Go Barberini,Via Barberini 25/27,Roma,41.904403,12.4906922,,gym,gym
fitprime,1425,Fit And Go Roma - Rione Monti,Via del Boschetto 42B,Roma,41.89797,12.49022,,gym,gym
fitprime,4118,ZenLab Yoga,Via Lombardia 30,Roma,41.9075684,12.4884458,,gym,gym
fitprime,4117,ZenLab Mindfulness,Via Lombardia 30,Roma,41.9075684,12.4884458,,gym,gym
fitprime,2018,Urban Wellness,Via Sardegna,Roma,41.9090376,12.4895107,,gym,gym
fitprime,4685,Wip Fitness Studios,Via Labicana,Roma,41.8892145,12.5005738,,gym,gym
fitprime,1046,FitMe 20,Via Savoia 30,Roma,41.9128676,12.4987362,,gym,gym
fitprime,2325,Essenza Spa,Via Alessandria 137,Roma,41.9128679,12.5039152,,gym,gym
fitprime,22,H2o Concept,Via della Pilotta 16,Roma,41.8974069,12.4849294,,gym,gym
fitprime,3,CrossFit Villa Albani,Via Salaria 105,Roma,41.91394,12.49742,,gym,gym
fitprime,2124,Dabliu Margherita,Viale Regina Margherita 210,Roma,41.9140129,12.5046691,,gym,gym
fitprime,2059,Ginnastica Roma PT,Viale del Muro Torto,Roma,41.908581,12.4861786,,gym,gym
fitprime,4221,Reform Fit Me 20,Via Nizza,Roma,41.9143553,12.5039511,,gym,gym
fitprime,2611,Heaven Villa Borghese,Viale del Galoppatoio 33,Roma,41.9092112,12.4861835,,gym,gym
fitprime,1397,Fit And Go Roma Trieste,Via Alessandria 226,Roma,41.9147563,12.5072401,,gym,gym
fitprime,291,Fit and Go Parioli,Via Salaria 126,Roma,41.9154505,12.4971702,,gym,gym
fitprime,3345,Aria Pilates,Corso Trieste 147,Roma,41.9150377,12.5079893,,gym,gym
fitprime,4196,Beauty \u0026 Fit,Via del Piè di Marmo 2,Roma,41.8975238,12.4787642,,gym,gym
fitprime,4640,Fit and Go Piazza Bologna,Via della Lega Lombarda,Roma,41.9093344,12.5220679,,gym,gym
fitprime,113,San Giovanni Sport Club,Via Veio 27,Roma,41.8842959,12.5101245,,gym,gym
fitprime,787,Fit and Go San Giovanni,Via Pontremoli 9,Roma,41.8847019,12.5114397,,gym,gym
fitprime,1506,Barrio de la Salsa - San Giovanni,Via Taranto 32A,Roma,41.8847576,12.5133456,,gym,gym
fitprime,1653,EKAM Yoga Lab,Via del Tempio 1a,Roma,41.8920728,12.4772466,,gym,gym
fitprime,4315,Essenza Spa Via Fregene,Via Fregene 29,Roma,41.8820903,12.5102849,,gym,gym
fitprime,57,Omega Fitness Club,Via del Monte della Farina 14,Roma,41.8952392,12.4751388,,gym,gym
fitprime,3486,Matahari Yoga Space Piceno,Via Ascoli Piceno 33,Roma,41.8902919,12.52568,,gym,gym
fitprime,2331,Crossfit Prati,Lungotevere Prati 21/A,Roma,41.9048014,12.4730633,,gym,gym
fitprime,1927,Aquatime Water Fitness Trieste,Corso Trieste,Roma,41.9215135,12.5102648,,gym,gym
fitprime,4331,Plexus,Via Arenula 53,Roma,41.8920734,12.4748369,,gym,gym
fitprime,1627,YogaPerLaPelle,Via di S. Orsola 33,Roma,41.9150171,12.5238704,,gym,gym
fitprime,1628,YogaPerLaPelle - Personal Training,Via di S. Orsola,Roma,41.9150716,12.5238145,,gym,gym
fitprime,1925,Anytime Fitness Magnifico,Via Lorenzo il Magnifico 156,Roma,41.9109291,12.5284273,,gym,gym
fitprime,2334,La Salle Italia Sport,Via di Santa Prisca 7,Roma,41.8821409,12.4839212,,gym,gym
fitprime,2113,Zem Yoga Studio,Corso Vittorio Emanuele II,Roma,41.8972415,12.4707227,,gym,gym
fitprime,519,L'Art de la Danse,Via Pisa 17,Roma,41.9166358,12.5241139,,gym,gym
fitprime,2123,Dabliu Parioli,Viale Romania 22,Roma,41.9238143,12.4927315,,gym,gym
fitprime,3484,Your Personal Trainer Prati Open Gym,Via Lucrezio Caro 33,Roma,41.9074063,12.4699186,,gym,gym
fitprime,3217,Your Personal Trainer Prati PT,Via Lucrezio Caro 33,Roma,41.9074063,12.4699186,,gym,gym
fitprime,110,Yoga Suite Centro,Via Flaminia 86,Roma,41.9158936,12.4755592,,gym,gym
fitprime,4538,Urban Fitness Roma Prati,Via Ennio Quirino Visconti 46,Roma,41.9074185,12.4693957,,gym,gym
fitprime,1194,Fancy Beauty Wellness,Via dei Banchi Nuovi 39,Roma,41.8992491,12.467974,,gym,gym
fitprime,1711,Gyrotonic Villa Ada,Via Fogliano 2c,Roma,41.9255775,12.5064601,,gym,gym
fitprime,4391,Your Personal Trainer Piazza Bologna Open Gym,Via Salento 57,Roma,41.9180826,12.5258443,,gym,gym
fitprime,2815,Your Personal Trainer Vescovio PT,Via Magliano Sabina 64/66,Roma,41.9181122,12.526149,,gym,gym
fitprime,30,H2o Fitness Center,Via del Pigneto 108,Roma,41.887802,12.5302946,,gym,gym
fitprime,210,Club Urbani,Via Giuseppe Angelo Colini,Roma,41.9209267,12.5232742,,gym,gym
fitprime,343,Elite Training Lab,Via di Sant'Agnese 4,Roma,41.9232523,12.5193017,,gym,gym
fitprime,4430,Your Personal Trainer Parioli Reformer e Yoga Small Group,Via Giuseppe Luigi Lagrange,Roma,41.9248964,12.4863559,,gym,gym
fitprime,4429,Your Personal Trainer Parioli Open Gym,Via Giuseppe Luigi Lagrange,Roma,41.9248964,12.4863559,,gym,gym
fitprime,4428,Your Personal Trainer Parioli PT Reformer,Via Giuseppe Luigi Lagrange,Roma,41.9248964,12.4863559,,gym,gym
fitprime,36,Icon palestre Tiburtina,Largo Camesena 18,Roma,41.9089601,12.5352069,,gym,gym
fitprime,4212,SPAZIO 74,Viale Parioli,Roma,41.9258298,12.4879095,,gym,gym
fitprime,951,Samila In Motus,Via Costantino Beltrami 25,Roma,41.8757634,12.4875721,,gym,gym
fitprime,741,Urban Fitness Roma - San Giovanni,Via Siria 32,Roma,41.8747708,12.5110353,,gym,gym
fitprime,1884,Top Fitness PT,Via Siria 38,Roma,41.8747412,12.511127,,gym,gym
fitprime,1883,Top Fitness Small Group,Via Siria 38,Roma,41.8747412,12.511127,,gym,gym
fitprime,1881,Top Fitness Vacuum,Via Siria 38,Roma,41.8747412,12.511127,,gym,gym
fitprime,4204,The Gym 33,Via Alberto Tonelli,Roma,41.925416,12.4838616,,gym,gym
fitprime,2101,Fisiokinesi Trieste,"Via Bolzano, 32/A",Roma,41.8749285,12.5133182,,gym,gym
fitprime,2125,Dabliu Prati,Viale Giulio Cesare 43,Roma,41.9111014,12.4658028,,gym,gym
fitprime,1507,Barrio de la Salsa - Tuscolano,Via Assisi 33,Roma,41.8790536,12.5249882,,gym,gym
fitprime,2597,Fit and Go Roma Lanciani,Via di S. Angela Merici 67,Roma,41.92297,12.5256044,,gym,gym
fitprime,2927,Barrio de la Salsa - Pigneto,Via Biordo Michelotti 21,Roma,41.8933251,12.5380975,,gym,gym
fitprime,15,Grow Fit Tiburtina,Via Ugo Pesci 16,Roma,41.9059027,12.5390855,,gym,gym
fitprime,1992,A.s.d Master Fitness \u0026 Combat,Via Lanzone da Corte 13,Roma,41.8893463,12.5362752,,gym,gym
fitprime,1186,Mrs.Sporty Roma Tiburtina,Via Beniamino de Ritis,Roma,41.9090089,12.5381636,,gym,gym
fitprime,2239,New Fitness Roma,Via Terenzio 15,Roma,41.9068641,12.4631389,,gym,gym
fitprime,1402,Fit And Go Roma Prati,Via Terenzio 15/17,Roma,41.9068593,12.4631263,,gym,gym
fitprime,2613,Fit and Go Stazione Tiburtina,Via Eugenio Torelli Viollier 23,Roma,41.9111611,12.5377814,,gym,gym
fitprime,1036,Yogassage Together,Viale Glorioso 14,Roma,41.8853924,12.4679969,,gym,gym
fitprime,348,Benefit Training Studio,Via Costantino Maes 98,Roma,41.9243262,12.525081,,gym,gym
fitprime,4401,Roger Gracie Roma,Via Pietro Ottoboni 44/46/48,Roma,41.9075923,12.5396667,,gym,gym
fitprime,1393,Mister Gym,Viale Amelia 30,Roma,41.878114,12.5262625,,gym,gym
fitprime,4968,Aura Sacred Space,Via degli Ombrellari 44,Roma,41.9042231,12.4610985,,gym,gym
fitprime,1038,Yogassage Artist Studio,Viale Aurelio Saffi 11,Roma,41.8833725,12.4685875,,gym,gym
fitprime,1504,Barrio de la Salsa - Mazzini,Via Ruffini 2,Roma,41.9159753,12.4660498,,gym,gym
fitprime,1601,Palestra Pushup,Via Ruffini 2,Roma,41.9159726,12.4659656,,gym,gym
fitprime,2321,JustFit Roma Prati,Via Silla 82,Roma,41.9076613,12.4600207,,gym,gym
fitprime,4155,Paola Spazio Training,Via della Batteria Nomentana 30,Roma,41.9266534,12.5256292,,gym,gym
fitprime,1822,Never Give Up,Via Archimede 181,Roma,41.9274773,12.478081,,gym,gym
fitprime,4842,Scraper Boxe,Via del Mandrione 63,Roma,41.8808737,12.5337676,,gym,gym
fitprime,4410,LevelFit Ostiense,Piazzale 12 Ottobre 1492 4a,Roma,41.8715881,12.4848231,,gym,gym
fitprime,3461,Omega Fitness Club San Pietro,Via delle Grazie 6,Roma,41.9048064,12.4583345,,gym,gym
fitprime,1388,Fit And Go Prati - Mazzini,Via Monte Zebio 1,Roma,41.9167108,12.4634731,,gym,gym
fitprime,4851,Heaven Sporting Club Prati,Via Silvio Pellico,Roma,41.9123098,12.4606945,,gym,gym
fitprime,4782,Matahari Yoga Space Zenodossio,Via Zenodossio 12,Roma,41.8825986,12.5364523,,gym,gym
fitprime,2829,Flex Fitness,Via San Polo dei Cavalieri 27,Roma,41.9079064,12.5440325,,gym,gym
fitprime,66,La Palestra asd,Via Francesco Antonio Pigafetta 68,Roma,41.8696503,12.4879873,,gym,gym
fitprime,3430,Corallo 2,Via Scirè 31,Roma,41.9295891,12.5232768,,gym,gym
fitprime,78,You Can Dance,Via Gadames 3,Roma,41.9311494,12.5195723,,gym,gym
fitprime,1170,The Cave CrossFit Mandrione,Via del Mandrione 105,Roma,41.8790612,12.5343882,,gym,gym
fitprime,2977,Mia Studio - Sport Benessere,Via Donatello 79,Roma,41.9236667,12.4685344,,gym,gym
fitprime,196,The Bridge Fitness,Via Francesco Antonio Pigafetta 86,Roma,41.8693224,12.488177,,gym,gym
fitprime,4459,Dea Yoga,Via delle Fornaci 29,Roma,41.8990745,12.4563737,,gym,gym
fitprime,1991,Enfasi Studio Gyrotonic,Via Anton da Noli 10,Roma,41.8696982,12.4857142,,gym,gym
fitprime,3857,Fit and Go Flaminio,Via Flaminia 318f,Roma,41.9256292,12.4702977,,gym,gym
fitprime,2593,Elite Training Lab 2.0,Via Tembien 31,Roma,41.9295872,12.5254008,,gym,gym
fitprime,1073,Anytime Fitness Benzoni,Via Girolamo Benzoni 25,Roma,41.8696386,12.4846033,,gym,gym
fitprime,1142,Easyfit Trastevere,Viale di Trastevere 205,Roma,41.8792059,12.4664068,,gym,gym
fitprime,402,Fit and Go Ostiense,Via Anton da Noli 42,Roma,41.8691108,12.4855843,,gym,gym
fitprime,4038,Your Personal Trainer  Vescovio Open gym,Via Magliano Sabina 64,Roma,41.9341439,12.511919,,gym,gym
fitprime,1543,Corallo Fitness Evolution,Via Tuscolana 398,Roma,41.874187,12.5292145,,gym,gym
fitprime,1056,Silver Gym,Via Simone de Saint Bon 5,Roma,41.9112056,12.4567729,,gym,gym
fitprime,1526,Fit and Go - Appio Latino,Via Santa Maria Ausiliatrice 79,Roma,41.8726397,12.5276447,,gym,gym
fitprime,17,Technobody,Via Carlo Denina 51,Roma,41.8709812,12.5245513,,gym,gym
fitprime,399,Fashion Wellness Club,Via Tommaso Gulli 9,Roma,41.9148149,12.45727,,gym,gym
fitprime,38,Icon palestre Prenestina,Via Giorgio Pitacco 9,Roma,41.8937383,12.5477064,,gym,gym
fitprime,1797,G Box,Via dei Durantini 268,Roma,41.917229,12.543601,,gym,gym
fitprime,982,Overload Gym,Via Cristoforo Colombo 112,Roma,41.8657753,12.496111,,gym,gym
fitprime,1505,Barrio de la Salsa - Flaminio,Lungotevere Flaminio 59,Roma,41.9239921,12.4645709,,gym,gym
fitprime,4069,Health Pilates Ardeatino,Via Giacomo Trevis,Roma,41.8654407,12.4986031,,gym,gym
fitprime,760,Fit and Go Somalia,Viale Somalia 196,Roma,41.9347057,12.518685,,gym,gym
fitprime,2225,Club Lanciani,Via di Pietralata 135,Roma,41.9269366,12.5354004,,gym,gym
fitprime,112,Somalia Sport Club,Largo Somalia 60,Roma,41.9359404,12.5151735,,gym,gym
fitprime,1503,Barrio de la Salsa - Viale Somalia,Viale Somalia 201A,Roma,41.9351507,12.5185587,,gym,gym
fitprime,2072,Aquatime Water Fitness Prati,Via Pasquale Leonardi Cattolica 9,Roma,41.9141865,12.4551658,,gym,gym
fitprime,63,Viktory Gym,Via Arrigo Davila 37,Roma,41.869489,12.526276,,gym,gym
fitprime,2461,Viktory Cross training,Via Arrigo Davila 37a,Roma,41.8694968,12.526613,,gym,gym
fitprime,513,Fit Lab Roma,Via Mocenigo 1,Roma,41.9069978,12.4518297,,gym,gym
fitprime,4368,Yogaarte PT,Via Francesco Caracciolo,Roma,41.9082719,12.450409,,gym,gym
fitprime,1840,YogaArte,Via Francesco Caracciolo,Roma,41.9082719,12.450409,,gym,gym
fitprime,1604,Total Body System,Via Lorenzo Valla 16,Roma,41.8748207,12.4633736,,gym,gym
fitprime,2191,Open Air Gym,Via Cristoforo Colombo 194,Roma,41.8620242,12.4968781,,gym,gym
fitprime,945,Anytime Fitness Albano,Via Albano 86,Roma,41.8684441,12.530784,,gym,gym
fitprime,3014,Palaloca Padel Club,Via Cristoforo Colombo 194/B,Roma,41.8613616,12.4964427,,gym,gym
fitprime,95,Crossfit Parioli,Via dei Prati Fiscali 403,Roma,41.9411348,12.5086455,,gym,gym
fitprime,380,Bikram Yoga Aurelia,Via Aurelia 190,Roma,41.900561,12.4462042,,gym,gym
fitprime,1355,FITNESS FUN PRENESTINA,Via Vivaro Romano,Roma,41.8914359,12.5546503,,gym,gym
fitprime,899,Yoga Vibe,Via Giacomo Biga 12,Roma,41.8615083,12.4867332,,gym,gym
fitprime,4030,Beyond Personal Trainer,Via della Meloria,Roma,41.9073962,12.4457612,,gym,gym
fitprime,950,Nippon Club,Via Enrico dal Pozzo 6,Roma,41.8663484,12.469368,,gym,gym
fitprime,1014,Golden Power,Via dei Prati dei Papa,Roma,41.8670279,12.4671809,,gym,gym
fitprime,1495,Anytime Fitness Monteverde,Piazzale Enrico Dunant 27,Roma,41.8725662,12.4587227,,gym,gym
fitprime,4744,Your Personal Trainer Studio Marconi - Open Gym,Via Guido Castelnuovo 35,Roma,41.8638798,12.4733208,,gym,gym
fitprime,4743,Your Personal Trainer Studio Marconi - Small Group,Via Guido Castelnuovo 35,Roma,41.8638798,12.4733208,,gym,gym
fitprime,4742,Your Personal Trainer Studio Marconi - PT,Via Guido Castelnuovo 35,Roma,41.8638877,12.4728914,,gym,gym
fitprime,62,Butterfly,Via di Pietralata 519,Roma,41.9144829,12.5556665,,gym,gym
fitprime,3226,Barrio de la Salsa - Marconi Avicenna,Via Avicenna 25,Roma,41.8639324,12.4719723,,gym,gym
fitprime,1302,Gregory Spa,Largo Cardinale Galamini 20,Roma,41.8965689,12.4429872,,gym,gym
fitprime,2437,Dome - Ponte Milvio Fitness,Via Riano 25,Roma,41.9380978,12.4697257,,gym,gym
fitprime,61,Fitness Dream,Via Ausonia,Roma,41.891982,12.5587854,,gym,gym
fitprime,2054,Studio QuiOra,Via Brennero 47,Roma,41.9390309,12.5307904,,gym,gym
fitprime,4890,Pilates Room Rome,Via Guido Banti,Roma,41.941131,12.4755444,,gym,gym
fitprime,1000,Fleming Home,Via Guido Banti 40,Roma,41.94106,12.47511,,gym,gym
fitprime,1802,Spazio Funzionale PT,Via Quirino Majorana 132,Roma,41.8662644,12.4640395,,gym,gym
fitprime,1654,eFitness Studio,VIA ORSO MARIO CORBINO 20/22,Roma,41.8638727,12.4682866,,gym,gym
fitprime,1859,Officina Pilates PT,Via Filippo Bottazzi 7,Roma,41.8777971,12.4500836,,gym,gym
fitprime,1857,Officina Pilates Small Group,Via Filippo Bottazzi 7,Roma,41.8777971,12.4500836,,gym,gym
fitprime,2252,Movimenti Training Concept Small Group,Via Tuscolana 523,Roma,41.8675833,12.5407975,,gym,gym
fitprime,2251,Movimenti Training Concept PT,Via Tuscolana 523,Roma,41.8675833,12.5407975,,gym,gym
fitprime,1334,Roma X Training,Viale Leonardo da Vinci 80,Roma,41.8590304,12.4804136,,gym,gym
fitprime,4811,Your Personal Trainer Appiano PT,Via Lattanzio 1b/1c,Roma,41.912466,12.4414745,,gym,gym
fitprime,4810,Your Personal Trainer Appiano Open Gym,Via Lattanzio 1b/1c,Roma,41.912466,12.4414745,,gym,gym
fitprime,1140,Centro Sportivo Verderocca,Via Venafro 27,Roma,41.9089242,12.5626781,,gym,gym
fitprime,2132,Studio Pilates Yoga Marconi,Via Gerolamo Cardano 122,Roma,41.8628457,12.4655178,,gym,gym
fitprime,2104,Anytime Fitness Fleming,VIA FLAMINIA VECCHIA 575,Roma,41.9421301,12.4716826,,gym,gym
fitprime,2003,Fitness Fun,Via Mugello,Roma,41.9438467,12.5258269,,gym,gym
fitprime,326,Alice Yoga Roma,Via Filippo Bernardini 16a,Roma,41.8934766,12.4388033,,gym,gym
fitprime,1122,Wow Les Femmes,Viale Adriatico 93,Roma,41.9406281,12.5359091,,gym,gym
fitprime,4540,Anytime Fitness Pamphili,Via Giuseppe Ghislieri 12/b,Roma,41.8744579,12.4484025,,gym,gym
fitprime,581,CrossFit Marconi,Via Alessandro Cruto 13,Roma,41.8615736,12.4657551,,gym,gym
fitprime,2584,A.s.d. Accademia del Movimento,Via delle Betulle 63,Roma,41.8897334,12.5633036,,gym,gym
fitprime,1341,Fit and Go Baldo Degli Ubaldi,Via Giovan Battista Gandino 33,Roma,41.9016557,12.4368712,,gym,gym
fitprime,364,Wilson,Via Bevagna 28,Roma,41.9441233,12.472971,,gym,gym
fitprime,290,Fit and Go Fleming,Via Flaminia,Roma,41.9440512,12.4725881,,gym,gym
fitprime,1961,Vigor Sporting Center,Via Grotta di Gregna,Roma,41.9068086,12.5652446,,gym,gym
fitprime,2563,Fitness Mood Monteverde,Via Albensio Calabrese 7,Roma,41.8774943,12.4446909,,gym,gym
fitprime,333,Training Factory,Viale del Caravaggio 113,Roma,41.852817,12.4972028,,gym,gym
fitprime,851,Fit and Go Balduina,Via Romeo Rodriguez Pereira 122/124,Roma,41.9154561,12.4390282,,gym,gym
fitprime,2628,Altero Boxe,Viale di Valle Aurelia 259,Roma,41.9055827,12.4362774,,gym,gym
fitprime,4797,Motus Roma,Via Montaione 3,Roma,41.948573,12.5144059,,gym,gym
fitprime,1072,Anytime Fitness Valente,Viale Giovanni Battista Valente 161,Roma,41.8992931,12.5663685,,gym,gym
fitprime,4112,Your Personal Trainer Balduina PT/REFORMER,Via Romeo Rodriguez Pereira,Roma,41.9157234,12.4388615,,gym,gym
fitprime,832,Anytime Fitness De Carolis,Via Ugo de Carolis 89,Roma,41.9172953,12.4390252,,gym,gym
fitprime,1165,Essenza Spa Baldo degli Ubaldi,Via Baldo degli Ubaldi 149,Roma,41.899495,12.4348767,,gym,gym
fitprime,1070,Fleming Fitness Academy,Via Città di Castello 20,Roma,41.9464147,12.474411,,gym,gym
fitprime,988,Fit and Go Monteverde,Via Edoardo Jenner 23,Roma,41.8740616,12.4453317,,gym,gym
fitprime,3900,FitClub Salario,Via Cinigiano 26,Roma,41.9498353,12.5139298,,gym,gym
fitprime,389,Fitness Revolution Farnesina,Via degli Orti della Farnesina 54,Roma,41.9417893,12.4627005,,gym,gym
fitprime,1168,The Fox Padel e Calcio,Via Ettore Stampini 36,Roma,41.9040402,12.433926,,gym,gym
fitprime,3731,Ponte Marconi Padel,Lungotevere Dante 3,Roma,41.8584921,12.465538,,gym,gym
fitprime,3730,Ponte Marconi Tennis,Lungotevere Dante 3,Roma,41.8584921,12.465538,,gym,gym
fitprime,3920,Movenable,Piazza Antonio Baldini 23,Roma,41.9407263,12.5440509,,gym,gym
fitprime,4242,Movenable PT,Piazza Antonio Baldini,Roma,41.9406126,12.5442692,,gym,gym
fitprime,381,Gyrotonic Fleming,Via Flaminia 811,Roma,41.9493071,12.4783251,,gym,gym
fitprime,4460,Anytime Fitness Montaione,Via Montaione 50,Roma,41.9510729,12.5162267,,gym,gym
fitprime,1695,Focus Training Studio Small Group,Via Marco Papio 82,Roma,41.8661732,12.5518147,,gym,gym
fitprime,1694,Focus Training Studio PT,Via Marco Papio 82,Roma,41.8661732,12.5518147,,gym,gym
fitprime,1485,Yoganostress Villa Pamphili,Via della Nocetta 30,Roma,41.8803459,12.4376009,,gym,gym
fitprime,3499,Your Personal Trainer Monteverde Open Gym,"Via Maddalena di Canossa, 26/28",Roma,41.8678813,12.4478072,,gym,gym
fitprime,3498,Your Personal Trainer Monteverde PT,"Via Maddalena di Canossa, 26/28",Roma,41.8678813,12.4478072,,gym,gym
fitprime,173,To Live Sports Center,Via Aristide Leonori 8,Roma,41.8504476,12.4864163,,gym,gym
fitprime,1909,Gota Spa,Via dei Castani 139,Roma,41.8831398,12.5665587,,gym,gym
fitprime,2021,Azzurro Sporting Club,Via Vito Giuseppe Galati,Roma,41.9113159,12.5696873,,gym,gym
fitprime,3260,Rambla Vertical,Via Cesarea 17 BIS,Roma,41.8530484,12.4741989,,gym,gym
fitprime,970,Crunch Fitness Club,Via Giovanni de Calvi 27,Roma,41.868718,12.446111,,gym,gym
fitprime,4052,Forte Padel Club,Via Castore Durante,Roma,41.8921678,12.5706997,,gym,gym
fitprime,2037,K2 Space Gym,Viale delle Gardenie,Roma,41.8861916,12.5690901,,gym,gym
fitprime,3394,Health Experience,Piazza di Villa Carpegna 52,Roma,41.8954484,12.4304907,,gym,gym
fitprime,2145,Anytime Fitness Tuscolana,Via Tuscolana 892,Roma,41.8628632,12.5505646,,gym,gym
fitprime,1139,Anytime Fitness Magliana,Via della Magliana 63,Roma,41.8578219,12.4595365,,gym,gym
fitprime,1310,Sporting Club Mandingo,Via delle Robinie 69,Roma,41.8827252,12.5683652,,gym,gym
fitprime,4763,Miss PT Club,Via Vittorio Spinazzola 44,Roma,41.8772858,12.4369758,,gym,gym
fitprime,561,Yoganostress,Via Vittorio Spinazzola 52,Roma,41.8773266,12.4367359,,gym,gym
fitprime,3655,Gravity Roma,Via Antonio Fogazzaro 28,Roma,41.9411184,12.5492335,,gym,gym
fitprime,3891,Icon Palestre Roma Corso Francia,Via Antonio de Viti de Marco 46D,Roma,41.9498702,12.4700239,,gym,gym
fitprime,1026,Flaminia Sette,Via Tuscania 12,Roma,41.950995,12.4733448,,gym,gym
fitprime,4625,New Padel Panda,Via Nomentana 1070,Roma,41.947242,12.5394744,,gym,gym
fitprime,1619,Centro Pilates Yoga Roma,Viale Ettore Franceschini 144,Roma,41.9113711,12.5727459,,gym,gym
fitprime,807,Poggio Ameno Sporting Club,Via Poggio Ameno 30,Roma,41.8471028,12.4896058,,gym,gym
fitprime,1867,Esse Fitness - PT,Largo Ruspoli Emanuele 24,Roma,41.8580113,12.4554318,,gym,gym
fitprime,4255,Smart Pilates Studio,"Via Domenico Comparetti, 51",Roma,41.9417993,12.5509191,,gym,gym
fitprime,1024,ESSE Fitness,"Largo Emanuele Ruspoli, 24",Roma,41.857878,12.4550228,,gym,gym
fitprime,29,Officine Del Fitness,Via Badia di Cava 80,Roma,41.8474498,12.483601,,gym,gym
fitprime,630,TSG Sporting Club,Lungotevere Dante 311,Roma,41.8518135,12.4676462,,gym,gym
fitprime,3427,Centro Sport Libero - Lezioni Tennis,Lungotevere Dante 277,Roma,41.8517738,12.4661605,,gym,gym
fitprime,3426,Centro Sport Libero - Affitto Campi,Lungotevere Dante 277,Roma,41.8517738,12.4661605,,gym,gym
fitprime,817,Piscina Sporting Club Ostiense,Via dei Cocchieri 1/A,Roma,41.8491378,12.4732599,,gym,gym
fitprime,3764,Stella Azzurra Fit Lab,Via dei Cocchieri 11,Roma,41.8481325,12.4732021,,gym,gym
fitprime,1799,Stella Azzurra Padel Club - Lezioni,Via dei Cocchieri 11,Roma,41.8481303,12.4731916,,gym,gym
fitprime,1423,Stella Azzurra Padel Club,Via dei Cocchieri 11,Roma,41.84812,12.47314,,gym,gym
fitprime,1412,Mefisto Hybrid Training Gym,Via Luigi Perna 19,Roma,41.845884,12.4814,,gym,gym
fitprime,959,Fit and Go Roma Bufalotta,Via della Bufalotta 178,Roma,41.9500915,12.5416795,,gym,gym
fitprime,1472,Eagle Fitness,Via Agliana 26,Roma,41.9584142,12.5167623,,gym,gym
fitprime,306,Icon Palestre Roma Talenti,Via Luigi Capuana 160,Roma,41.9484868,12.5478803,,gym,gym
fitprime,769,Crossfit Excel,Via degli Scolopi,Roma,41.9333549,12.4344914,,gym,gym
fitprime,3894,PiùVista Med Gym Villanova,VIA TIBURTINA KM 26 6 LOC. PONTE LUCANO,Roma,41.9254638,12.5736569,,gym,gym
fitprime,1737,New Excel Sporting Club,Via degli Scolopi 31,Roma,41.9326304,12.4336466,,gym,gym
fitprime,3287,Fit and Go Montagnola,Via Gaetano Trezza 33/35,Roma,41.8423696,12.4849846,,gym,gym
fitprime,3761,Silver Fitness Pineta Sacchetti,Via Giuseppe Moscati 5,Roma,41.9265034,12.4281453,,gym,gym
fitprime,2472,Reform Studio Pilates,Via Flavio Stilicone 238,Roma,41.8596762,12.5599298,,gym,gym
fitprime,3819,Heaven Sporting Club Cortina,Via della Mendola 288,Roma,41.9444084,12.4448423,,gym,gym
fitprime,2822,Smile Fitness Alessandrino,"Via delle Susine, 104",Roma,41.8802047,12.5779361,,gym,gym
fitprime,1219,Lybra Fitness,Via Giangiorgio Trissino 10,Roma,41.9443215,12.5591888,,gym,gym
fitprime,2469,Passion Fitness Tuscolana,Via Flavio Stilicone 238,Roma,41.8588402,12.5612543,,gym,gym
fitprime,2488,Crossfit Acquedotti,Via Flavio Stilicone 238,Roma,41.8584467,12.5611047,,gym,gym
fitprime,4893,Padel Ostiense Sporting Club - Partita Lezione,Via del Mare,Roma,41.8443946,12.467653,,gym,gym
fitprime,1413,Fit Express Boccea,Via di Boccea 280,Roma,41.9037045,12.4178406,,gym,gym
fitprime,2629,Padel Ostiense Sporting Club,Via del Mare,Roma,41.8439981,12.468448,,gym,gym
fitprime,816,Gyrotonic Eur,Via del Mare 128,Roma,41.8439981,12.468448,,gym,gym
fitprime,4048,Icon Palestre Portuense,Viale Isacco Newton,Roma,41.8575904,12.4415509,,gym,gym
fitprime,4867,Volée Padel Tor Tre Teste,"Via Raimondo Targetti, 10",Roma,41.891705,12.5837261,,gym,gym
fitprime,1347,Fit and Go Tiburtina,Via Raffaello Nasini 14,Roma,41.9296229,12.5756711,,gym,gym
fitprime,40,Icon Palestre Nuovo Salario,Via Ugo Della Seta 49,Roma,41.9610434,12.5248047,,gym,gym
fitprime,1192,3T Maxima Padel,Via Raimondo Targetti snc,Roma,41.8914938,12.5843536,,gym,gym
fitprime,1368,Talenti Box Studio Training,Via Mario Rapisardi 51,Roma,41.9463702,12.5594216,,gym,gym
fitprime,1477,Contra Padel,Via Mattia Battistini 149,Roma,41.909463,12.4174392,,gym,gym
fitprime,4914,Your Personal Trainer Roma Cortina -  Open gym,Via del Forte Trionfale,Roma,41.9386087,12.4329368,,gym,gym
fitprime,4913,Your Personal Trainer Roma Cortina Reformer Small Group,Via del Forte Trionfale,Roma,41.9386087,12.4329368,,gym,gym
fitprime,4912,Your Personal Trainer Roma Cortina Reformer PT,Via del Forte Trionfale,Roma,41.9386087,12.4329368,,gym,gym
fitprime,1126,CrossFit Minus,Via di Affogalasino 34,Roma,41.8629325,12.433244,,gym,gym
fitprime,4780,Keymon Fitness,Via Luca Ghini 50,Roma,41.8770908,12.5803865,,gym,gym
fitprime,772,Juventus Nuoto,Via di Bravetta 539,Roma,41.8733645,12.4234525,,gym,gym
fitprime,1331,Fitness Mood Battistini,Via del Forte Braschi 103/B,Roma,41.9125359,12.4162303,,gym,gym
fitprime,2465,Monteverde Club,Via Santorre di Santarosa 68,Roma,41.8520436,12.4446171,,gym,gym
fitprime,4722,Alessandrino Padel,Via Francesco Bonafede 65,Roma,41.8774065,12.5819236,,gym,gym
fitprime,1041,Fit and Go Appio Claudio,Via Quintilio Varo 5,Roma,41.85515,12.56254,,gym,gym
fitprime,278,Training Center,Via Ampio Flaviano 29,Roma,41.8574747,12.5657054,,gym,gym
fitprime,307,Immagine Club Benessere,Via Lucio Papirio 39,Roma,41.8544041,12.5618805,,gym,gym
fitprime,1760,California Gym Center,Via Lucio Papirio 79,Roma,41.8539367,12.5612504,,gym,gym
fitprime,1936,Fitfriends Sporting Club,Via Mario Bianchini,Roma,41.8354917,12.5003866,,gym,gym
fitprime,1052,Prenestina CrossFit,Via Prenestina 697,Roma,41.8942243,12.5896171,,gym,gym
fitprime,1279,Fit on You,Via di Affogalasino 103,Roma,41.855759,12.435715,,gym,gym
fitprime,4436,Acquedotto Padel Club,Via delle Nespole,Roma,41.8777286,12.5848838,,gym,gym
fitprime,2449,Circolo Sportivo Eur Tevere Lezioni Private,Via del Mare 704,Roma,41.84026,12.4631415,,gym,gym
fitprime,2448,Circolo Sportivo Eur Tevere Lezioni di Gruppo,Via del Mare 704,Roma,41.84026,12.4631415,,gym,gym
fitprime,1144,FitZone Roma,Via Boccea 319,Roma,41.9033221,12.4104189,,gym,gym
fitprime,4672,Sport City Life Padel Roma,Via dell'Imbrecciato 181,Roma,41.846119,12.4482026,,gym,gym
fitprime,289,Eden Body Factory,Viale del Tintoretto 310,Roma,41.833178,12.4904661,,gym,gym
fitprime,4383,NBD Over Limit,Via degli Estensi,Roma,41.8704511,12.4186388,,gym,gym
fitprime,164,Wellness Village 1,Via Belforte del Chienti 28,Roma,41.94307,12.57599,,gym,gym
fitprime,717,Quarto Miglio CrossLab,Via Annia Regilla 10/16,Roma,41.8397926,12.546041,,gym,gym
fitprime,1385,EurGym Center,Quadrato della Concordia 2,Roma,41.8359685,12.4662252,,gym,gym
fitprime,2557,HaraBenessere Small Group,Quadrato della Concordia 2a,Roma,41.8359424,12.4663001,,gym,gym
fitprime,1280,HaraBenessere,Quadrato della Concordia 2A,Roma,41.8359336,12.4662867,,gym,gym
fitprime,3797,Fusco Fitness Roma Bufalotta,Largo Luchino Visconti,Roma,41.9666045,12.534836,,gym,gym
fitprime,4873,Fit Attitude,"Via Acerenza,14",Roma,41.8413012,12.5521854,,gym,gym
fitprime,2610,Heaven Eur,Piazza Guglielmo Marconi 6,Roma,41.8336708,12.4717807,,gym,gym
fitprime,1401,Cinecittà 2 Palestre,Viale Palmiro Togliatti 2,Roma,41.8536889,12.5719369,,gym,gym
fitprime,2558,Woliba,Via Laurentina 449,Roma,41.8315411,12.4823981,,gym,gym
fitprime,4847,Fit and go Trionfale,Via Francesco Cherubini 2b,Roma,41.9435124,12.4245031,,gym,gym
fitprime,4850,Icon Palestre Roma Eur,Piazzale Luigi Sturzo 15,Roma,41.8346767,12.4668602,,gym,gym
fitprime,2596,New Fit,"Via dei Buonvisi, 197",Roma,41.852366,12.4314681,,gym,gym
fitprime,1312,CrossFit Torrevecchia,Via Giorgio Spaccarelli 52,Roma,41.9321861,12.4148722,,gym,gym
fitprime,4671,Tiber Sport Center,Via Portuense 727,Roma,41.8513745,12.4321698,,gym,gym
fitprime,4647,Màs Padel Roma,Via della Bufalotta,Roma,41.9644728,12.5458104,,gym,gym
fitprime,4431,Your Personal Trainer Montemario - PT Reformer,Largo Giannina Milli,Roma,41.9435026,12.4227525,,gym,gym
fitprime,4399,Your Personal Trainer Montemario Open Gym,Largo Giannina Milli 10,Roma,41.9435026,12.4227525,,gym,gym
fitprime,4296,Fit and Go Eur Serafico,Via Francesco de Vico 39,Roma,41.8289662,12.4878955,,gym,gym
fitprime,857,Tor Carbone CrossFit,Via di Tor Carbone 41,Roma,41.833,12.5373096,,gym,gym
fitprime,4330,IN20 Fitness Beverino,Via Beverino,Roma,41.9103898,12.4027684,,gym,gym
fitprime,3039,Sama Sporting Padel,Via dei Dumas,Roma,41.9230149,12.406135,,gym,gym
fitprime,2065,Krav Maga MySelf Palestra Ag-Power,Via della Casetta Mattei 393,Roma,41.8578181,12.4196075,,gym,gym
fitprime,588,Sama Sporting,Via dei Dumas,Roma,41.9229788,12.4052295,,gym,gym
fitprime,1319,BoxArea51,Via della Fonte Meravigliosa 34,Roma,41.826446,12.5079735,,gym,gym
fitprime,275,Maximo Sport\u0026Fitness,Via di Casal Boccone 283,Roma,41.9653485,12.5529181,,gym,gym
fitprime,4865,Health Pilates Eur,Viale Pasteur 77,Roma,41.8316266,12.463182,,gym,gym
fitprime,385,Balance 360 Fit Lab,Viale Luca Gaurico 9,Roma,41.8272262,12.4828154,,gym,gym
fitprime,1706,GetBetter Wellness Studio Corsi,Via della Fonte Meravigliosa 54,Roma,41.8260097,12.5080503,,gym,gym
fitprime,1705,GetBetter Wellness Studio,Via della Fonte Meravigliosa 54,Roma,41.8260097,12.5080503,,gym,gym
fitprime,1064,Anytime Fitness Cassia,Via Cassia 701,Roma,41.9638352,12.4447976,,gym,gym
fitprime,961,Crossfit 7478,Via Simone Martini 145,Roma,41.8261719,12.4884458,,gym,gym
fitprime,4751,Roberto Razza - Lago dell' Eur,Passeggiata del Giappone,Roma,41.8306686,12.4635571,,gym,gym
fitprime,1424,CANOTTIERI EUR - CANOA/KAYAK,Passeggiata del Giappone snc,Roma,41.8308186,12.462985,,gym,gym
fitprime,827,Anytime Fitness Boccea,Via Beverino 6,Roma,41.9107225,12.4000452,,gym,gym
fitprime,2275,Physical Village,Via Federico Turano 44,Roma,41.9099755,12.6026171,,gym,gym
fitprime,740,Fierce Grace Roma,Piazzale Giulio Douhet 29,Roma,41.8265508,12.4785769,,gym,gym
fitprime,2956,Reach Fit Studio,Piazzale Giulio Douhet 29,Roma,41.8265031,12.4783445,,gym,gym
fitprime,3551,Yoga Trapeze,"Piazzale Giulio Douhet, 29",Roma,41.8265009,12.4783424,,gym,gym
fitprime,4123,Tacfit Roma,Viale Carmelo Bene,Roma,41.9734534,12.5362065,,gym,gym
fitprime,3818,Heaven Sporting Club Torraccia,Via Francesco Paolo Bonifacio 167,Roma,41.9513846,12.5802142,,gym,gym
fitprime,1193,Fit and Go Fonte Meravigliosa,Via Andrea Meldola 23,Roma,41.8236545,12.5050059,,gym,gym
fitprime,1418,Fonte Meravigliosa Sport,Via Andrea Meldola 178,Roma,41.8234384,12.50956,,gym,gym
fitprime,1166,Essenza Spa Eur,Viale Stefano Gradi 181,Roma,41.8231024,12.5036202,,gym,gym
fitprime,4942,Dario Baldazzi Osteopata - Montagne Rocciose,Via delle Montagne Rocciose,Roma,41.8252695,12.4755467,,gym,gym
fitprime,525,Sporting Club Nuovo Laurentino,Via dei Guastatori 12,Roma,41.8238443,12.483756,,gym,gym
fitprime,1829,AA FIT Eur,Viale Egeo 98,Roma,41.8306321,12.4551597,,gym,gym
fitprime,3670,Dabliu Eur Padel,Viale Egeo 98,Roma,41.8309117,12.4542805,,gym,gym
fitprime,3848,Crossfit Heart of Steel,Via Francesco Paolo Bonifacio,Roma,41.9520123,12.581893,,gym,gym
fitprime,344,Daily Training Sporting Club,Via Alberto Manzi 47,Roma,41.9258292,12.4005246,,gym,gym
fitprime,4720,Crossfit Tempra,Via dei Bevilacqua 41,Roma,41.882847,12.3978519,,gym,gym
fitprime,41,Empire Sport \u0026 Resort,Via degli Aldobrandeschi 115,Roma,41.8776911,12.3995896,,gym,gym
fitprime,4698,Sunny Padel,Via Giulio Vincenzo Bona 103,Roma,41.9265444,12.6028076,,gym,gym
fitprime,4176,The One Padel,Via di Vigna Girelli,Roma,41.8415077,12.4278098,,gym,gym
fitprime,3815,Fusco Fitness Roma EUR,Via Andrea Millevoi 69,Roma,41.820612,12.5171751,,gym,gym
fitprime,2257,Euromar,Viale dell'Umanesimo 38,Roma,41.8217625,12.4754646,,gym,gym
fitprime,1994,Pilates Roma Eur,Viale dei Campioni 20,Roma,41.8254885,12.4593274,,gym,gym
fitprime,2828,Smile Fitness La Rustica,Via Achille Vertunni 131,Roma,41.9100432,12.6109919,,gym,gym
fitprime,2024,The Cave Crossfit Cinecittà,Via Silicella,Roma,41.8605766,12.5985556,,gym,gym
fitprime,3420,Altrome,Via della Pisana 435,Roma,41.8594103,12.4036281,,gym,gym
fitprime,1175,Sporting Club Paradise Calcio,Via delle Capannelle 134,Roma,41.8351143,12.5712169,,gym,gym
fitprime,203,Parco Dei Pini Centro Sportivo,Via di S. Alessandro 354,Roma,41.9566268,12.586383,,gym,gym
fitprime,2293,Parco Dei Pini Padel,Via di Sant'Alessandro 354,Roma,41.9566193,12.586957,,gym,gym
fitprime,4778,VESTA CROSSFIT,Via Cassia 901/T,Roma,41.9702933,12.4343669,,gym,gym
fitprime,4732,Miami Pickleball,Via Giulio Bonasoni 68,Roma,41.8620929,12.6030205,,gym,gym
fitprime,619,Miami Sporting Club,Via Giulio Bonasoni 68,Roma,41.8621335,12.6030514,,gym,gym
fitprime,742,Urban Fitness Roma - Eur,Via Amsterdam 108,Roma,41.8238571,12.4508237,,gym,gym
fitprime,4061,Cryolife,Via Calcutta 50,Roma,41.8237834,12.4457552,,gym,gym
fitprime,4119,Lorenzo Restuccia Difesa Personale Professionale,Via Alcesti 21,Roma,41.8810483,12.6162832,,gym,gym
fitprime,339,Fit and Go Eur,Via Bombay,Roma,41.8233702,12.4454276,,gym,gym
fitprime,58,Sporting Club Paradise Fitness,Via delle Capannelle 134,Roma,41.8309903,12.5739259,,gym,gym
fitprime,4427,Your Personal Trainer Eur Torrino - Reformer Small Group,Via Amsterdam,Roma,41.8217993,12.4479165,,gym,gym
fitprime,584,Nautilus Sporting Center,Via Vincenzo Manzini 135,Roma,41.8469007,12.5970237,,gym,gym
fitprime,1143,Easyfit Casal Monastero,Viale della Torre di Pratolungo 19,Roma,41.945033,12.606423,,gym,gym
fitprime,1027,Ferratella Sporting Club,Via Salvatore Quasimodo 124,Roma,41.8155128,12.4634824,,gym,gym
fitprime,2068,YMCA Prime - Sport Club,Via Severino Delogu,Roma,41.8159353,12.4536407,,gym,gym
fitprime,2241,One To One,Via Alberto Burri 19,Roma,41.8319919,12.5831902,,gym,gym
fitprime,4838,Reserva Padel Club,Via di Torrenova 32,Roma,41.866214,12.6179985,,gym,gym
fitprime,1358,Gym Tonic,Via Cusano Milanino 7,Roma,41.9482906,12.3908495,,gym,gym
fitprime,4936,Globo Padel Club,Via della Cecchignola,Roma,41.8064107,12.5085425,,gym,gym
fitprime,4616,Padel Labarvm,Via Chiusaforte,Roma,41.9957254,12.4897068,,gym,gym
fitprime,4608,Labarvm Sporting Center,Via Chiusaforte 14,Roma,41.9957254,12.4897068,,gym,gym
fitprime,2061,Sport and Fitness Evolution Roma,Via di Casalotti,Roma,41.9161952,12.3749196,,gym,gym
fitprime,408,Crossfit Casalotti,Via di Casalotti 45,Roma,41.9162035,12.3749036,,gym,gym
fitprime,4027,Padel Roma,Via di Tor Pagnotta,Roma,41.8056083,12.5147958,,gym,gym
fitprime,1053,Iron Gym Ottavia,Via Francesco Maria Magni 24,Roma,41.9635738,12.4029118,,gym,gym
fitprime,3372,Box The Shack,Via Maso Finiguerra 125,Roma,41.8422842,12.6082561,,gym,gym
fitprime,2839,Wellapp Torrino Small Group,Via Domenico Jachino 57,Roma,41.8086036,12.4501114,,gym,gym
fitprime,2838,Wellapp Torrino PT,Via Domenico Jachino 57,Roma,41.8086036,12.4501114,,gym,gym
fitprime,4634,All Round Sport \u0026 Wellness,Viale Don Pasquino Borghi 96,Roma,41.8081563,12.4479619,,gym,gym
fitprime,4748,Roberto Razza Studio Personal Trainer,Via Fiume delle Perle,Roma,41.8101407,12.4413102,,gym,gym
fitprime,3054,Aurelia Crossfit,Via Bosco Marengo 15,Roma,41.8931914,12.3651363,,gym,gym
fitprime,439,Le Palme Sporting Club,Via Bosco Marengo,Roma,41.8931914,12.3651363,,gym,gym
fitprime,4750,Roberto Razza - Mar della Cina,Via Mar della Cina,Roma,41.8112845,12.4358454,,gym,gym
fitprime,1989,Papillo Sporting Club,Via Alberto Moravia 380,Roma,41.8009153,12.4722303,,gym,gym
fitprime,4754,Roberto Razza - Via Fiume delle Perle,Via Fiume delle Perle,Roma,41.8091273,12.440316,,gym,gym
fitprime,4639,Mad4Padel,Via Cesare Giulio Viola,Roma,41.8223904,12.4128224,,gym,gym
fitprime,3728,Padel Club Casalotti,Via Borgosesia 315,Roma,41.9074451,12.362731,,gym,gym
fitprime,4626,Grifone Padel,Via Portuense 974,Roma,41.8427742,12.3858688,,gym,gym
fitprime,3876,Orange Palestre Italiane Roma Tor Vergata,Via Mary Pandolfi de Rinaldis 18,Roma,41.8436416,12.6205874,,gym,gym
fitprime,3945,The Body Fit Eur,Via Alberto Litta Modignani  24/26,Roma,41.8049285,12.4396836,,gym,gym
fitprime,1102,CrossFit Ardeatino,Via del Bel Poggio 389,Roma,41.796433,12.5280901,,gym,gym
fitprime,4752,Roberto Razza - Via Pontecorvo,Via Bruno Pontecorvo,Roma,41.7949631,12.4833502,,gym,gym
fitprime,1949,Seven Sporting Club Roma,Via Ranuccio Bianchi Bandinelli,Roma,41.8144837,12.5870201,,gym,gym
fitprime,1105,Torrino Sporting Club,Via Deserto del Gobi 44,Roma,41.8053095,12.4346704,,gym,gym
fitprime,1281,Fit and Go Parco De' Medici,Via Salvatore Rebecchini,Roma,41.8159318,12.4123505,,gym,gym
fitprime,4853,Strenght Lab,Via Lidia Bianchi,Roma,41.9417907,12.3656483,,gym,gym
fitprime,4941,Dario Baldazzi Osteopata,Via Elio Chianesi,Roma,41.79915,12.447387,,gym,gym
fitprime,2609,Heaven Morena,Via Frascineto 67-71,Roma,41.8281997,12.6119638,,gym,gym
fitprime,4130,Cassia Box Academy,Via Giuseppe Reina,Roma,41.987259,12.4057214,,gym,gym
fitprime,4749,Roberto Razza Parco Cascella,Via Andrea Cascella,Roma,41.7994234,12.4354394,,gym,gym
fitprime,1456,Lipo Nevermore,Via Giacomo Brodolini 37,Roma,41.8114397,12.5931535,,gym,gym
fitprime,4753,Roberto Razza - Piazza Crepax,"Piazza Guido Crepax, Roma, RM, Italia",Roma,41.8003324,12.4293713,,gym,gym
fitprime,5051,Middle Earth Fitness Club,Via Monte Nero,Roma,41.9759729,12.6170515,,gym,gym
fitprime,1137,Fit and Go Mezzocammino,Viale Aurelio Galleppini 24/A,Roma,41.8001747,12.4273143,,gym,gym
fitprime,1391,Aurelia sport\u0026fitness Officine,Via Gioele Solari 126,Roma,41.8712965,12.3512446,,gym,gym
fitprime,3663,Amati EMS,Viale Jean Paul Sartre 45,Roma,41.8372265,12.6307457,,gym,gym
fitprime,4755,Roberto Razza - Via Greta Garbo,Via Greta Garbo,Roma,41.7865418,12.4724007,,gym,gym
fitprime,4687,Laya Navakarana Studio,Via Giulio Galli,Roma,41.9921188,12.4020586,,gym,gym
fitprime,2950,Crossfit Tuscolana,Via Spadola 194,Roma,41.8266666,12.625767,,gym,gym
fitprime,2008,Studio Evoluzione Fitness,Largo Guido Martina,Roma,41.7983292,12.419537,,gym,gym
fitprime,3533,Winner Center,"Via Giuseppe Parini, 4/6",Roma,41.9427596,12.6529277,,gym,gym
fitprime,3652,Winner Center - Campi Padel,Via Giuseppe Parini 6,Roma,41.9429769,12.6528676,,gym,gym
fitprime,1136,Sport City Roma,Via Álvaro del Portillo 282,Roma,41.7811797,12.476526,,gym,gym
fitprime,1828,Almus Sporting Village,Via Pontina 497,Roma,41.7857093,12.4505376,,gym,gym
fitprime,927,Centro Manianpama Setteville,Via Giosué Carducci 12,Roma,41.9425935,12.6545458,,gym,gym
fitprime,1001,Colleverde Sport,Via Monginevro 128,Roma,41.9779464,12.6280041,,gym,gym
fitprime,1707,The Longevity Suite Roma Eur,Via Gustavo Giovannoni 51,Roma,41.790117,12.4316918,,gym,gym
fitprime,1535,Fit and Go Ciampino,Viale di Marino 28,Roma,41.7992456,12.6012157,,gym,gym
fitprime,3869,Iron Gym Cassia,Via Domenico Falcioni 4,Roma,41.9972784,12.3903336,,gym,gym
fitprime,1546,Fit and Go Spinaceto,Viale degli Eroi di Rodi 240,Roma,41.7837621,12.4358027,,gym,gym
fitprime,4232,Reverse Amazing Fitness Club,Via di Grotte Portella 30,Roma,41.8423708,12.6528322,,gym,gym
fitprime,221,Evolution Muscle \u0026 Fitness,Via Mura dei Francesi,Roma,41.7973366,12.6076685,,gym,gym
fitprime,3268,Spazio Blu,Via Olga Ossani 7,Roma,41.7744277,12.4415113,,gym,gym
fitprime,1007,One Gym,Via del Monferrato 12,Roma,41.9360355,12.3269269,,gym,gym
fitprime,2374,Ssd Latin World,Via Venezia 33,Roma,41.792459,12.6130469,,gym,gym
fitprime,1158,Ashtanga Yoga Roma Sud,Via di Colle Pizzuto 81/e,Roma,41.827821,12.656853,,gym,gym
fitprime,1496,Anytime Fitness Guidonia Tiburtina,Via Nazionale Tiburtina 194,Roma,41.9521216,12.6925165,,gym,gym
fitprime,629,Olgiata 20.12 Sport Club,Via Guido Cantini 4 Roma,Roma,42.0232906,12.3739671,,gym,gym
fitprime,3984,Tiburtino Padel Club,Via F.lli Gualandi,Roma,41.958214,12.696105,,gym,gym
fitprime,3856,Martial Fitness Palace,Via dei Castagni,Roma,41.9588546,12.6989456,,gym,gym
fitprime,2756,Crossfit 774 Frascati,Via Sciadonna,Roma,41.8124426,12.6790894,,gym,gym
fitprime,928,Centro Manianpama Montecelio,Via Lago Dei Tartari 25,Roma,41.9579479,12.7038844,,gym,gym
fitprime,2077,Crossfit Frascati,Vicolozzo di Spinetta 5,Roma,41.8148224,12.6849903,,gym,gym
fitprime,4898,Your Personal Trainer  Roma Olgiata Reformer Small Group,Via Cassia,Roma,42.0340372,12.376977,,gym,gym
fitprime,4897,Your personal trainer Roma Olgiata Open Gym Yoga,Via Cassia,Roma,42.0340372,12.376977,,gym,gym
fitprime,4896,Your personal trainer Roma Olgiata - PT e Reformer PT,Via Cassia,Roma,42.0340372,12.376977,,gym,gym
fitprime,3921,Fit and Go Olgiata,Via Cassia 2032,Roma,42.0340372,12.376977,,gym,gym
fitprime,889,Tusculum Sport Center,Via Santi Filippo e Giacomo,Roma,41.8071443,12.6814053,,gym,gym
fitprime,4708,Your Personal Trainer Grottaferrata - Reformer Small Group,Via Gabriele D'Annunzio,Roma,41.788883,12.6661169,,gym,gym
fitprime,4701,Your Personal Trainer Grottaferrata - PT Reformer,Via Gabriele D'Annunzio 26,Roma,41.788883,12.6661169,,gym,gym
fitprime,3376,Gyrotonic Axa Palocco PT,"Via Eschilo 72/F, 72/G",Roma,41.7624878,12.3717182,,gym,gym
fitprime,4741,Your Personal Trainer Axa - PT,Via Eschilo 191,Roma,41.7612148,12.3723487,,gym,gym
fitprime,2025,Fit And Go Monterotondo,Via Salaria,Roma,42.0594176,12.5840869,,gym,gym
fitprime,3460,Mirmillo Crossfit,Via Giuseppe Lombardo Radice 20,Roma,41.7701678,12.3550803,,gym,gym
fitprime,2541,PT Elite,Via Vincenzo Bellini 25/28,Roma,41.7875389,12.6719731,,gym,gym
fitprime,2118,Centro Sportivo Babel,Via Tommaso Traetta 70,Roma,41.751487,12.3865906,,gym,gym
fitprime,4254,L18 Sport Village,"Via Laurentina, 1800",Roma,41.7270622,12.5056519,,gym,gym
fitprime,582,Fit and Go Casal Palocco,Via Eschilo 191,Roma,41.7560149,12.3698009,,gym,gym
fitprime,4740,Your Personal Trainer Axa - Reformer Small Group,Via Eschilo 191,Roma,41.7560394,12.3696793,,gym,gym
fitprime,4727,Energym Fit,Via Dora Baltea 47,Roma,42.0403761,12.6446767,,gym,gym
fitprime,1968,Sajama Club,Via della Pedica 163,Roma,41.79077,12.684519,,gym,gym
fitprime,969,Ippocampo Sport Life,Via Cannetacci,Roma,42.0453405,12.6360703,,gym,gym
fitprime,3604,Studio Personal Il Tempio Degli Atleti,Via Cairoli 19,Roma,41.7703253,12.6609912,,gym,gym
fitprime,241,Blue Gym,Via Salaria 161,Roma,42.0647938,12.5932598,,gym,gym
fitprime,4096,Accademia del Nuoto Marino,Via Pietro Nenni,Roma,41.7747353,12.668965,,gym,gym
fitprime,3793,Fusco Fitness Tivoli Terme,Via del Barco 6,Roma,41.9498062,12.7320965,,gym,gym
fitprime,831,Anytime Fitness Guidonia,Viale Roma 230,Roma,41.9847901,12.7147603,,gym,gym
fitprime,2673,Anco Marzio Sporting Club,Via Anco Marzio,Roma,41.9863089,12.7169684,,gym,gym
fitprime,593,Fitnessland,Viale Vittorio Veneto 47,Roma,41.77943,12.68331,,gym,gym
fitprime,4796,Believe Fitness 2.0,Via Nazionale Tiburtina 63,Roma,41.9530013,12.7369164,,gym,gym
fitprime,929,Palasport Mariano Greggi,Via 2 Settembre,Roma,41.8170702,12.7199195,,gym,gym
fitprime,3437,Prestige Guidonia,Viale Roma 140,Roma,41.9922884,12.7221647,,gym,gym
fitprime,4834,Fit and Go Guidonia,Viale Roma 107-109,Roma,41.9927888,12.7232758,,gym,gym
fitprime,1398,Yo Yoga Studio,Via Ostiense 2213,Roma,41.7672435,12.3185648,,gym,gym
fitprime,2031,Blue Team Club,Via Perugia 7,Roma,41.7240454,12.6141371,,gym,gym
fitprime,888,Colosseum Sporting Club,Via Nazionale Tiburtina 265,Roma,41.9556436,12.7545718,,gym,gym
fitprime,3196,Palestra BPower,Via Michele Rosi 203,Roma,41.931356,12.2400618,,gym,gym
fitprime,406,Studio Pilates \u0026 Wellness,Via Umberto Zanotti Bianco 19,Roma,41.7614691,12.3138486,,gym,gym
fitprime,4203,Royalfit,Via Gabriele Torremuzza,Roma,41.7656678,12.305634,,gym,gym
fitprime,494,Villaggio Doria,Via Olivella,Roma,41.730309,12.651249,,gym,gym
fitprime,3947,Totti Soccer School,Via Luigi Pernier 92,Roma,41.7512199,12.3120122,,gym,gym
fitprime,3844,CrossFit 548,Via Sassuolo,Roma,41.6943832,12.5344541,,gym,gym
fitprime,2474,Loft Gym Club,Via Vascarelle 122d,Roma,41.7273337,12.6550664,,gym,gym
fitprime,2701,Albalonga Fitness Academy,Via Quarto Negroni,Roma,41.7116705,12.6296945,,gym,gym
fitprime,4419,Montegentile Sporting Club,Via delle Cerquette 65,Roma,41.7326221,12.6872678,,gym,gym
fitprime,3371,Hangar54 Box FCO,Via Pasquale Cicatiello 11,Roma,41.7578495,12.270999,,gym,gym
fitprime,1427,Fit And Go Fregene,Viale della Pineta di Fregene 52,Roma,41.8602745,12.2055585,,gym,gym
fitprime,4025,Lab 84 Ostia,Via Punta Salina 19,Roma,41.7373608,12.294811,,gym,gym
fitprime,3433,Fitness Lab Gym Pomezia,Via Roma 204,Roma,41.6756191,12.499767,,gym,gym
fitprime,231,Kristal Fitness,Via Loano 1,Roma,41.8410927,12.2079224,,gym,gym
fitprime,4683,Ava Fitness Lab,Via Roma 79,Roma,42.1284545,12.4988074,,gym,gym
fitprime,4682,EMS Ava Fitness Lab,Via Roma 79,Roma,42.1284545,12.4988074,,gym,gym
fitprime,3820,Heaven Sporting Club Ostia,Via Mar dei Sargassi 40,Roma,41.7266843,12.3010276,,gym,gym
fitprime,3770,Fitland Fiumicino,Via Portuense 2415,Roma,41.7729375,12.2443695,,gym,gym
fitprime,3550,Centro Sportivo Castelli Romani,"Via di Vallericcia, 118",Roma,41.704083,12.6612053,,gym,gym
fitprime,4784,Castelli Romani Padel,Via di Vallericcia 118,Roma,41.704083,12.6612061,,gym,gym
fitprime,4047,Judo Club Pomezia,Via Filippo Turati 30,Roma,41.6694277,12.4937845,,gym,gym
fitprime,3552,Modus Vivendi Boxing Club,Via Coni Zugna,Roma,41.7665173,12.2476102,,gym,gym
fitprime,904,Tree Life,Via dei Velieri 107,Roma,41.737464,12.2760261,,gym,gym
fitprime,1145,Easyfit Fiumicino,Piazza Generale Carlo Alberto dalla Chiesa 40,Roma,41.7731022,12.2356147,,gym,gym
fitprime,865,Believe Fitness,Via Valeria,Roma,41.9570818,12.8100964,,gym,gym
fitprime,1238,CrossFit Portvs,Via degli Orti 14,Roma,41.7720005,12.2320641,,gym,gym
fitprime,3367,Centro Olistico Harì,Via Angelo Bovo 4,Roma,41.7603414,12.242409,,gym,gym
fitprime,4883,Di Napoli Boxing Team,Via delle Azzorre,Roma,41.7394283,12.2649211,,gym,gym
fitprime,3929,Black Out Gym Ostia,Via delle Azzorre 451,Roma,41.7394283,12.2649211,,gym,gym
fitprime,2717,Crossfit Cortina - La Rambla,Via di Praia a Mare,Roma,41.8737209,12.1789253,,gym,gym
fitprime,4414,CrossFit RYM,Via Guerrino Perucca,Roma,41.6862021,12.654308,,gym,gym
fitprime,1134,Valeas Club,Via Castagnetta 1,Roma,41.6557112,12.5279206,,gym,gym
fitprime,4489,New Magic Gym,Via Monte Grappa  16/a,Roma,42.024866,12.8044027,,gym,gym
fitprime,4660,Olimpo Sporting Club,Via Quintilio Gentili,Roma,42.1425768,12.3800557,,gym,gym
fitprime,3654,One To One Wellness Club,Via Tiberina 86,Roma,42.1553019,12.592295,,gym,gym
fitprime,4768,Crossfit Spilt 'N Grit,Via Colli San Paolo 3,Roma,41.6630157,12.6515068,,gym,gym
fitprime,4704,Studio Oceano Indiano Wellness,Via Oceano Indiano,Roma,41.6314106,12.4970953,,gym,gym
fitprime,2294,Futura Fitness,Via Pietro Nenni 2,Roma,42.1657142,12.5888128,,gym,gym
fitprime,887,Fara Sport Center,Via Salaria 13,Roma,42.1529004,12.6564476,,gym,gym
fitprime,4924,Xgym Passo Corese,Via Quirina 43,Roma,42.1572287,12.6572523,,gym,gym
fitprime,2962,IN20 Fitness Pedemontana,Via Pedemontana 153,Roma,41.8376811,12.8785709,,gym,gym
fitprime,2969,Titanium Sporting Club,Via Prenestina Nuova,Roma,41.829928,12.8780633,,gym,gym
fitprime,218,ASD Benefyt,Via Stanislao Aureli 3,Roma,42.117295,12.771995,,gym,gym
fitprime,4814,Mami Fitness,Via Pratica di Mare 60,Roma,41.6039352,12.506283,,gym,gym
fitprime,3910,Accademia dello Sport L'Arco,Via di Valle Foresta,Roma,42.0882126,12.1750201,,gym,gym
fitprime,4018,Seven Sports Village,Via Pierangelo Bertoli,Roma,42.0949834,12.1606392,,gym,gym
fitprime,3558,Sensazione Fitness,"Via del Pianoro, 6",Roma,41.5954806,12.6295874,,gym,gym
fitprime,2780,Athena Sporting Club,Via L. Ansuini Guardati,Roma,42.1031557,12.1656058,,gym,gym
fitprime,3419,HER Women Fitness Club,Via delle Margherite 120,Roma,41.5964696,12.6491415,,gym,gym
fitprime,3687,Exclusive Luxury Fitness - APRILIA,Piazza Don Luigi Sturzo 16,Roma,41.5946932,12.64511,,gym,gym
fitprime,4955,Fit and Go Aprilia,Via Guglielmo Marconi,Roma,41.5937516,12.6525247,,gym,gym
fitprime,4774,LevelFit Aprilia,Via dei Bersaglieri 26,Roma,41.58809,12.651975,,gym,gym
fitprime,1361,Icon Palestre Cisterna,Via P. Nenni 31,Roma,41.604062,12.8400438,,gym,gym
fitprime,1885,Fithomeless Parco Valentino,Via Quarto dei Mille 26,Torino,45.0722604,7.6068649,,gym,gym
fitprime,3683,Denny Gym,Strada della Pronda 66/8 Bis,Torino,45.0668714,7.6135202,,gym,gym
fitprime,2070,Spartan Torino,Via Adamello,Torino,45.0707257,7.6159367,,gym,gym
fitprime,2608,Sabaudia Strenght \u0026 Conditioning,Via Sabaudia,Torino,45.070248,7.5821736,,gym,gym
fitprime,3992,20' Training Lab Collegno - Risorgimento,Via Risorgimento,Torino,45.0737816,7.5780949,,gym,gym
fitprime,3725,Dimagrimondo,Via Tiziano Lanza 2,Torino,45.062965,7.5766279,,gym,gym
fitprime,4716,Hung Gar Team Parkour,Parco Porporati,Torino,45.0652936,7.5751721,,gym,gym
fitprime,638,Al Centro Del Movimento,Corso Peschiera 321,Torino,45.0727756,7.6276285,,gym,gym
fitprime,3700,Yoshin Ryu - Sede ROKU,Via Gaetano Donizetti,Torino,45.0759479,7.5699687,,gym,gym
fitprime,3011,Yogando Studio,Via Bardonecchia 135,Torino,45.0720996,7.6317669,,gym,gym
fitprime,1824,Antigravity Torino,Via Bardonecchia 135,Torino,45.0720996,7.6317669,,gym,gym
fitprime,1519,Palestra Vitesse Ginnastica PT e Posturale,Via Giovanni Fattori 52,Torino,45.0697594,7.6320716,,gym,gym
fitprime,774,Palestra Vitesse,Via Giovanni Fattori 52,Torino,45.0698638,7.632469,,gym,gym
fitprime,2612,Fithomeless Parco Ruffini 2,Viale Leonardo Bistolfi,Torino,45.0593581,7.6317288,,gym,gym
fitprime,2074,Isola 108,"Via San Paolo, 160",Torino,45.0678492,7.6375849,,gym,gym
fitprime,3027,20' Training Lab Torino Frejus,Via Fréjus 146,Torino,45.0700486,7.6385565,,gym,gym
fitprime,2096,Fithomeless Parco Ruffini,Corso Trapani,Torino,45.056915,7.634738,,gym,gym
fitprime,4210,Calisthenics Lab Torino,Corso Siracusa 10,Torino,45.0545986,7.6344382,,gym,gym
fitprime,2089,Fithomeless Giardino Gallarate,Via Gallarate 3,Torino,45.0549771,7.636197,,gym,gym
fitprime,1886,Fithomeless Parco della Pellerina,Corso Appio Claudio 148,Torino,45.0851165,7.6374438,,gym,gym
fitprime,3592,Anytime Fitness Torino Lancia,Via Caraglio 84,Torino,45.061616,7.6419221,,gym,gym
fitprime,3058,Eygea,Corso Allamano 70B,Torino,45.0574729,7.5592,,gym,gym
fitprime,2316,Palestre Village Zumaglia,Via Zumaglia 23a,Torino,45.0783521,7.6435429,,gym,gym
fitprime,3989,Yoshin Ryu - Sede KU,Piazza di Robilant Carlo Generale 16,Torino,45.0601595,7.6442029,,gym,gym
fitprime,2071,Performance Empowerment,Via Domodossola 82,Torino,45.0830458,7.6429404,,gym,gym
fitprime,1817,S.U.R.F. PT Studio,Via Domodossola 82,Torino,45.0830458,7.6429404,,gym,gym
fitprime,3699,Yoshin Ryu - Sede SAN,Via Filadelfia,Torino,45.0463306,7.6333173,,gym,gym
fitprime,3990,Yoshin Ryu - Sede JU NI,Via Ignazio Collino 4,Torino,45.0401541,7.6238416,,gym,gym
fitprime,1959,20' Training Lab Torino C.so Siracusa,Corso Siracusa 111,Torino,45.0450711,7.6347323,,gym,gym
fitprime,222,IFIT Corso Svizzera,Corso Svizzera 10,Torino,45.076873,7.6494018,,gym,gym
fitprime,3747,Elite Studios,Via Cesana 17,Torino,45.0698469,7.6508313,,gym,gym
fitprime,4715,Hung Gar Team Via Ivrea,Via Ivrea angolo Via Aosta,Torino,45.0669674,7.5485797,,gym,gym
fitprime,2536,TrainMeUp Torino,Via Fréjus 10/E,Torino,45.0712987,7.651816,,gym,gym
fitprime,1486,IF.TO Heron,Piazza Adriano 6/A,Torino,45.0708895,7.6530188,,gym,gym
fitprime,3946,IF.TO Corso Francia,Corso Francia 83,Torino,45.0757229,7.6530455,,gym,gym
fitprime,3617,TechFitness Torino Pitagora,"Piazza Pitagora, 18/E",Torino,45.0402847,7.6330189,,gym,gym
fitprime,1746,Apd De Coubertin,Via Giovanni Tommaso Terraneo 11,Torino,45.0975085,7.6441412,,gym,gym
fitprime,2148,Next Club Torino,Corso Mediterraneo 86,Torino,45.0556607,7.6550782,,gym,gym
fitprime,4609,Muoviti Fitness Studio,Via Giovanni da Verazzano 64,Torino,45.0557859,7.6554477,,gym,gym
fitprime,4347,Piscina Lombardia TORINO – Asd Unicorno Style,Corso Lombardia 95,Torino,45.0962495,7.6463268,,gym,gym
fitprime,219,Palestra Il Mondo,Via Giovanni da Verazzano 3,Torino,45.060822,7.6590645,,gym,gym
fitprime,2276,Sasp,Corso Tazzoli 78,Torino,45.0340079,7.6321368,,gym,gym
fitprime,937,Fit and Go Torino - Via Vespucci,Via Amerigo Vespucci 50,Torino,45.0571436,7.6601445,,gym,gym
fitprime,1772,Centro Yoga Samadhi,Via Tripoli 181,Torino,45.0365251,7.6412116,,gym,gym
fitprime,2231,Semi di Yug,Via Luigi Leonardo Colli 24,Torino,45.0647504,7.6628772,,gym,gym
fitprime,2093,Fithomeless Piazza D'Armi,Corso Galileo Ferraris,Torino,45.0456513,7.6539915,,gym,gym
fitprime,4295,Studio Pilates Linee,Via Giambattista Gropello,Torino,45.0753879,7.6646114,,gym,gym
fitprime,1723,Visione Yoga,Via Luigi Cibrario 28,Torino,45.0789767,7.6640513,,gym,gym
fitprime,4335,Chinesiofit Personal Training,Via Giambattista Gropello,Torino,45.0756579,7.664782,,gym,gym
fitprime,2095,Fithomeless Parco Grattacielo San Paolo,Corso Inghilterra,Torino,45.0727863,7.6655595,,gym,gym
fitprime,2056,Centro Personal Trainer MG Torino,Via Gian Domenico Cassini,Torino,45.0576466,7.663998,,gym,gym
fitprime,2786,Fit Express Torino San Marino,Via San Marino 31,Torino,45.0365397,7.6465885,,gym,gym
fitprime,1773,Odaka Yoga Torino e Shiatsu,Via Luigi Cibrario 15,Torino,45.077743,7.6662619,,gym,gym
fitprime,216,Palestra Le Colonne,Via Vicenza 16F,Torino,45.08509,7.66425,,gym,gym
fitprime,1962,20' Training Lab Torino C.so Unione Sovietica,Corso Unione Sovietica 159,Torino,45.040481,7.6554836,,gym,gym
fitprime,2492,Squash Point Fitness Club,Via Pier Dionigi Pinelli 4a,Torino,45.0800336,7.6697639,,gym,gym
fitprime,1865,Il Mio Mondo Fitness,Passaggio Privato Mario Leoni 14,Torino,45.0401522,7.6569774,,gym,gym
fitprime,4338,Pilates Room,Corso Re Umberto,Torino,45.0590079,7.6696582,,gym,gym
fitprime,2092,Fithomeless Parco Dora,Parco Dora,Torino,45.0896971,7.666719,,gym,gym
fitprime,1821,Break Fit,Via Pastrengo 15,Torino,45.0593761,7.6709993,,gym,gym
fitprime,2136,Torino Palestre Elite,"Via Ottavio Assarotti, 16",Torino,45.0720845,7.6729451,,gym,gym
fitprime,4633,50 Square Training Studio Turati,Corso Filippo Turati,Torino,45.0542913,7.6701654,,gym,gym
fitprime,3660,Bodytec 011,Via della Cittadella 16,Torino,45.0748067,7.6738366,,gym,gym
fitprime,3808,Fusco Fitness Torino,Corso Filippo Turati 15,Torino,45.0533889,7.670213,,gym,gym
fitprime,4630,Life Changer,Corso Valdocco 3,Torino,45.0760326,7.6737197,,gym,gym
fitprime,5007,Muoviti Fitness Studio 2,"Via San Secondo, 19",Torino,45.0578046,7.6722353,,gym,gym
fitprime,2338,Fitness Garden,Via San Secondo 52/B,Torino,45.0582923,7.6724668,,gym,gym
