canonical_id,venue_name,all_names,sources,address,city,latitude,longitude,categories,price_tier,rating,rating_count,phone,website,opening_hours,has_menu,menu_url,retrieved_at
acdcfd3c482c,Chihuahua Tacos,Chihuahua Tacos,mycia,"Viale Col di Lana, 1, Milano, Italia",Milano,45.4523334,9.181953,"Cocktail Bar, Opzioni Senza Glutine, Ristorante",€€,,,,,Lunedì Chiuso | Martedì 12:00 - 15:00 / 18:30 - 23:00 | Mercoledì 12:00 - 15:00 / 18:30 - 23:00 | Giovedì 12:00 - 15:00 / 18:30 - 23:00 | Venerdì 12:00 - 15:00 / 18:30 - 00:00 | Sabato 12:00 - 15:00 / 18:30 - 00:00 | Domenica 12:00 - 15:00 / 18:30 - 23:00,True,https://www.mycia.it/menu/milano/chihuahua-tacos-tBHgJ7iPU,2026-05-30T17:19:04.702055+00:00
296ae1fc4034,Locatelli MIlano,Locatelli MIlano,mycia,"Via Manfredo Camperio, 15, 20121 Milano MI, Italia",Milano,45.4673775,9.1825876,Ristorante,€€,,,,,Lunedì 12:30 - 14:30 / 19:30 - 22:30 | Martedì 12:30 - 14:30 / 19:30 - 22:30 | Mercoledì 12:30 - 14:30 / 19:30 - 22:30 | Giovedì 12:30 - 14:30 / 19:30 - 22:30 | Venerdì 12:30 - 14:30 / 19:30 - 22:30 | Sabato 19:30 - 22:30 | Domenica Chiuso,False,https://www.mycia.it/menu/milano/locatelli-milano-44fb812c6,2026-05-30T17:19:04.881074+00:00
6b523c648de7,Ristorante Africa,Ristorante Africa,mycia,"Via Lazzaro Palazzi, 9, 20124 Milano, Milano MI, Italia",Milano,45.4766271,9.2047564,Ristorante,€€,,,,,Lunedì 08:00 - 23:45 | Martedì 08:00 - 23:45 | Mercoledì 08:00 - 23:45 | Giovedì 08:00 - 23:45 | Venerdì 08:00 - 23:45 | Sabato 08:00 - 23:45 | Domenica 08:00 - 23:45,False,https://www.mycia.it/menu/milano/ristorante-africa-N91z6AOLQ,2026-05-30T17:19:06.418787+00:00
9cfe1e51414a,101 Tarantella Pizzeria Bistrot,101 Tarantella Pizzeria Bistrot,mycia,"Via Panfilo Castaldi, 17, 20124 Milano MI, Italia",Milano,45.4772962,9.2018984,Pizzeria,€€,,,,,Lunedì Chiuso | Martedì 10:30 - 15:30 / 18:30 - 23:00 | Mercoledì 10:30 - 15:30 / 18:30 - 23:00 | Giovedì 10:30 - 15:30 / 18:30 - 23:00 | Venerdì 10:30 - 15:30 / 18:30 - 23:00 | Sabato 10:30 - 15:30 / 18:30 - 23:00 | Domenica 10:30 - 15:30 / 18:30 - 23:00,False,https://www.mycia.it/menu/milano/101-tarantella-pizzeria-bistrot-8958128eb,2026-05-30T17:19:07.961064+00:00
fc69dd7a7a6f,13pizza&ammore,13pizza&ammore,mycia,"Via Ascanio Sforza, 29, 20136 Milano MI, Italia",Milano,45.449355,9.1777394,"Pizzeria, Ristorante Pizzeria",€€,,,,,Lunedì Chiuso | Martedì 12:00 - 15:00 / 19:00 - 23:30 | Mercoledì 12:00 - 15:00 / 19:00 - 23:30 | Giovedì 12:00 - 15:00 / 19:00 - 23:30 | Venerdì 12:00 - 15:00 / 19:00 - 23:30 | Sabato 12:00 - 15:00 / 19:00 - 23:30 | Domenica 12:00 - 15:00 / 19:00 - 23:30,False,https://www.mycia.it/menu/milano/13pizza-ammore-zQuqYE9va,2026-05-30T17:19:09.501852+00:00
f185c6919294,19.26 Bistrò,19.26 Bistrò,mycia,"Via Milazzo, 6, 20121 Milano MI, Italia",Milano,45.4791125,9.1877255,Ristorante,€€,,,,,Lunedì 12:00 - 14:30 / 18:00 - 23:00 | Martedì 12:00 - 14:30 / 18:00 - 23:00 | Mercoledì 12:00 - 14:30 / 18:00 - 23:00 | Giovedì 12:00 - 14:30 / 18:00 - 23:00 | Venerdì 12:00 - 14:30 / 18:00 - 23:00 | Sabato 12:00 - 14:30 / 18:00 - 23:00 | Domenica 12:00 - 15:00 / 18:00 - 23:00,False,https://www.mycia.it/menu/milano/19-26-bistro-747f4e2a2,2026-05-30T17:19:11.043763+00:00
89149a7ca0a0,20,20,mycia,"Via Celestino IV, 9, Milan, Metropolitan City of Milan, Italy",Milano,45.4596054,9.1821442,CASUAL COCKTAIL BAR,€,,,,,Lunedì 07:00 - 16:00 | Martedì 07:00 - 01:00 | Mercoledì 07:00 - 01:00 | Giovedì 07:00 - 01:00 | Venerdì 07:00 - 01:00 | Sabato 07:00 - 01:00 | Domenica 18:00 - 01:00,True,https://www.mycia.it/menu/milano/20-FevXZ8B5O,2026-05-30T17:19:11.050241+00:00
77e383ad1203,20 CM,20 CM,mycia,"Viale Col di Lana, 8, 20136 Milano MI, Italia",Milano,45.4519688,9.1833395,Fast-Food,€€,,,,,Lunedì 18:30 - 00:00 | Martedì 18:30 - 00:00 | Mercoledì 18:30 - 00:00 | Giovedì 18:30 - 00:00 | Venerdì 18:30 - 00:00 | Sabato 18:30 - 00:00 | Domenica 18:30 - 00:00,False,https://www.mycia.it/menu/milano/20-cm-651c8f03a,2026-05-30T17:19:12.595428+00:00
c1fb1cc46893,28 Posti,28 Posti,mycia,"Via Corsico, 1, 20144 Milano, Milano MI, Italia",Milano,45.4527281,9.1733466,Ristorante,€€€,,,,,Lunedì Chiuso | Martedì 19:30 - 22:30 | Mercoledì 19:30 - 22:30 | Giovedì 19:30 - 22:30 | Venerdì 19:30 - 22:30 | Sabato 19:30 - 22:30 | Domenica Chiuso,False,https://www.mycia.it/menu/milano/28-posti-zBypRbDvZ,2026-05-30T17:19:14.135181+00:00
b8520ce50966,A TAVOLA,A TAVOLA,mycia,"Largo Settimio Severo, 1, 20144 Milano, MI, Italia",Milano,45.4660884,9.1624924,"Bistrot, Cafè",€€,,,,,Lunedì 07:00 - 20:30 | Martedì 07:00 - 20:30 | Mercoledì 07:00 - 20:30 | Giovedì 07:00 - 20:30 | Venerdì 07:00 - 21:00 | Sabato 08:00 - 21:00 | Domenica 09:00 - 20:30,False,https://www.mycia.it/menu/milano/a-tavola-kOmU70jRD,2026-05-30T17:19:15.674962+00:00
737151995d84,A.N.G.56,A.N.G.56,mycia,"Alzaia Naviglio Grande 56, 20144 Milano, Italia",Milano,45.4510473,9.1683638,"Fast-Food, Ristorante",€,,,,,Lunedì Chiuso | Martedì 12:00 - 22:30 | Mercoledì 12:00 - 22:30 | Giovedì 12:00 - 22:30 | Venerdì 12:00 - 00:00 | Sabato 12:00 - 00:00 | Domenica 12:00 - 22:30,False,https://www.mycia.it/menu/milano/a-n-g-56-7qyZ3qCui,2026-05-30T17:19:17.217191+00:00
c4834082a90e,A' MARE RESTAURANT,A' MARE RESTAURANT,mycia,"Via Santa Tecla, 3, 20122 Milano, MI, Italia",Milano,45.4627967,9.193098,Ristorante,€€€,,,,,Lunedì 12:00 - 15:00 / 19:00 - 23:00 | Martedì 12:00 - 15:00 / 19:00 - 23:00 | Mercoledì 12:00 - 15:00 / 19:00 - 23:00 | Giovedì 12:00 - 15:00 / 19:00 - 23:00 | Venerdì 12:00 - 15:00 / 19:00 - 23:00 | Sabato 12:00 - 15:00 / 19:00 - 23:00 | Domenica 12:00 - 15:00,False,https://www.mycia.it/menu/milano/a-mare-restaurant-2nH6gZEnZ,2026-05-30T17:19:18.761319+00:00
bb329489c82c,Abbottega,Abbottega,mycia,"Via Lodovico Muratori, 11, Milano, MI, Italia",Milano,45.4520577,9.2052874,Ristorante,€€,,,,,Lunedì Chiuso | Martedì 12:00 - 15:00 / 18:00 - 00:00 | Mercoledì 12:00 - 15:00 / 18:00 - 00:00 | Giovedì 12:00 - 15:00 / 18:00 - 00:00 | Venerdì 12:00 - 15:00 / 18:00 - 00:00 | Sabato 12:00 - 15:00 / 18:00 - 00:00 | Domenica 12:00 - 15:00 / 18:00 - 00:00,False,https://www.mycia.it/menu/milano/abbottega-kOu9YgP8F,2026-05-30T17:19:20.302942+00:00
3ac7f87b5a89,Abbracci Bistrot,Abbracci Bistrot,mycia,"Via Casale, 7, 20144 Milano, MI, Italia",Milano,45.451474,9.170964,"Bar, Bistrot, Ristorante",€€,,,,,Lunedì 11:00 - 23:30 | Martedì 11:00 - 23:30 | Mercoledì 11:00 - 23:30 | Giovedì 11:00 - 23:30 | Venerdì 11:00 - 23:30 | Sabato 11:00 - 23:30 | Domenica 11:00 - 23:30,True,https://www.mycia.it/menu/milano/abbracci-bistrot-xmMsjEsnF,2026-05-30T17:19:21.850358+00:00
1198d364d5ea,Acanto,Acanto,mycia,"Piazza della Repubblica, 17, 20124 Milano, MI, Italia",Milano,45.4797938,9.1962753,Ristorante,€€€€,,,,,Lunedì 12:30 - 14:30 / 19:30 - 22:30 | Martedì 12:30 - 14:30 / 19:30 - 22:30 | Mercoledì 12:30 - 14:30 / 19:30 - 22:30 | Giovedì 12:30 - 14:30 / 19:30 - 22:30 | Venerdì 12:30 - 14:30 / 19:30 - 22:30 | Sabato 12:30 - 14:30 / 19:30 - 22:30 | Domenica 12:30 - 14:30 / 19:30 - 22:30,False,https://www.mycia.it/menu/milano/acanto-d7b613f4e,2026-05-30T17:19:23.395690+00:00
c9cc0623a517,Acquacheta,Acquacheta,mycia,"Via Erodoto, 2, 20126 Milano MI, Italy",Milano,45.5090037,9.2228169,,€€,,,,,,False,https://www.mycia.it/menu/milano/acquacheta-OmzYJ4rjI,2026-05-30T17:19:24.932704+00:00
53af883a869f,Acquasala - trattoria pugliese,Acquasala - trattoria pugliese,mycia,"Ripa di Porta Ticinese, 71, Milano, MI, Italia",Milano,45.450298,9.169067,Ristorante,,,,,,Lunedì Chiuso | Martedì 12:30 - 14:30 / 19:30 - 00:00 | Mercoledì 12:30 - 14:30 / 19:30 - 00:00 | Giovedì 12:30 - 14:30 / 19:30 - 00:00 | Venerdì 12:30 - 14:30 / 19:30 - 00:00 | Sabato 12:30 - 14:30 / 19:30 - 00:00 | Domenica 12:30 - 14:30 / 19:30 - 00:00,False,https://www.mycia.it/menu/milano/acquasala-trattoria-pugliese-P6K49t3GM,2026-05-30T17:19:26.479377+00:00
e9ae305da7a0,Adulis Restaurant,Adulis Restaurant,mycia,"Via Melzo, 24, 20129 Milano, MI, Italia",Milano,45.4744523,9.2088605,Ristorante,€€,,,,,Lunedì Chiuso | Martedì 11:00 - 15:00 / 18:00 - 02:00 | Mercoledì 11:00 - 15:00 / 18:00 - 02:00 | Giovedì 11:00 - 15:00 / 18:00 - 02:00 | Venerdì 11:00 - 15:00 / 18:00 - 02:00 | Sabato 11:00 - 15:00 / 18:00 - 02:00 | Domenica 11:00 - 15:00 / 18:00 - 02:00,False,https://www.mycia.it/menu/milano/adulis-restaurant-o5iEV3MJD,2026-05-30T17:19:28.018806+00:00
79a9ac3282f9,Affuoco Vino Birra e Ciccia,Affuoco Vino Birra e Ciccia,mycia,"Corso Sempione, Milano MI, Italia",Milano,45.4818129,9.1642779,Tavola Calda,€€,,,,,Lunedì 07:00 - 19:00 | Martedì 07:00 - 19:00 | Mercoledì 07:00 - 19:00 | Giovedì 07:00 - 19:00 | Venerdì 07:00 - 23:30 | Sabato 11:00 - 00:30 | Domenica Chiuso,False,https://www.mycia.it/menu/milano/affuoco-vino-birra-e-ciccia-qVF5WEvbN,2026-05-30T17:19:28.025120+00:00
b351dbae6927,Africa,Africa,mycia,"Via Lazzaro Palazzi, 9, 20124 Milano, Milano MI, Italia",Milano,45.4766271,9.2047564,Ristorante,€€,,,,,Lunedì 10:00 - 00:00 | Martedì 10:00 - 00:00 | Mercoledì 10:00 - 00:00 | Giovedì 10:00 - 00:00 | Venerdì 10:00 - 00:00 | Sabato 10:00 - 00:00 | Domenica 10:00 - 00:00,False,https://www.mycia.it/menu/milano/africa-e2beh9aIK,2026-05-30T17:19:29.565751+00:00
f79d81590e1c,Agua Sancta,Agua Sancta,mycia,"Corso Garibaldi, 110, Milan, Metropolitan City of Milan, Italy",Milano,45.4792375,9.1859923,Cocktail Bar,€€,,,,,Lunedì 11:00 - 02:00 | Martedì 11:00 - 02:00 | Mercoledì 11:00 - 02:00 | Giovedì 11:00 - 02:00 | Venerdì 11:00 - 02:00 | Sabato 11:00 - 02:00 | Domenica 11:00 - 02:00,True,https://www.mycia.it/menu/milano/agua-sancta-5vb7YsraC,2026-05-30T17:19:31.107280+00:00
515f6fddafe7,AI Balestrari sul Naviglio Pavese,AI Balestrari sul Naviglio Pavese,mycia,"Via Ascanio Sforza, 13, Milano, MI, Italia",Milano,45.450374,9.1782245,Ristorante Pizzeria,€€€,,,,,Lunedì 12:30 - 15:30 / 19:30 - 00:00 | Martedì 12:30 - 15:30 / 19:30 - 00:00 | Mercoledì 12:30 - 15:30 / 19:30 - 00:00 | Giovedì 12:30 - 15:30 / 19:30 - 00:00 | Venerdì 12:30 - 15:30 / 19:30 - 00:00 | Sabato 12:30 - 15:30 / 19:30 - 00:00 | Domenica 12:30 - 15:30 / 19:30 - 00:00,False,https://www.mycia.it/menu/milano/ai-balestrari-sul-naviglio-pavese-rXu0w7a1t,2026-05-30T17:19:32.655255+00:00
f7d1bffb0139,Ai Due Orsi,Ai Due Orsi,mycia,"Via Privata Fidenza, 1, 20138 Milano MI, Italy",Milano,45.4276963,9.2496215,,€€,,,,,,False,https://www.mycia.it/menu/milano/ai-due-orsi-tCpbRT06K,2026-05-30T17:19:34.189442+00:00
0ef8eb261f1c,Al Cantinone,Al Cantinone,mycia,"Via Agnello, 19, Milano, MI, Italia",Milano,45.465948,9.1916492,"Osteria, Ristorante",€€€,,,,,Lunedì 12:00 - 15:00 / 19:00 - 22:30 | Martedì 12:00 - 15:00 / 19:00 - 22:30 | Mercoledì 12:00 - 15:00 / 19:00 - 22:30 | Giovedì 12:00 - 15:00 / 19:00 - 22:30 | Venerdì 12:00 - 15:00 / 19:00 - 22:30 | Sabato 12:00 - 15:00 / 19:00 - 22:30 | Domenica 12:00 - 15:00 / 19:00 - 22:30,False,https://www.mycia.it/menu/milano/al-cantinone-iYdyn8zHD,2026-05-30T17:19:35.737654+00:00
e378239a0b9c,Al Coccio,Al Coccio,mycia,"Alzaia Naviglio Pavese, 2, 20143 Milano Milano, Italia",Milano,45.4520357,9.1776055,"Bar, Pub, Ristopub",€€,,,,,Lunedì 12:00 - 16:00 / 20:00 - 02:00 | Martedì 12:00 - 16:00 / 20:00 - 02:00 | Mercoledì 12:00 - 16:00 / 20:00 - 02:00 | Giovedì 12:00 - 16:00 / 20:00 - 02:00 | Venerdì 12:00 - 16:00 / 20:00 - 02:00 | Sabato 13:00 - 02:00 | Domenica 13:00 - 02:00,True,https://www.mycia.it/menu/milano/al-coccio-7noDtURty,2026-05-30T17:19:37.284196+00:00
a42c08777abc,Al Cuoco di Bordo,Al Cuoco di Bordo,mycia,"Via Savona, 10, Milano, MI, Italia",Milano,45.455638,9.168609,Ristorante,€€€,,,,,Lunedì Chiuso | Martedì 13:30 - 14:30 / 19:30 - 22:30 | Mercoledì 12:30 - 14:30 / 19:30 - 22:30 | Giovedì 12:30 - 14:30 / 19:30 - 22:30 | Venerdì 12:30 - 14:30 / 19:30 - 22:30 | Sabato 12:30 - 14:30 / 19:30 - 22:30 | Domenica 12:30 - 14:30 / 19:30 - 22:30,False,https://www.mycia.it/menu/milano/al-cuoco-di-bordo-ChJyKUwu4,2026-05-30T17:19:38.832022+00:00
7dd0f39f674e,Al Meazza Ristorante Pizzeria,Al Meazza Ristorante Pizzeria,mycia,"via Capecelatro 91 angolo piazza Axum, 20148 Milano MI, Italy",Milano,45.4750918,9.1241869,,€€,,,,,,False,https://www.mycia.it/menu/milano/al-meazza-ristorante-pizzeria-uQlQLBgOT,2026-05-30T17:19:40.369297+00:00
90ca4c050ef2,Al mercante,Al mercante,mycia,"Via Cesare Cantù, 7, 20123 Milano, Italia",Milano,45.4638104,9.1864588,"Cafè, Cocktail Bar, Ristorante",€€,,,,,Lunedì 12:00 - 15:00 / 19:00 - 23:00 | Martedì 12:00 - 15:00 / 19:00 - 23:00 | Mercoledì 12:00 - 15:00 / 19:00 - 23:00 | Giovedì 12:00 - 15:00 / 19:00 - 23:00 | Venerdì 12:00 - 15:00 / 19:00 - 23:00 | Sabato 12:00 - 15:00 / 19:00 - 23:00 | Domenica 12:00 - 15:00 / 19:00 - 23:00,True,https://www.mycia.it/menu/milano/al-mercante-QA9AFxUTS,2026-05-30T17:19:41.913837+00:00
97f36c882276,Al panino 900,Al panino 900,mycia,"Via Savona, 2, Milano, Italia",Milano,45.4561967,9.1697913,"Paninoteca, Piadineria",€,,,,,Lunedì 08:00 - 02:00 | Martedì 08:00 - 02:00 | Mercoledì 08:00 - 02:00 | Giovedì 08:00 - 02:00 | Venerdì 08:00 - 02:00 | Sabato 10:00 - 03:00 | Domenica 16:00 - 00:00,False,https://www.mycia.it/menu/milano/al-panino-900-31VKhxn5Y,2026-05-30T17:19:43.469848+00:00
c8e57b01ee87,Al Pulentin,Al Pulentin,mycia,"Via Francesco de Sanctis, 1, 20141 Milano, Milano MI, Italia",Milano,45.4362878,9.1751456,Ristorante,€€,,,,,Lunedì 12:00 - 15:00 / 19:00 - 00:00 | Martedì 12:00 - 15:00 / 19:00 - 00:00 | Mercoledì 12:00 - 15:00 / 19:00 - 00:00 | Giovedì 12:00 - 15:00 / 19:00 - 00:00 | Venerdì 12:00 - 15:00 / 19:00 - 00:00 | Sabato 19:00 - 00:00 | Domenica 12:00 - 15:00,False,https://www.mycia.it/menu/milano/al-pulentin-IsHzFRSYb,2026-05-30T17:19:45.013559+00:00
f698dad94263,All'Origine,All'Origine,mycia,"Via Alfonso Lamarmora, 36, 20122 Milano MI, Italia",Milano,45.4569757,9.2024435,Ristorante,€€€,,,,,Lunedì 12:00 - 15:30 / 19:00 - 23:00 | Martedì 12:00 - 15:30 / 19:00 - 23:00 | Mercoledì 12:00 - 15:30 / 19:00 - 23:00 | Giovedì 12:00 - 15:30 / 19:00 - 23:00 | Venerdì 12:00 - 15:30 / 19:00 - 23:00 | Sabato 19:00 - 23:00 | Domenica Chiuso,False,https://www.mycia.it/menu/milano/all-origine-209ad13a5,2026-05-30T17:19:46.551192+00:00
f1045f9c1e17,Alla Collina Pistoiese,Alla Collina Pistoiese,mycia,"Via Amedei, 1, Milano, MI, Italia",Milano,45.4605191,9.1864421,Ristorante,€€€,,,,,Lunedì 12:30 - 14:30 / 19:30 - 22:30 | Martedì 12:30 - 14:30 / 19:30 - 22:30 | Mercoledì 12:30 - 14:30 / 19:30 - 22:30 | Giovedì 12:30 - 14:30 / 19:30 - 22:30 | Venerdì 12:30 - 22:30 / 19:30 - 22:30 | Sabato 19:30 - 22:30 | Domenica 12:30 - 14:30 / 19:30 - 22:30,False,https://www.mycia.it/menu/milano/alla-collina-pistoiese-NIsvvon9d,2026-05-30T17:19:48.094150+00:00
c6c3c0ee4942,Amico Bar,Amico Bar,mycia,"Via Paolo Sarpi, 26, 20154 Milano Milano, Italia",Milano,45.4815245,9.1768584,"Bar, Tavola Calda",€,,,,,Lunedì 06:30 - 20:30 | Martedì 06:30 - 20:30 | Mercoledì 06:30 - 20:30 | Giovedì 06:30 - 20:30 | Venerdì 06:30 - 20:30 | Sabato 06:30 - 20:30 | Domenica 07:00 - 20:30,True,https://www.mycia.it/menu/milano/amico-bar-goAJnA6fl,2026-05-30T17:19:49.636200+00:00
39ef02cd1219,Anche,Anche,mycia,"Via Carmagnola, 5, Milano, MI, Italia",Milano,45.486684,9.186746,Ristorante,€€,,,,,Lunedì 07:30 - 01:30 | Martedì 07:30 - 01:30 | Mercoledì 07:30 - 01:30 | Giovedì 07:30 - 01:30 | Venerdì 07:30 - 02:00 | Sabato 08:00 - 02:00 | Domenica 08:30 - 01:30,False,https://www.mycia.it/menu/milano/anche-uDSsqgqpU,2026-05-30T17:19:51.178866+00:00
85c3e0d202b7,Andrea Aprea Ristorante,Andrea Aprea Ristorante,mycia,"Corso Venezia, 52, 20122 Milano, MI, Italia",Milano,45.4733505,9.2043065,"Bistrot, Cafè, Ristorante",€€€€,,,,,Lunedì Chiuso | Martedì 19:30 - 22:00 | Mercoledì 19:30 - 22:00 | Giovedì 19:30 - 22:00 | Venerdì 19:30 - 22:00 | Sabato 19:30 - 22:00 | Domenica 19:30 - 22:00,False,https://www.mycia.it/menu/milano/andrea-aprea-ristorante-nPfm1rQ2O,2026-05-30T17:19:52.715383+00:00
1e98e7a9494e,AngoloMilano,AngoloMilano,mycia,"Via Gian Antonio Boltraffio, 18, 20159 Milano MI, Italia",Milano,45.4917967,9.1879961,Ristorante,€€,,,,,Lunedì Chiuso | Martedì 12:00 - 15:00 / 19:00 - 00:00 | Mercoledì 12:00 - 15:00 / 19:00 - 00:00 | Giovedì 12:00 - 15:00 / 19:00 - 00:00 | Venerdì 12:00 - 15:00 / 19:00 - 00:00 | Sabato 12:00 - 15:00 / 19:00 - 00:00 | Domenica 12:00 - 15:00 / 19:00 - 00:00,False,https://www.mycia.it/menu/milano/angolomilano-4c1d77794,2026-05-30T17:19:54.253051+00:00
cd40650652d6,Antica Pizzeria da Giulio,Antica Pizzeria da Giulio,mycia,"Corso San Gottardo, 38, 20136 Milano, Italia",Milano,45.4483295,9.1795333,Ristorante Pizzeria,€,,,,,Lunedì Chiuso | Martedì 12:00 - 15:00 / 19:00 - 00:00 | Mercoledì 12:00 - 15:00 / 19:00 - 00:00 | Giovedì 12:00 - 15:00 / 19:00 - 00:00 | Venerdì 12:00 - 15:00 / 19:00 - 00:00 | Sabato 12:00 - 15:00 / 19:00 - 00:00 | Domenica 12:00 - 15:00 / 19:00 - 00:00,False,https://www.mycia.it/menu/milano/antica-pizzeria-da-giulio-O6gZAeJW0,2026-05-30T17:19:55.803689+00:00
e0011164eb8b,Antico Ristorante,Antico Ristorante,mycia,"Via Piemonte, 17, 20015 Milano, Parabiago MI, Italia",Milano,45.549968,8.92941,Ristorante,€€,,,,,Lunedì Chiuso | Martedì 12:00 - 14:00 / 19:00 - 22:00 | Mercoledì 12:00 - 14:00 / 19:00 - 22:00 | Giovedì 12:00 - 14:00 / 19:00 - 22:00 | Venerdì 12:00 - 14:00 / 19:00 - 22:00 | Sabato 12:00 - 14:00 / 19:00 - 22:00 | Domenica 12:00 - 14:00 / 19:00 - 22:00,False,https://www.mycia.it/menu/milano/antico-ristorante-aD0pi7mES,2026-05-30T17:19:57.351191+00:00
f6a9271b51c3,Antico Ristorante Boeucc,Antico Ristorante Boeucc,mycia,"Piazza Belgioioso, 2, 20121 Milano, MI, Italia",Milano,45.4675919,9.1925523,Ristorante,€€€€,,,,,Lunedì 12:30 - 14:30 / 19:30 - 22:30 | Martedì 12:30 - 14:30 / 19:30 - 22:30 | Mercoledì 12:30 - 14:30 / 19:30 - 22:30 | Giovedì 12:30 - 14:30 / 19:30 - 22:30 | Venerdì 12:30 - 14:30 / 19:30 - 22:30 | Sabato 19:30 - 22:30 | Domenica Chiuso,False,https://www.mycia.it/menu/milano/antico-ristorante-boeucc-a18b7b009,2026-05-30T17:19:58.890206+00:00
d127ff4f1d82,Antonino Il Banco di Cannavacciuolo,Antonino Il Banco di Cannavacciuolo,mycia,"Piazza Città di Lombardia, 1, 20124 Milano, MI, Italia",Milano,45.4866993,9.1962354,"Bar, Tavola Calda",€€,,,,,Lunedì 08:00 - 22:00 | Martedì 08:00 - 22:00 | Mercoledì 08:00 - 22:00 | Giovedì 08:00 - 22:00 | Venerdì 08:00 - 22:00 | Sabato 08:00 - 22:00 | Domenica 08:00 - 22:00,True,https://www.mycia.it/menu/milano/antonino-il-banco-di-cannavacciuolo-5bcBqmsOe,2026-05-30T17:20:00.432318+00:00
e37dffff1fe0,Apollo Milano,Apollo Milano,mycia,"Via Giosuè Borsi, 9/2, Milano, MI, Italia",Milano,45.4472181,9.1734789,PREMIUM COCKTAIL BAR,€€,,,,,Lunedì 19:30 - 00:00 | Martedì Chiuso | Mercoledì 19:30 - 02:00 | Giovedì 19:30 - 02:00 | Venerdì 21:00 - 03:30 | Sabato 21:00 - 03:30 | Domenica Chiuso,True,https://www.mycia.it/menu/milano/apollo-milano-T8qsS1q0q,2026-05-30T17:20:01.987096+00:00
1966c14ea0d5,arena bistrot,arena bistrot,mycia,"Piazza Lega Lombarda, 1, 20154 Milano MI, Italia",Milano,45.4777784,9.1796941,Bistrot,€€€,,,,,Lunedì 12:00 - 14:30 / 18:00 - 02:00 | Martedì 12:00 - 14:30 / 18:00 - 02:00 | Mercoledì 12:00 - 14:30 / 18:00 - 02:00 | Giovedì 12:00 - 14:30 / 18:00 - 02:00 | Venerdì 12:00 - 14:30 / 18:00 - 02:00 | Sabato 12:00 - 14:30 / 18:00 - 02:00 | Domenica Chiuso,False,https://www.mycia.it/menu/milano/arena-bistrot-fWnjh6M0C,2026-05-30T17:20:03.536172+00:00
1f21b8400fe8,Arepa'z,Arepa'z,mycia,"Viale Cassala, 9 (Ang. Via Luigi Sala, 18) 20143, Milano",Milano,45.4471743,9.1589435,Ristorante,€,,,,,Lunedì Chiuso | Martedì 12:00 - 15:00 / 19:00 - 01:00 | Mercoledì 12:00 - 15:00 / 19:00 - 01:00 | Giovedì 12:00 - 15:00 / 19:00 - 01:00 | Venerdì 12:00 - 15:00 / 19:00 - 01:00 | Sabato 12:00 - 15:00 / 19:00 - 01:00 | Domenica 12:30 - 22:00,False,https://www.mycia.it/menu/milano/arepa-z-nQUvCsXOw,2026-05-30T17:20:05.076950+00:00
221af3ce82de,Asola Cucina Sartoriale,Asola Cucina Sartoriale,mycia,"Via Durini, 28, Milan, Metropolitan City of Milan, Italy",Milano,45.4655661,9.1985623,"FASHION COCKTAIL BAR, Ristorante",€€€€,,,,,Lunedì 12:00 - 15:00 | Martedì 12:00 - 15:00 | Mercoledì 12:00 - 15:00 | Giovedì 12:00 - 15:00 | Venerdì 12:00 - 15:00 | Sabato 12:00 - 15:00 | Domenica Chiuso,True,https://www.mycia.it/menu/milano/asola-cucina-sartoriale-Mv0xxnLdJ,2026-05-30T17:20:06.623169+00:00
95167b393c66,aspass,aspass,mycia,"Alzaia Naviglio Grande, 46, Milano MI, Italia",Milano,45.4517923,9.1714348,Ristorante,€€,,,,,Lunedì 00:00 - 00:00 / 17:00 - 01:00 | Martedì 00:00 - 00:00 / 17:00 - 01:00 | Mercoledì 00:00 - 00:00 / 17:00 - 01:00 | Giovedì 00:00 - 00:00 / 17:00 - 01:00 | Venerdì 00:00 - 00:00 / 17:00 - 01:00 | Sabato 00:00 - 00:00 / 11:00 - 01:00 | Domenica 00:00 - 00:00 / 11:00 - 01:00,False,https://www.mycia.it/menu/milano/aspass-EJ7RAVhCB,2026-05-30T17:20:08.169458+00:00
9f73e2d40d16,Asso di Fiori Osteria dei Formaggi,Asso di Fiori Osteria dei Formaggi,mycia,"Alzaia Naviglio Grande, 54, 20144 Milano, MI, Italie",Milano,45.4511704,9.1708703,Osteria,€,,,,,Lunedì 19:00 - 23:30 | Martedì 19:00 - 23:30 | Mercoledì 19:00 - 23:30 | Giovedì 19:00 - 23:30 | Venerdì 19:00 - 23:30 | Sabato 19:00 - 23:30 | Domenica Chiuso,False,https://www.mycia.it/menu/milano/asso-di-fiori-osteria-dei-formaggi-vDbLf1x13,2026-05-30T17:20:09.708610+00:00
4a008bfd40f8,Asso osteria dei Formaggi,Asso osteria dei Formaggi,mycia,"Alzaia Naviglio Grande, 54, Milano, Milano, Italia",Milano,45.4511704,9.1708703,Ristorante,€€,,,,,Lunedì 19:30 - 23:30 | Martedì 19:30 - 23:30 | Mercoledì 19:30 - 23:30 | Giovedì 19:30 - 23:30 | Venerdì 19:30 - 23:30 | Sabato 19:30 - 23:30 | Domenica 19:30 - 23:30,False,https://www.mycia.it/menu/milano/asso-osteria-dei-formaggi-xwFxvbOQT,2026-05-30T17:20:11.266395+00:00
9af2d1ce0141,Aurora,Aurora,mycia,"Via Curtatone, 21, 20122 Milano, MI, Italia",Milano,45.4555314,9.2027767,"Pizzeria, Ristorante",€€,,,,,Lunedì Chiuso | Martedì 19:00 - 21:00 | Mercoledì 19:00 - 21:00 | Giovedì 19:00 - 21:00 | Venerdì 19:00 - 21:00 | Sabato 12:00 - 13:15 / 19:00 - 21:00 | Domenica 12:00 - 13:15 / 19:00 - 21:00,False,https://www.mycia.it/menu/milano/aurora-i46JG0mP7,2026-05-30T17:20:12.817069+00:00
7e32e006cc3a,Avo Brothers,Avo Brothers,mycia,"Via Luigi Porro Lambertenghi, 17, 20159 Milano MI, Italia",Milano,45.4892736,9.1871211,Ristorante,€€,,,,,Lunedì 12:00 - 15:30 / 19:00 - 23:00 | Martedì 12:00 - 15:30 / 19:00 - 23:00 | Mercoledì 12:00 - 15:30 / 19:00 - 23:00 | Giovedì 12:00 - 15:30 / 19:00 - 23:00 | Venerdì 12:00 - 15:30 / 19:00 - 23:00 | Sabato 11:00 - 17:00 / 19:00 - 23:00 | Domenica 11:00 - 17:00 / 19:00 - 23:00,False,https://www.mycia.it/menu/milano/avo-brothers-28237a7b6,2026-05-30T17:20:14.362660+00:00
30d59e7b2e65,Azzurra Grill,Azzurra Grill,mycia,"Via San Gregorio, 11, Milano, MI, Italia",Milano,45.4783392,9.2066319,Ristorante Pizzeria,€€,,,,,Lunedì 12:00 - 15:00 / 19:00 - 23:00 | Martedì 12:00 - 15:00 / 19:00 - 23:00 | Mercoledì 12:00 - 15:00 / 19:00 - 23:00 | Giovedì 12:00 - 15:00 / 19:00 - 23:00 | Venerdì 12:00 - 15:00 / 19:00 - 23:00 | Sabato 18:30 - 23:30 | Domenica Chiuso,False,https://www.mycia.it/menu/milano/azzurra-grill-22KDk7wTV,2026-05-30T17:20:15.908201+00:00
2a3d95b289b6,BALALA HOTPOT,BALALA HOTPOT,mycia,"Via Antonio Rosmini, 14, 20154 Milano, MI, Italia",Milano,45.4808698,9.1748294,Ristorante,€€,,,,,Lunedì 11:00 - 23:30 | Martedì 11:00 - 23:30 | Mercoledì 11:00 - 23:30 | Giovedì 11:00 - 23:30 | Venerdì 11:00 - 23:30 | Sabato 11:00 - 23:30 | Domenica 11:00 - 23:30,False,https://www.mycia.it/menu/milano/balala-hotpot-q6qXWjocg,2026-05-30T17:20:17.448625+00:00
cb8945d5ceac,Banco Cocktailbar e Bistrot,Banco Cocktailbar e Bistrot,mycia,"Alzaia Naviglio Grande, 46, Milan, Metropolitan City of Milan, Italy",Milano,45.4517923,9.1714348,"Bistrot, MIXOLOGY COCKTAIL BAR, PREMIUM COCKTAIL BAR",€,,,,,Lunedì 16:00 - 01:00 | Martedì 16:00 - 01:00 | Mercoledì 16:00 - 01:00 | Giovedì 16:00 - 01:00 | Venerdì 16:00 - 01:00 | Sabato 16:00 - 01:00 | Domenica Chiuso,True,https://www.mycia.it/menu/milano/banco-cocktailbar-e-bistrot-6H4PYokdl,2026-05-30T17:20:18.999057+00:00
bb92a12ec879,BAR 033,BAR 033,mycia,"Via Veglia, 44, Milan, Metropolitan City of Milan, Italy",Milano,45.4987231,9.1945511,CONTEMPORARY BAR,€,,,,,Lunedì 07:00 - 22:00 | Martedì 07:00 - 22:00 | Mercoledì 07:00 - 22:00 | Giovedì 07:00 - 22:00 | Venerdì 07:00 - 22:00 | Sabato 07:00 - 22:00 | Domenica 07:00 - 22:00,True,https://www.mycia.it/menu/milano/bar-033-lUqjMxk5i,2026-05-30T17:20:20.551936+00:00
5ab4833289ba,Bar Gluck,Bar Gluck,mycia,"Via Cristoforo Gluck, 3, Milano, MI, Italia",Milano,45.4910449,9.2071548,Cocktail Bar,€€,,,,,Lunedì 06:00 - 03:00 | Martedì 06:00 - 03:00 | Mercoledì 06:00 - 03:00 | Giovedì 06:00 - 03:00 | Venerdì 06:00 - 03:00 | Sabato 06:00 - 03:00 | Domenica 06:00 - 03:00,True,https://www.mycia.it/menu/milano/bar-gluck-Fe0fwKRp0,2026-05-30T17:20:22.097839+00:00
3a857084f33a,Bar Jolly,Bar Jolly,mycia,"Via Luigi Pirandello, 6, 20144 Milano MI, Italia",Milano,45.4632251,9.1561727,Bar,€€,,,,,Lunedì 00:00 - 00:00 / 07:00 - 12:00 | Martedì 00:00 - 00:00 / 07:00 - 12:00 | Mercoledì 00:00 - 00:00 / 07:00 - 12:00 | Giovedì Chiuso | Venerdì 00:00 - 00:00 / 07:00 - 12:00 | Sabato 00:00 - 00:00 / 07:00 - 12:00 | Domenica 00:00 - 00:00 / 07:00 - 12:00,True,https://www.mycia.it/menu/milano/bar-jolly-aru2f5ToS,2026-05-30T17:20:23.644839+00:00
44621acf64a3,Bar Magenta,Bar Magenta,mycia,"Largo Paolo D'Ancona, Milan, Metropolitan City of Milan, Italia",Milano,45.4655541,9.1758584,"Bar, Birreria, Ristorante",€€,,,,,Lunedì 07:30 - 01:30 | Martedì 07:30 - 02:00 | Mercoledì 07:30 - 02:00 | Giovedì 07:30 - 02:00 | Venerdì 07:30 - 03:00 | Sabato 07:30 - 03:00 | Domenica 07:30 - 02:00,True,https://www.mycia.it/menu/milano/bar-magenta-iW4gXgZMV,2026-05-30T17:20:25.205986+00:00
978b59603585,Bar Mercurio,Bar Mercurio,mycia,"Via Dogana, 3, 20123 Milano, MI, Italia",Milano,45.4631443,9.188838,"Bar, Ristorante Pizzeria",€€,,,,,Lunedì 05:00 - 23:30 | Martedì 05:00 - 23:30 | Mercoledì 05:00 - 23:30 | Giovedì 05:00 - 23:30 | Venerdì 05:00 - 23:30 | Sabato 05:00 - 23:30 | Domenica 05:00 - 23:30,True,https://www.mycia.it/menu/milano/bar-mercurio-BrRuHJXm5,2026-05-30T17:20:26.756006+00:00
5237d9b563db,BAR PICCHIO,BAR PICCHIO,mycia,"Via Melzo, 11, Milan, Metropolitan City of Milan, Italy",Milano,45.4735028,9.2093181,CONTEMPORARY BAR,€,,,,,Lunedì 08:00 - 21:00 | Martedì 08:00 - 21:00 | Mercoledì 08:00 - 21:00 | Giovedì 08:00 - 21:00 | Venerdì 08:00 - 21:00 | Sabato 08:00 - 21:00 | Domenica Chiuso,True,https://www.mycia.it/menu/milano/bar-picchio-sw4iKzwlv,2026-05-30T17:20:28.303819+00:00
e031502716ea,Bar trattoria da Massi,Bar trattoria da Massi,mycia,"Viale Umbria, 5, 20135 Milano, Milano, Italia",Milano,45.4483256,9.2105828,"Bar, Trattoria",€,,,,,Lunedì 07:30 - 22:30 | Martedì 07:30 - 22:30 | Mercoledì 07:30 - 22:30 | Giovedì 07:30 - 22:30 | Venerdì 07:30 - 22:30 | Sabato 07:30 - 22:30 | Domenica 07:30 - 22:30,True,https://www.mycia.it/menu/milano/bar-trattoria-da-massi-0o4RMU7JY,2026-05-30T17:20:29.848544+00:00
3ad45f12b329,Barba,Barba,mycia,"Via San Gregorio, 40, Milano, MI, Italia",Milano,45.4811338,9.2016793,"CONTEMPORARY BAR, MIXOLOGY COCKTAIL BAR, PREMIUM COCKTAIL BAR",€€,,,,,Lunedì 10:30 - 01:30 | Martedì 10:30 - 01:30 | Mercoledì 10:30 - 01:30 | Giovedì 10:30 - 01:30 | Venerdì 10:30 - 01:30 | Sabato 10:30 - 01:30 | Domenica 10:30 - 01:30,True,https://www.mycia.it/menu/milano/barba-1sje4Th8C,2026-05-30T17:20:31.392781+00:00
28c411dad62b,Barz'8 Coffee drink e food,Barz'8 Coffee drink e food,mycia,"Via Casale, 3a, Milano, MI, Italia",Milano,45.4520751,9.1704579,"Bar, Cocktail Bar, Pub",€€,,,,,Lunedì 07:00 - 02:00 | Martedì 07:00 - 02:00 | Mercoledì 07:00 - 02:00 | Giovedì 07:00 - 02:00 | Venerdì 07:00 - 02:00 | Sabato 07:00 - 02:00 | Domenica 07:00 - 02:00,True,https://www.mycia.it/menu/milano/barz-8-coffee-drink-e-food-iZN8bUfMT,2026-05-30T17:20:32.945876+00:00
4113ed1febcb,Basara Sushi Pasticceria,Basara Sushi Pasticceria,mycia,"Via Tortona, 12, 20144 Milano MI, Italia",Milano,45.4539291,9.1688517,"Pasticceria, Ristorante",€€,,,,,Lunedì 18:00 - 00:00 | Martedì 18:00 - 00:00 | Mercoledì 18:00 - 00:00 | Giovedì 18:00 - 00:00 | Venerdì 18:00 - 00:00 | Sabato 18:00 - 00:00 | Domenica Chiuso,False,https://www.mycia.it/menu/milano/basara-sushi-pasticceria-b594cff2d,2026-05-30T17:20:34.505041+00:00
95aad5271d64,BeBop,BeBop,mycia,"Viale Col di Lana, 4, 20136 Milano, MI, Italia",Milano,45.4518548,9.1821393,Ristorante Pizzeria,€€,,,,,Lunedì Chiuso | Martedì 12:30 - 14:30 / 19:30 - 23:00 | Mercoledì 12:30 - 14:30 / 19:30 - 23:00 | Giovedì 12:30 - 14:30 / 19:30 - 23:00 | Venerdì 12:30 - 14:30 / 19:30 - 23:00 | Sabato 12:30 - 14:30 / 19:30 - 23:00 | Domenica 12:30 - 14:30 / 19:30 - 23:00,False,https://www.mycia.it/menu/milano/bebop-eAozKCIlT,2026-05-30T17:20:36.054364+00:00
ab0730162c2b,Beer Garage,Beer Garage,mycia,"Via Anacreonte, 7, 20132 Milano MI, Italia",Milano,45.497573,9.232781,Ristopub,€€,,,,,Lunedì 07:00 - 03:00 | Martedì 07:00 - 03:00 | Mercoledì 07:00 - 03:00 | Giovedì 07:00 - 03:00 | Venerdì 07:00 - 04:00 | Sabato 08:00 - 04:00 | Domenica 08:00 - 03:00,True,https://www.mycia.it/menu/milano/beer-garage-0b781483e,2026-05-30T17:20:37.990999+00:00
5a5a1789ee04,Beijing traditional roll,Beijing traditional roll,mycia,"Via Paolo Sarpi, 29, Milano, MI, Italia",Milano,45.481049,9.1757006,Fast-Food,€,,,,,Lunedì 09:00 - 22:00 | Martedì 09:00 - 22:00 | Mercoledì 09:00 - 22:00 | Giovedì 09:00 - 22:00 | Venerdì 09:00 - 22:00 | Sabato 09:00 - 22:00 | Domenica 09:00 - 22:00,False,https://www.mycia.it/menu/milano/beijing-traditional-roll-nTVgTIPcM,2026-05-30T17:20:39.541389+00:00
b79b82eafb6e,Bella Italia 2,Bella Italia 2,mycia,"Viale Sarca, 163, Milano, MI, Italia",Milano,45.5148908,9.2079675,Pizzeria,€,,,,,Lunedì 10:30 - 01:00 | Martedì 10:30 - 01:00 | Mercoledì 10:30 - 01:00 | Giovedì 10:30 - 01:00 | Venerdì 10:30 - 01:00 | Sabato 10:30 - 01:00 | Domenica 10:30 - 01:00,False,https://www.mycia.it/menu/milano/bella-italia-2-64tDT3fMw,2026-05-30T17:20:41.086378+00:00
77fd874b4854,BIAN.CO BISTROT,BIAN.CO BISTROT,mycia,"Via Rubens, 13, Milano, MI, Italia",Milano,45.4670405,9.1443323,Bistrot,€€,,,,,Lunedì 08:00 - 02:00 | Martedì 08:00 - 02:00 | Mercoledì 08:00 - 02:00 | Giovedì 08:00 - 02:00 | Venerdì 08:00 - 02:00 | Sabato 08:00 - 02:00 | Domenica Chiuso,False,https://www.mycia.it/menu/milano/bian-co-bistrot-Uc0nBgMMt,2026-05-30T17:20:42.624449+00:00
0c5ce3a0a81d,Bice Milano,Bice Milano,mycia,"Via Borgospesso, 12, 20121 Milano MI, Italia",Milano,45.4700642,9.1942058,"Bar, Ristorante",€€€,,,,,Lunedì Chiuso | Martedì 12:00 - 15:00 / 19:00 - 23:00 | Mercoledì 12:00 - 15:00 / 19:00 - 23:00 | Giovedì 12:00 - 15:00 / 19:00 - 23:00 | Venerdì 12:00 - 15:00 / 19:00 - 23:00 | Sabato 12:00 - 15:00 / 19:00 - 23:00 | Domenica 12:00 - 15:00 / 19:00 - 23:00,True,https://www.mycia.it/menu/milano/bice-milano-40bd6318b,2026-05-30T17:20:44.164748+00:00
83225eda52bf,BIIF BURGER,BIIF BURGER,mycia,"Via Pietro Borsieri, Milano, MI, Italia",Milano,45.487699,9.188885,"Hamburgeria, Ristorante",€€,,,,,Lunedì 12:00 - 15:00 / 19:00 - 00:30 | Martedì 12:00 - 15:00 / 19:00 - 00:30 | Mercoledì 12:00 - 15:00 / 19:00 - 00:30 | Giovedì 12:00 - 15:00 / 19:00 - 00:30 | Venerdì 12:00 - 15:00 / 19:00 - 00:30 | Sabato 12:00 - 15:00 / 19:00 - 00:30 | Domenica 12:00 - 15:00 / 19:00 - 00:30,False,https://www.mycia.it/menu/milano/biif-burger-9deIcXaCT,2026-05-30T17:20:45.711814+00:00
817cef943ff1,BioTobe Milano,BioTobe Milano,mycia,"Via Adda, 3, 20124 Milano, MI, Italia",Milano,45.4830272,9.1985793,"Bar, Ristorante",€€,,,,,Lunedì 11:00 - 15:00 | Martedì 11:00 - 15:00 | Mercoledì 11:00 - 15:00 | Giovedì 11:00 - 15:00 | Venerdì 11:00 - 15:00 | Sabato Chiuso | Domenica Chiuso,True,https://www.mycia.it/menu/milano/biotobe-milano-h2O2475rx,2026-05-30T17:20:47.249974+00:00
f387ab66dae6,Bistrot Jacopo,Bistrot Jacopo,mycia,"Corso Ventidue Marzo, 38, 20135 Milano, Milano MI, Italia",Milano,45.4620318,9.2190562,"Bistrot, Ristorante",€€,,,,,Lunedì 19:00 - 22:00 | Martedì 19:00 - 22:00 | Mercoledì 19:00 - 22:00 | Giovedì 19:00 - 22:00 | Venerdì 19:00 - 22:00 | Sabato 19:00 - 22:00 | Domenica Chiuso,False,https://www.mycia.it/menu/milano/bistrot-jacopo-wnrVxc5kf,2026-05-30T17:20:48.803278+00:00
3d39cbd6ad2a,Bistrot Martini Dolce&Gabbana,Bistrot Martini Dolce&Gabbana,mycia,"Corso Venezia, 13, 20121 Milano MI, Italia",Milano,45.4682312,9.1985875,Bar,€€€,,,,,Lunedì 09:30 - 01:00 | Martedì 09:30 - 01:00 | Mercoledì 09:30 - 01:00 | Giovedì 09:30 - 01:00 | Venerdì 09:30 - 01:00 | Sabato 09:30 - 01:00 | Domenica 09:30 - 00:00,True,https://www.mycia.it/menu/milano/bistrot-martini-dolce-gabbana-d9ca355a2,2026-05-30T17:20:50.344493+00:00
86d151fd46f5,Bistrot Pattari,Bistrot Pattari,mycia,"Via Pattari, 2, Milano, MI, Italia",Milano,45.4644683,9.1937932,"Bistrot, PREMIUM COCKTAIL BAR",€€,,,,,Lunedì 07:00 - 00:00 | Martedì 07:00 - 00:00 | Mercoledì 07:00 - 00:00 | Giovedì 07:00 - 00:00 | Venerdì 07:00 - 00:00 | Sabato 07:00 - 00:00 | Domenica 07:00 - 00:00,True,https://www.mycia.it/menu/milano/bistrot-pattari-Kc1wFZmMv,2026-05-30T17:20:51.893667+00:00
b0e7dc47a44e,BLANCO,BLANCO,mycia,"Via Giovanni Battista Morgagni, 2, 20129 Milano MI, Italia",Milano,45.476671,9.211242,CASUAL COCKTAIL BAR,€€,,,,,Lunedì 18:00 - 00:00 | Martedì 18:00 - 00:00 | Mercoledì 18:00 - 00:00 | Giovedì 18:00 - 02:00 | Venerdì 18:00 - 02:00 | Sabato 18:00 - 02:00 | Domenica Chiuso,True,https://www.mycia.it/menu/milano/blanco-yBJspiErs,2026-05-30T17:20:53.440866+00:00
e41e1fe6fb1d,Blue Istanbul,Blue Istanbul,mycia,"Via Veglia, 1, Milano, MI, Italia",Milano,45.496282,9.1928434,"Piadineria, Pizzeria, Ristorante",€,,,,,Lunedì 11:00 - 06:00 | Martedì 11:00 - 06:00 | Mercoledì 11:00 - 06:00 | Giovedì 11:00 - 06:00 | Venerdì 11:00 - 06:00 | Sabato 11:00 - 06:00 | Domenica 11:00 - 06:00,False,https://www.mycia.it/menu/milano/blue-istanbul-AbpcAzEGW,2026-05-30T17:20:54.994566+00:00
f3339f82ca36,Blue Note Milano,Blue Note Milano,mycia,"Via Pietro Borsieri, 37, 20159 Milano, MI, Italia",Milano,45.4893667,9.1884942,"Cocktail Bar, Ristorante",€€,,,,,Lunedì Chiuso | Martedì 19:00 - 00:00 | Mercoledì 19:00 - 00:00 | Giovedì 19:00 - 00:00 | Venerdì 19:00 - 00:00 | Sabato 19:00 - 00:00 | Domenica 19:00 - 22:00,True,https://www.mycia.it/menu/milano/blue-note-milano-IJwpJoOWW,2026-05-30T17:20:56.548381+00:00
a0c86c108e73,Blues Canal,Blues Canal,mycia,"Via Casale, 7, 20144 Milano Milano, Italia",Milano,45.451474,9.170964,"Bar, Pub",€,,,,,Lunedì 11:30 - 01:00 | Martedì 11:30 - 01:00 | Mercoledì 11:30 - 01:00 | Giovedì 11:30 - 01:00 | Venerdì 11:30 - 02:00 | Sabato 11:30 - 02:30 | Domenica 11:30 - 01:00,True,https://www.mycia.it/menu/milano/blues-canal-OMX4csjJl,2026-05-30T17:20:58.094393+00:00
37f11c63d9cf,Bob Milano,Bob Milano,mycia,"Via Pietro Borsieri, 30, Milan, Metropolitan City of Milan, Italy",Milano,45.4891984,9.1892086,Cocktail Bar,€€,,,,,Lunedì 17:00 - 02:00 | Martedì 17:00 - 02:00 | Mercoledì 17:00 - 02:00 | Giovedì 17:00 - 02:00 | Venerdì 17:00 - 02:00 | Sabato 17:00 - 02:00 | Domenica 17:00 - 02:00,True,https://www.mycia.it/menu/milano/bob-milano-FWIIqpvlv,2026-05-30T17:20:59.642208+00:00
34e311160a17,boccascenacafé,boccascenacafé,mycia,"Corso Magenta, 24, 20123 Milano, MI, Italia",Milano,45.4661789,9.1767294,"Bar, Bistrot",€,,,,,Lunedì 10:00 - 20:00 | Martedì 10:00 - 20:00 | Mercoledì 10:00 - 20:00 | Giovedì 10:00 - 20:00 | Venerdì 10:00 - 20:00 | Sabato 00:00 - 00:00 | Domenica 00:00 - 00:00,True,https://www.mycia.it/menu/milano/boccascenacafe-jYvxYDoE7,2026-05-30T17:21:01.199510+00:00
41bb0cc6a4c4,BOCCONCINO,BOCCONCINO,mycia,"Via Paolo Sarpi, 61, Milano, MI, Italia",Milano,45.4809471,9.1710683,Paninoteca,€€,,,,,Lunedì 08:00 - 14:45 | Martedì 08:00 - 14:45 | Mercoledì 08:00 - 14:45 / 18:00 - 21:30 | Giovedì 08:00 - 14:45 / 18:00 - 21:30 | Venerdì 08:30 - 14:45 / 18:00 - 21:30 | Sabato 08:30 - 14:45 / 18:00 - 21:30 | Domenica Chiuso,False,https://www.mycia.it/menu/milano/bocconcino-YhYhXwIEw,2026-05-30T17:21:02.745296+00:00
4764af67ae24,Bocconi Giusti,Bocconi Giusti,mycia,"Viale Bligny, 26, Milano, Italia",Milano,45.4508305,9.1909379,"Fast-Food, Pizzeria",€,,,,,Lunedì 09:00 - 21:00 | Martedì 09:00 - 21:00 | Mercoledì 09:00 - 21:00 | Giovedì 09:00 - 21:00 | Venerdì 09:00 - 21:00 | Sabato 09:00 - 15:30 | Domenica Chiuso,False,https://www.mycia.it/menu/milano/bocconi-giusti-WioMPWD7m,2026-05-30T17:21:04.282075+00:00
eb79a5f74005,BOKOK,BOKOK,mycia,"Via Paolo Sarpi, 25, 20154 Milano, Milano, Italia",Milano,45.4813658,9.1761959,Sushi,€,,,,,Lunedì 08:00 - 22:00 | Martedì 08:00 - 22:00 | Mercoledì 08:00 - 22:00 | Giovedì 08:00 - 22:00 | Venerdì 08:00 - 22:00 | Sabato 08:00 - 22:00 | Domenica 08:00 - 22:00,False,https://www.mycia.it/menu/milano/bokok-jp2vDQYnE,2026-05-30T17:21:05.819013+00:00
483d31786f5d,BOLLANI MILANO DAL 1930 P.LE MARTINI,BOLLANI MILANO DAL 1930 P.LE MARTINI,mycia,"Piazzale Ferdinando Martini, 10, Milano, MI, Italia",Milano,45.4564308,9.2191886,Cocktail Bar,€€,,,,,Lunedì 07:30 - 22:00 | Martedì 07:30 - 22:00 | Mercoledì 07:30 - 22:00 | Giovedì 07:30 - 22:00 | Venerdì 07:30 - 22:00 | Sabato 07:30 - 22:00 | Domenica Chiuso,True,https://www.mycia.it/menu/milano/bollani-milano-dal-1930-p-le-martini-ubFuuMWjL,2026-05-30T17:21:07.352071+00:00
c1c50190f26c,Bon Wei,Bon Wei,mycia,"Via Lodovico Castelvetro, 16/18, 20154 Milano, Milan, Italie",Milano,45.485121,9.1649702,Ristorante,€€,,,,,Lunedì 12:00 - 14:30 / 19:00 - 23:30 | Martedì 12:00 - 14:30 / 19:00 - 23:30 | Mercoledì 12:00 - 14:30 / 19:00 - 23:30 | Giovedì 12:00 - 14:30 / 19:00 - 23:30 | Venerdì 12:00 - 14:30 / 19:00 - 23:30 | Sabato 12:00 - 14:30 / 19:00 - 23:30 | Domenica 12:00 - 14:30 / 19:00 - 23:30,False,https://www.mycia.it/menu/milano/bon-wei-UMMpWStvc,2026-05-30T17:21:08.906251+00:00
3c0a706b6b87,Borgia - Milano,Borgia - Milano,mycia,"Via Giorgio Washington, 56, 20146 Milano MI, Italia",Milano,45.462191,9.154697,Ristorante,€€,,,,,Lunedì 07:30 - 15:00 / 18:30 - 00:00 | Martedì 07:30 - 15:00 / 18:30 - 22:00 | Mercoledì 07:30 - 15:00 / 18:30 - 22:00 | Giovedì 07:30 - 15:00 / 18:30 - 00:00 | Venerdì 07:30 - 15:00 / 18:30 - 00:00 | Sabato 18:30 - 00:00 | Domenica Chiuso,False,https://www.mycia.it/menu/milano/borgia-milano-f66faeebf,2026-05-30T17:21:10.583169+00:00
7415871e8a6f,Botinero,Botinero,mycia,"Via San Marco, 3, Milano, MI, Italia",Milano,45.4741687,9.1876048,"Lounge bar, Ristorante",€€€€,,,,,Lunedì 12:00 - 14:30 / 19:00 - 02:00 | Martedì 12:00 - 14:30 / 19:00 - 02:00 | Mercoledì 12:00 - 14:30 / 19:00 - 02:00 | Giovedì 12:00 - 14:30 / 19:00 - 02:00 | Venerdì 12:00 - 14:30 / 19:00 - 02:00 | Sabato 12:00 - 14:30 / 19:00 - 02:00 | Domenica 12:00 - 14:30 / 19:00 - 02:00,True,https://www.mycia.it/menu/milano/botinero-j6FA7iezl,2026-05-30T17:21:12.128364+00:00
f0338da2e33e,BOWLS AND MORE - VITTORIO VENETO,BOWLS AND MORE - VITTORIO VENETO,mycia,"Viale Vittorio Veneto, 8, Milano, MI, Italia",Milano,45.4759022,9.2028813,"Hamburgeria, Ristorante",€€,,,,,Lunedì 08:00 - 00:00 | Martedì 08:00 - 00:00 | Mercoledì 08:00 - 00:00 | Giovedì 08:00 - 00:00 | Venerdì 08:00 - 00:00 | Sabato 08:00 - 00:00 | Domenica 10:30 - 15:30,False,https://www.mycia.it/menu/milano/bowls-and-more-vittorio-veneto-xVvm0vyDB,2026-05-30T17:21:13.684327+00:00
a14c57ecee3d,Braciamoci,Braciamoci,mycia,"Corso Buenos Aires, 86, Milano, MI, Italia",Milano,45.4848643,9.215588,"Fast-Food, Ristorante",€€,,,,,Lunedì 00:00 - 06:00 | Martedì 08:00 - 00:00 | Mercoledì 00:00 - 23:45 | Giovedì 00:00 - 23:45 | Venerdì 00:00 - 23:45 | Sabato 00:00 - 23:45 | Domenica 00:00 - 23:45,False,https://www.mycia.it/menu/milano/braciamoci-hTJyHpiau,2026-05-30T17:21:15.226509+00:00
2c1fdedbbd90,Brigitte Sushi Bar,Brigitte Sushi Bar,mycia,"Via Pietro Borsieri, 29, 20159 Milano, Milano MI, Italia",Milano,45.4886272,9.1887711,Ristorante,€€€,,,,,Lunedì Chiuso | Martedì 12:00 - 15:00 / 18:30 - 23:30 | Mercoledì 12:00 - 15:00 / 18:30 - 23:30 | Giovedì 12:00 - 15:00 / 18:30 - 23:30 | Venerdì 12:00 - 15:00 / 18:30 - 23:30 | Sabato 12:00 - 15:00 / 18:30 - 23:30 | Domenica 12:00 - 15:00 / 18:30 - 23:30,False,https://www.mycia.it/menu/milano/brigitte-sushi-bar-HSz3CBoEo,2026-05-30T17:21:16.777403+00:00
9c2e160e1f2b,Brisket,Brisket,mycia,"Ripa di Porta Ticinese, 65, 20143 Milano, Milano, Italia",Milano,45.4505988,9.1699668,Ristorante,€€€,,,,,Lunedì 19:00 - 00:00 | Martedì 19:00 - 00:00 | Mercoledì 19:00 - 00:00 | Giovedì 19:00 - 00:00 | Venerdì 19:00 - 00:00 | Sabato 12:00 - 15:00 / 19:00 - 00:00 | Domenica 12:00 - 15:00 / 19:00 - 00:00,False,https://www.mycia.it/menu/milano/brisket-516hDAmcQ,2026-05-30T17:21:18.320857+00:00
b2cda9e2668e,Brutti di Mare,Brutti di Mare,mycia,"Piazzale Antonio Cantore, 3, Milano, MI, Italia",Milano,45.4556794,9.1744863,Ristorante,€€,,,,,Lunedì 10:00 - 00:00 | Martedì 10:00 - 00:00 | Mercoledì 10:00 - 00:00 | Giovedì 10:00 - 00:00 | Venerdì 10:00 - 00:00 | Sabato 10:00 - 00:00 | Domenica 10:00 - 00:00,False,https://www.mycia.it/menu/milano/brutti-di-mare-5B0rPP46w,2026-05-30T17:21:19.861272+00:00
e658077cf605,Burgez,Burgez,mycia,"Via Bartolomeo Eustachi, 8, 20129 Milano MI, Italia",Milano,45.4741498,9.2149455,Ristorante,€€,,,,,Lunedì 12:00 - 15:00 / 18:00 - 23:00 | Martedì 12:00 - 15:00 / 18:00 - 23:00 | Mercoledì 12:00 - 15:00 / 18:00 - 23:00 | Giovedì 12:00 - 15:00 / 18:00 - 23:00 | Venerdì 12:00 - 15:00 / 18:00 - 23:30 | Sabato 12:00 - 15:00 / 18:00 - 23:30 | Domenica 12:00 - 15:00 / 18:00 - 23:00,False,https://www.mycia.it/menu/milano/burgez-32438c323,2026-05-30T17:21:21.400852+00:00
915e5004c03c,Burgez,Burgez,mycia,"Viale Bligny, 2, 20136 Milano MI, Italia",Milano,45.4515565,9.1869765,"Fast-Food, Hamburgeria, Ristorante",€€,,,,,Lunedì 12:00 - 15:00 / 18:00 - 22:00 | Martedì 12:00 - 15:00 / 18:00 - 22:00 | Mercoledì 12:00 - 15:00 / 18:00 - 22:00 | Giovedì 12:00 - 15:00 / 18:00 - 22:00 | Venerdì 12:00 - 15:00 / 18:00 - 23:00 | Sabato 12:00 - 15:00 / 18:00 - 23:00 | Domenica 12:00 - 15:00 / 18:00 - 22:00,False,https://www.mycia.it/menu/milano/burgez-3db478c40,2026-05-30T17:21:22.939379+00:00
8e0b325959f9,Burgez,Burgez,mycia,"Via Carmagnola, 8, 20159 Milano, MI, Italia",Milano,45.4864442,9.1870023,Hamburgeria,€,,,,,Lunedì 12:00 - 15:00 / 18:00 - 23:00 | Martedì 12:00 - 15:00 / 18:00 - 23:00 | Mercoledì 12:00 - 15:00 / 18:00 - 23:00 | Giovedì 12:00 - 15:00 / 18:00 - 23:00 | Venerdì 12:00 - 15:00 / 18:00 - 00:00 | Sabato 12:00 - 15:00 / 18:00 - 00:00 | Domenica 12:00 - 15:00 / 18:00 - 23:00,False,https://www.mycia.it/menu/milano/burgez-T7xCzTzbJ,2026-05-30T17:21:24.480542+00:00
f07531e20fba,C'era una Volta una Piada - Conte Vincenzo,C'era una Volta una Piada - Conte Vincenzo,mycia,"Viale Coni Zugna, 37, 20144 Milano, Milano MI, Italia",Milano,45.4580194,9.1682708,"Piadineria, Ristorante",€,,,,,Lunedì 11:30 - 15:30 / 18:00 - 23:00 | Martedì 11:30 - 15:30 / 18:00 - 23:00 | Mercoledì 11:30 - 15:30 / 18:00 - 23:00 | Giovedì 11:30 - 15:30 / 18:00 - 23:00 | Venerdì 11:30 - 15:30 / 18:00 - 23:00 | Sabato 11:30 - 23:00 | Domenica 11:30 - 15:30 / 18:00 - 23:00,False,https://www.mycia.it/menu/milano/c-era-una-volta-una-piada-conte-vincenzo-U5Fr9OIxe,2026-05-30T17:21:26.022595+00:00
525b158b6721,C'era una Volta una Piada - La Madre,C'era una Volta una Piada - La Madre,mycia,"Piazza San Gioachimo, 5, 20124 Milano, MI, Italia",Milano,45.481146,9.1982103,"Piadineria, Ristorante",€,,,,,Lunedì 11:30 - 15:30 / 18:00 - 23:00 | Martedì 11:30 - 15:30 / 18:00 - 23:00 | Mercoledì 11:30 - 15:30 / 18:00 - 23:00 | Giovedì 11:30 - 15:30 / 18:00 - 23:00 | Venerdì 11:30 - 15:30 / 18:00 - 23:00 | Sabato 11:30 - 23:00 | Domenica 11:30 - 15:30 / 18:00 - 23:00,False,https://www.mycia.it/menu/milano/c-era-una-volta-una-piada-la-madre-zuJjJIHhp,2026-05-30T17:21:27.564512+00:00
4ecd1fe8778b,C'era una Volta una Piada - Nonna Gina,C'era una Volta una Piada - Nonna Gina,mycia,"Via Raffaello Sanzio, 29, 20149 Milano, MI, Italia",Milano,45.4675349,9.1514017,"Piadineria, Ristorante",€,,,,,Lunedì 11:30 - 15:30 / 18:00 - 23:00 | Martedì 11:30 - 15:30 / 18:00 - 23:00 | Mercoledì 11:30 - 15:30 / 18:00 - 23:00 | Giovedì 11:30 - 15:30 / 18:00 - 23:00 | Venerdì 11:30 - 15:30 / 18:00 - 23:00 | Sabato 11:30 - 23:00 | Domenica 11:30 - 15:30 / 18:00 - 23:00,False,https://www.mycia.it/menu/milano/c-era-una-volta-una-piada-nonna-gina-YVxztsTbs,2026-05-30T17:21:29.108338+00:00
af886dd28ab1,C'era una Volta una Piada - Zar Igor,C'era una Volta una Piada - Zar Igor,mycia,"Viale Gian Galeazzo, 19, 20136 Milano, MI, Italia",Milano,45.4526545,9.1834408,"Piadineria, Ristorante",€,,,,,Lunedì 11:30 - 15:30 / 18:00 - 23:00 | Martedì 11:30 - 15:30 / 18:00 - 23:00 | Mercoledì 11:30 - 15:30 / 18:00 - 23:00 | Giovedì 11:30 - 15:30 / 18:00 - 23:00 | Venerdì 11:30 - 15:30 / 18:00 - 23:00 | Sabato 11:30 - 23:00 | Domenica 11:30 - 15:30 / 18:00 - 23:00,False,https://www.mycia.it/menu/milano/c-era-una-volta-una-piada-zar-igor-IFTRQqu3G,2026-05-30T17:21:30.652654+00:00
f2fe7605b684,Cabaret Bistrot,Cabaret Bistrot,mycia,"Via Emilio Cornalia, Milano, MI, Italia",Milano,45.4833202,9.1972999,Bistrot,€€,,,,,Lunedì 08:00 - 23:00 | Martedì 08:00 - 23:00 | Mercoledì 08:00 - 23:00 | Giovedì 08:00 - 23:00 | Venerdì 08:00 - 23:00 | Sabato 08:00 - 23:00 | Domenica Chiuso,False,https://www.mycia.it/menu/milano/cabaret-bistrot-iXljG35Jb,2026-05-30T17:21:32.194202+00:00
4a529942a37c,Cacio & Pepe,Cacio & Pepe,mycia,"Viale Gian Galeazzo, 3, Milano, Italia",Milano,45.4529698,9.1818028,Ristorante,€€,,,,,Lunedì 12:30 - 15:00 / 19:45 - 23:30 | Martedì 12:30 - 15:00 / 19:45 - 23:30 | Mercoledì 12:30 - 15:00 / 19:45 - 23:30 | Giovedì 12:30 - 15:00 / 19:45 - 23:30 | Venerdì 12:30 - 15:00 / 19:45 - 23:30 | Sabato 19:45 - 23:30 | Domenica Chiuso,False,https://www.mycia.it/menu/milano/cacio-pepe-S1khUmsfe,2026-05-30T17:21:33.739222+00:00
b134d93df091,Cactus Kitchen&Bar,Cactus Kitchen&Bar,mycia,"Via Varese, 4, 20121 Milano, MI, Italia",Milano,45.478843,9.1846346,Ristorante,€€,,,,,Lunedì Chiuso | Martedì 08:00 - 00:00 | Mercoledì 08:00 - 00:00 | Giovedì 08:00 - 00:00 | Venerdì 08:00 - 01:00 | Sabato 09:00 - 01:00 | Domenica 09:00 - 17:00,False,https://www.mycia.it/menu/milano/cactus-kitchen-bar-8OghEH9HL,2026-05-30T17:21:35.283632+00:00
9e3ef6e4ec5a,Cafè Rue Rivoli,Cafè Rue Rivoli,mycia,"Via Rivoli, 2, Milano, Italia",Milano,45.4721599,9.1830946,Cafè,€,,,,,Lunedì 06:00 - 21:00 | Martedì 06:00 - 21:00 | Mercoledì 06:00 - 21:00 | Giovedì 06:00 - 21:00 | Venerdì 06:00 - 21:00 | Sabato 06:00 - 21:00 | Domenica 06:00 - 21:00,False,https://www.mycia.it/menu/milano/cafe-rue-rivoli-QizVe3QRc,2026-05-30T17:21:36.822254+00:00
58c9dd5c417c,Caffè Carlino,Caffè Carlino,mycia,"Via Giuseppe Mazzini, 20123 Milano MI, Italia",Milano,45.4627331,9.1885167,"Bar, Bistrot",€€,,,,,Lunedì 06:30 - 20:00 | Martedì 06:30 - 20:00 | Mercoledì 06:30 - 20:00 | Giovedì 06:30 - 20:00 | Venerdì 06:30 - 20:00 | Sabato 07:30 - 20:00 | Domenica 07:30 - 20:00,True,https://www.mycia.it/menu/milano/caffe-carlino-XoNG8q0Jd,2026-05-30T17:21:38.360841+00:00
463599a62463,Caffè Le Grazie,Caffè Le Grazie,mycia,"Corso Magenta, 69, Milano, MI, Italia",Milano,45.4654436,9.170478,Cafè,€€,,,,,Lunedì 07:00 - 20:30 | Martedì 07:00 - 20:30 | Mercoledì 07:00 - 20:30 | Giovedì 07:00 - 20:30 | Venerdì 07:00 - 20:30 | Sabato 07:00 - 20:00 | Domenica 07:00 - 20:00,False,https://www.mycia.it/menu/milano/caffe-le-grazie-wa652jnK4,2026-05-30T17:21:39.911505+00:00
65213f066910,Caffè panzera,Caffè panzera,mycia,"Piazza Duca d'Aosta, 10, Milano, MI, Italia",Milano,45.4838364,9.2045507,Ristorante Pizzeria,€€,,,,,Lunedì 11:00 - 23:00 | Martedì 11:00 - 23:00 | Mercoledì 11:00 - 23:00 | Giovedì 11:00 - 23:00 | Venerdì 11:00 - 23:00 | Sabato 11:00 - 23:00 | Domenica 11:00 - 23:00,False,https://www.mycia.it/menu/milano/caffe-panzera-W2ZxDVlA5,2026-05-30T17:21:41.455131+00:00
9ba4aeefbb98,Caffè Vergnano 1882,Caffè Vergnano 1882,mycia,"Via Speronari, 3, Milano, MI, Italia",Milano,45.462865,9.1879689,Cafè,€€,,,,,Lunedì 07:00 - 21:00 | Martedì 07:00 - 21:00 | Mercoledì 07:00 - 21:00 | Giovedì 07:00 - 21:00 | Venerdì 07:00 - 21:00 | Sabato 07:00 - 21:00 | Domenica 08:30 - 20:00,False,https://www.mycia.it/menu/milano/caffe-vergnano-1882-OA0a1Fyiq,2026-05-30T17:21:43.000495+00:00
a42c486047ca,CAFFE' IL MORO,CAFFE' IL MORO,mycia,"Via Cesare Battisti, 13, Milano, MI, Italia",Milano,45.4630299,9.2001068,"Bar, Cocktail Bar, Tavola Calda",€€,,,,,Lunedì 06:30 - 21:00 | Martedì 06:30 - 21:00 | Mercoledì 06:30 - 21:00 | Giovedì 06:30 - 21:00 | Venerdì 06:30 - 21:00 | Sabato 06:30 - 19:00 | Domenica Chiuso,True,https://www.mycia.it/menu/milano/caffe-il-moro-uNFNtHVSN,2026-05-30T17:21:44.538399+00:00
613232d10566,CAFFETTERIA MORELLI,CAFFETTERIA MORELLI,mycia,"Via Pietro Borsieri, 29, 20159 Milano, MI, Italia",Milano,45.4886272,9.1887711,Bar,€,,,,,Lunedì 06:30 - 18:00 | Martedì 06:30 - 18:00 | Mercoledì 06:30 - 18:00 | Giovedì 06:30 - 18:00 | Venerdì 06:30 - 18:00 | Sabato 06:30 - 18:00 | Domenica 06:30 - 18:00,True,https://www.mycia.it/menu/milano/caffetteria-morelli-tnft12iMX,2026-05-30T17:21:46.085289+00:00
d9987cc8746d,Cambiopizza,Cambiopizza,mycia,"Via Jan Palach, Milano, MI, Italia",Milano,45.4255488,9.1666479,Pizzeria,€,,,,,Lunedì Chiuso | Martedì 19:00 - 23:00 | Mercoledì 19:00 - 23:00 | Giovedì 19:00 - 23:00 | Venerdì 19:00 - 23:00 | Sabato 19:00 - 23:00 | Domenica 19:00 - 23:00,False,https://www.mycia.it/menu/milano/cambiopizza-MmbVHyRLG,2026-05-30T17:21:47.628916+00:00
f845b1553e33,Canaletto Bistrot,Canaletto Bistrot,mycia,"Alzaia Naviglio Grande, 46, Milano, MI, Italia",Milano,45.4517923,9.1714348,Bistrot,€€,,,,,Lunedì 09:00 - 15:00 / 17:00 - 23:00 | Martedì 09:00 - 15:00 / 17:00 - 23:00 | Mercoledì 09:00 - 15:00 / 17:00 - 23:00 | Giovedì 09:00 - 15:00 / 17:00 - 23:00 | Venerdì 09:00 - 15:00 / 17:00 - 23:00 | Sabato 09:00 - 15:00 / 17:00 - 23:00 | Domenica Chiuso,False,https://www.mycia.it/menu/milano/canaletto-bistrot-N7FdgyzR5,2026-05-30T17:21:49.167085+00:00
48e9432d0259,Cannoleria Gourmet,Cannoleria Gourmet,mycia,"Via Pastrengo, 15, 20159 Milano, Milano MI, Italia",Milano,45.4865791,9.1860218,Ristorante,€€,,,,,Lunedì 11:30 - 17:00 | Martedì 11:30 - 23:30 | Mercoledì 11:30 - 23:30 | Giovedì 11:30 - 23:30 | Venerdì 11:30 - 23:30 | Sabato 11:30 - 23:30 | Domenica 11:30 - 23:30,False,https://www.mycia.it/menu/milano/cannoleria-gourmet-2ok3oXRYj,2026-05-30T17:21:50.733818+00:00
437a82d48a32,Cantina della Vetra,Cantina della Vetra,mycia,"Via Pio IV, 3, 20123 Milano, Italia",Milano,45.4586783,9.1817474,Bistrot,€€,,,,,Lunedì 12:00 - 00:00 | Martedì 12:00 - 00:00 | Mercoledì 12:00 - 00:00 | Giovedì 12:00 - 00:00 | Venerdì 12:00 - 00:00 | Sabato 12:00 - 00:00 | Domenica 12:00 - 00:00,False,https://www.mycia.it/menu/milano/cantina-della-vetra-H7vOHfA5J,2026-05-30T17:21:52.279377+00:00
9df02b2a4498,Cantina Piemontese,Cantina Piemontese,mycia,"Via Laghetto, 2, Milano, MI, Italia",Milano,45.4616525,9.1953424,Ristorante,€€€,,,,,Lunedì 12:00 - 14:45 / 19:30 - 22:45 | Martedì 12:00 - 14:45 / 19:30 - 22:45 | Mercoledì 12:00 - 14:45 / 19:30 - 22:45 | Giovedì 12:00 - 14:45 / 19:30 - 22:45 | Venerdì 12:00 - 14:45 / 19:30 - 22:45 | Sabato 12:00 - 14:45 / 19:30 - 22:45 | Domenica 12:00 - 14:45 / 19:30 - 22:45,False,https://www.mycia.it/menu/milano/cantina-piemontese-EBPgxDrfu,2026-05-30T17:21:53.819472+00:00
3d880a290300,Cantina Scoffone,Cantina Scoffone,mycia,"Via Pietro Custodi, 4, Milano, MI, Italia",Milano,45.4514182,9.1819282,Ristorante,€€€,,,,,Lunedì 12:30 - 14:30 / 20:00 - 22:30 | Martedì 12:30 - 14:30 / 20:00 - 22:30 | Mercoledì 12:30 - 14:30 / 20:00 - 22:30 | Giovedì 12:30 - 14:30 / 20:00 - 22:30 | Venerdì 12:30 - 14:30 / 20:00 - 22:30 | Sabato 19:00 - 23:00 | Domenica Chiuso,False,https://www.mycia.it/menu/milano/cantina-scoffone-zdoCoSQdB,2026-05-30T17:21:55.358334+00:00
fb35ef732266,Cantine A Mare,Cantine A Mare,mycia,"Via Carlo Goldoni, 58, 20129 Milano, Milano MI, Italia",Milano,45.4692019,9.2184934,Ristorante,€€,,,,,Lunedì 12:30 - 14:30 / 19:00 - 23:00 | Martedì 12:30 - 14:30 / 19:00 - 23:00 | Mercoledì 12:30 - 14:30 / 19:00 - 23:00 | Giovedì 12:30 - 14:30 / 19:00 - 23:00 | Venerdì 12:30 - 14:30 / 19:00 - 23:00 | Sabato 12:30 - 14:30 / 19:00 - 23:00 | Domenica 12:30 - 14:30 / 19:00 - 23:00,False,https://www.mycia.it/menu/milano/cantine-a-mare-gbriTeNcL,2026-05-30T17:21:56.902810+00:00
3bbc4d870291,Capra e Cavoli,Capra e Cavoli,mycia,"Via Pastrengo, 18, 20159 Milano, Milano MI, Italia",Milano,45.4868764,9.1853946,Ristorante,€€€€,,,,,Lunedì Chiuso | Martedì 19:30 - 21:00 | Mercoledì 19:30 - 21:00 | Giovedì 19:30 - 21:00 | Venerdì 19:30 - 21:30 | Sabato 19:30 - 21:30 | Domenica 12:30 - 13:30,False,https://www.mycia.it/menu/milano/capra-e-cavoli-UmO1HnzmW,2026-05-30T17:21:58.444748+00:00
85cf97fe8d77,Caputo,Caputo,mycia,"Via Falcone, 7, Milano, MI, Italia",Milano,45.4622925,9.1876754,"Pizzeria, Ristorante",€€,,,,,Lunedì 12:00 - 15:30 / 18:00 - 23:00 | Martedì 12:00 - 15:30 / 18:00 - 23:00 | Mercoledì 12:00 - 15:30 / 18:00 - 23:00 | Giovedì 12:00 - 15:30 / 18:00 - 23:00 | Venerdì 12:00 - 23:00 | Sabato 12:00 - 23:00 | Domenica 12:00 - 23:00,False,https://www.mycia.it/menu/milano/caputo-Xl495BWmc,2026-05-30T17:21:59.985896+00:00
7a3fdacaec0e,Carpe Diem,Carpe Diem,mycia,"Via Bruno Cassinari, 1, 20138 Milano MI, Italia",Milano,45.4359684,9.2403472,CASUAL COCKTAIL BAR,€€,,,,,Lunedì 07:00 - 01:00 | Martedì 07:00 - 01:00 | Mercoledì 07:00 - 01:00 | Giovedì 07:00 - 01:00 | Venerdì 07:00 - 02:00 | Sabato 17:00 - 02:00 | Domenica 17:00 - 01:00,True,https://www.mycia.it/menu/milano/carpe-diem-7aergeJlG,2026-05-30T17:22:01.533406+00:00
04c40d93b60b,CARPE DIEM CAFE' listino validita dalle ore 17,CARPE DIEM CAFE' listino validita dalle ore 17,mycia,"Via Bruno Cassinari, 1, Milan, Metropolitan City of Milan, Italy",Milano,45.4359684,9.2403472,"Bar, Cafè, CASUAL COCKTAIL BAR",€€,,,,,Lunedì 07:00 - 01:00 | Martedì 07:00 - 01:00 | Mercoledì 07:00 - 01:00 | Giovedì 07:00 - 01:00 | Venerdì 07:00 - 02:00 | Sabato 17:00 - 02:00 | Domenica 17:00 - 01:00,True,https://www.mycia.it/menu/milano/carpe-diem-cafe-listino-validita-dalle-ore-17-2kb3ergyl,2026-05-30T17:22:03.085421+00:00
c177002868d6,Casa Fiori Chiari,Casa Fiori Chiari,mycia,"Via Fiori Chiari, 8, 20121 Milano MI, Italy",Milano,45.4723496,9.1870506,,€€,,,,,,False,https://www.mycia.it/menu/milano/casa-fiori-chiari-PBrajBxc6,2026-05-30T17:22:04.630040+00:00
7c6275c95308,Casa Lodi,Casa Lodi,mycia,"Via Cappellari, 3, Milano, Italia",Milano,45.4630774,9.1891706,Ristorante,€€,,,,,Lunedì 11:00 - 15:00 | Martedì 11:00 - 21:00 | Mercoledì 11:00 - 23:00 | Giovedì 11:00 - 23:00 | Venerdì 11:00 - 23:00 | Sabato 11:00 - 23:00 | Domenica 10:30 - 23:00,False,https://www.mycia.it/menu/milano/casa-lodi-mFJ0LFnKe,2026-05-30T17:22:06.172980+00:00
3e1b6361e102,Ceresio 7,Ceresio 7,mycia,"Via Ceresio, 7, 20154 Milano, MI, Italia",Milano,45.4834509,9.18038,"Lounge bar, Ristorante",€€€€,,,,,Lunedì 12:30 - 15:30 / 18:30 - 00:00 | Martedì 12:30 - 15:30 / 18:30 - 00:00 | Mercoledì 12:30 - 15:30 / 18:30 - 00:00 | Giovedì 12:30 - 15:30 / 18:30 - 00:00 | Venerdì 12:30 - 15:30 / 18:30 - 00:00 | Sabato 12:30 - 15:30 / 18:30 - 00:00 | Domenica 12:30 - 15:30 / 18:30 - 00:00,True,https://www.mycia.it/menu/milano/ceresio-7-61a2d41c6,2026-05-30T17:22:07.711464+00:00
1b7887ca7a8f,Chatulle,Chatulle,mycia,"Via Piero della Francesca, 68, 20154 Milano, MI, Italia",Milano,45.4863062,9.1601515,Ristorante,€€€,,,,,Lunedì 00:00 - 00:00 / 12:00 - 15:00 | Martedì 12:00 - 15:00 / 19:00 - 02:00 | Mercoledì 12:00 - 15:00 / 19:00 - 02:00 | Giovedì 12:00 - 15:00 / 19:00 - 02:00 | Venerdì 12:00 - 15:00 / 19:00 - 02:00 | Sabato 00:00 - 00:00 / 19:00 - 02:00 | Domenica Chiuso,False,https://www.mycia.it/menu/milano/chatulle-N3KukgAGC,2026-05-30T17:22:09.261117+00:00
e813919c2afc,Chic'n Quick,Chic'n Quick,mycia,"Via Ascanio Sforza, 77, 20141 Milano, MI, Italia",Milano,45.4421487,9.1759855,"Ristorante, Trattoria",€€€,,,,,Lunedì 19:30 - 22:30 | Martedì 12:30 - 14:30 / 19:30 - 22:30 | Mercoledì 12:30 - 14:30 / 19:30 - 22:30 | Giovedì 12:30 - 14:30 / 19:30 - 22:30 | Venerdì 12:30 - 14:30 / 19:30 - 22:30 | Sabato 12:30 - 14:30 / 19:30 - 22:30 | Domenica Chiuso,False,https://www.mycia.it/menu/milano/chic-n-quick-10b2571fe,2026-05-30T17:22:10.801277+00:00
44b8dee9010f,Chihuahua Tacos Sarpi,Chihuahua Tacos Sarpi,mycia,"Via Paolo Sarpi, 60, 20154 Milano, Milano MI, Italia",Milano,45.4810742,9.1711028,"Cocktail Bar, Opzioni Senza Glutine, Ristorante",€€,,,,,Lunedì Chiuso | Martedì 12:00 - 15:00 / 18:00 - 23:00 | Mercoledì 12:00 - 15:00 / 18:00 - 23:00 | Giovedì 12:00 - 15:00 / 18:00 - 23:00 | Venerdì 12:00 - 15:00 / 18:00 - 00:00 | Sabato 12:00 - 15:00 / 18:00 - 00:00 | Domenica 12:00 - 15:00 / 18:00 - 00:00,True,https://www.mycia.it/menu/milano/chihuahua-tacos-sarpi-ZSoTJqqTM,2026-05-30T17:22:12.344638+00:00
f72adf9ed9ef,Chinese Box,Chinese Box,mycia,"Corso Garibaldi, 104, Milan, Metropolitan City of Milan, Italy",Milano,45.47854,9.1856288,"PREMIUM COCKTAIL BAR, Ristorante",€,,,,,Lunedì 08:00 - 02:00 | Martedì 08:00 - 02:00 | Mercoledì 08:00 - 02:00 | Giovedì 08:00 - 02:00 | Venerdì 08:00 - 02:00 | Sabato 08:00 - 02:00 | Domenica 18:00 - 02:00,True,https://www.mycia.it/menu/milano/chinese-box-X87zvIVyD,2026-05-30T17:22:13.895572+00:00
c1fa99a008bc,Chiù Bistrot e Bottega,Chiù Bistrot e Bottega,mycia,"Via Vincenzo Monti, 32, 20123 Milano MI, Italy",Milano,45.468935,9.17207,,€€,,,,,,False,https://www.mycia.it/menu/milano/chi-ugrave-bistrot-e-bottega-COhZqzs6l,2026-05-30T17:22:15.441505+00:00
35b5f64505bb,Ciapa El Taco,Ciapa El Taco,mycia,"Via Francesco Brioschi, 16, 20136 Milano, MI, Italia",Milano,45.4462724,9.1804204,"Fast-Food, Ristorante",€,,,,,Lunedì 11:30 - 22:30 | Martedì 11:30 - 22:30 | Mercoledì 11:30 - 22:30 | Giovedì 11:30 - 22:30 | Venerdì 11:30 - 22:30 | Sabato 11:30 - 22:30 | Domenica 11:30 - 22:30,False,https://www.mycia.it/menu/milano/ciapa-el-taco-a9atRVmFJ,2026-05-30T17:22:16.989052+00:00
944279257a28,Cibario,Cibario,mycia,"Via Confalonieri, 11, Milano, Milan, Italie",Milano,45.4866635,9.1907151,"Fast-Food, Ristorante",€,,,,,Lunedì 11:00 - 22:00 | Martedì 11:00 - 22:00 | Mercoledì 11:00 - 22:00 | Giovedì 11:00 - 22:00 | Venerdì 11:00 - 22:00 | Sabato 11:00 - 22:00 | Domenica Chiuso,False,https://www.mycia.it/menu/milano/cibario-bSpr7fwRM,2026-05-30T17:22:18.527155+00:00
b884ca987561,CIBO' Vegan food,CIBO' Vegan food,mycia,"Via Achille Maiocchi, 26, 20129 Milano, MI, Italia",Milano,45.4761645,9.2161093,"Gastronomia, Ristorante",€€,,,,,Lunedì 10:00 - 22:00 | Martedì 10:00 - 22:00 | Mercoledì 10:00 - 22:00 | Giovedì 10:00 - 22:00 | Venerdì 10:00 - 22:00 | Sabato 10:00 - 22:00 | Domenica Chiuso,False,https://www.mycia.it/menu/milano/cibo-vegan-food-YV0r8neOK,2026-05-30T17:22:20.068294+00:00
4cebf27d24b1,Cicchetto,Cicchetto,mycia,"Via Francesco Hayez, 13, 20129 Milano, MI, Italia",Milano,45.4753094,9.2161522,Ristorante,€€,,,,,Lunedì 18:30 - 23:00 | Martedì 18:30 - 23:00 | Mercoledì 18:30 - 23:00 | Giovedì 18:30 - 23:00 | Venerdì 18:30 - 23:00 | Sabato 18:30 - 23:00 | Domenica Chiuso,False,https://www.mycia.it/menu/milano/cicchetto-VdVqe6Ist,2026-05-30T17:22:21.613060+00:00
5a89505ba596,Ciccio pizza - Giambellino,Ciccio pizza - Giambellino,mycia,"Via Giambellino, 56, 20146 Milano, MI, Italia",Milano,45.4501713,9.1464614,"Bar, Pizzeria",€€,,,,,Lunedì 12:00 - 15:30 / 19:00 - 01:00 | Martedì 12:00 - 15:30 / 19:00 - 01:00 | Mercoledì 12:00 - 15:30 / 19:00 - 01:00 | Giovedì 12:00 - 15:30 / 19:00 - 01:00 | Venerdì 12:00 - 15:30 / 19:00 - 01:00 | Sabato 12:00 - 15:30 / 19:00 - 01:00 | Domenica 12:00 - 15:30 / 19:00 - 01:00,True,https://www.mycia.it/menu/milano/ciccio-pizza-giambellino-gQIVAnkIX,2026-05-30T17:22:23.154401+00:00
0f5dda9bc460,Ciccio pizza - Sabotino Center,Ciccio pizza - Sabotino Center,mycia,"Viale Sabotino, 1A, Milano, MI, Italia",Milano,45.4510244,9.197493,"Bar, Pizzeria",€€,,,,,Lunedì 07:00 - 02:00 | Martedì 07:00 - 02:00 | Mercoledì 07:00 - 02:00 | Giovedì 07:00 - 02:00 | Venerdì 07:00 - 02:00 | Sabato 07:00 - 02:00 | Domenica 07:00 - 02:00,True,https://www.mycia.it/menu/milano/ciccio-pizza-sabotino-center-XBvT1Q2Ne,2026-05-30T17:22:24.719521+00:00
c2abf2923b2a,Ciccio pizza - Teodosio,Ciccio pizza - Teodosio,mycia,"Via Teodosio, 37, Milano, MI, Italia",Milano,45.4853107,9.2297233,"Bar, Pizzeria",€€,,,,,Lunedì 12:00 - 15:30 / 19:00 - 01:00 | Martedì 12:00 - 15:30 / 19:00 - 01:00 | Mercoledì 12:00 - 15:30 / 19:00 - 01:00 | Giovedì 12:00 - 15:30 / 19:00 - 01:00 | Venerdì 12:00 - 15:30 / 19:00 - 01:00 | Sabato 12:00 - 15:30 / 19:00 - 01:00 | Domenica 12:00 - 15:30 / 19:00 - 01:00,True,https://www.mycia.it/menu/milano/ciccio-pizza-teodosio-rvKfSypMU,2026-05-30T17:22:26.265124+00:00
5efd355fdc2e,Ciccio pizza - Umbria,Ciccio pizza - Umbria,mycia,"Viale Umbria, 64, 20135 Milano, MI, Italia",Milano,45.4548978,9.2164674,"Bar, Pizzeria",€€,,,,,Lunedì 12:00 - 15:30 / 19:00 - 01:00 | Martedì 12:00 - 15:30 / 19:00 - 01:00 | Mercoledì 12:00 - 15:30 / 19:00 - 01:00 | Giovedì 12:00 - 15:30 / 19:00 - 01:00 | Venerdì 12:00 - 15:30 / 19:00 - 01:00 | Sabato 12:00 - 15:30 / 19:00 - 01:00 | Domenica 12:00 - 15:30 / 19:00 - 01:00,True,https://www.mycia.it/menu/milano/ciccio-pizza-umbria-57HWH9c5P,2026-05-30T17:22:27.813120+00:00
f1c66c8918eb,Ciccio pizza - Zara,Ciccio pizza - Zara,mycia,"Viale Zara, 116, Milano, MI, Italia",Milano,45.49891,9.19665,"Bar, Pizzeria",€€,,,,,Lunedì 12:00 - 15:30 / 19:00 - 01:00 | Martedì 12:00 - 15:30 / 19:00 - 01:00 | Mercoledì 12:00 - 15:30 / 19:00 - 01:00 | Giovedì 12:00 - 15:30 / 19:00 - 01:00 | Venerdì 12:00 - 15:30 / 19:00 - 01:00 | Sabato 12:00 - 15:30 / 19:00 - 01:00 | Domenica 12:00 - 15:30 / 19:00 - 01:00,True,https://www.mycia.it/menu/milano/ciccio-pizza-zara-gKqZZXy4D,2026-05-30T17:22:29.363845+00:00
b999641b18f6,Cinc,Cinc,mycia,"Via Marco Formentini, 5, 20121 Milano MI, Italy",Milano,45.4717708,9.1859034,,€€,,,,,,False,https://www.mycia.it/menu/milano/cinc-TFVwdvQTE,2026-05-30T17:22:30.913156+00:00
a13726ef35a9,Cipiace,Cipiace,mycia,"Viale Pasubio, 12, 20154 Milano MI, Italy",Milano,45.4819145,9.1836286,,€€,,,,,,False,https://www.mycia.it/menu/milano/cipiace-2jJJaH202,2026-05-30T17:22:32.460370+00:00
6bf3e321a626,Cirispaccio,Cirispaccio,mycia,"Via Luigi Canonica, 74, Milano, MI, Italia",Milano,45.480688,9.1708377,Ristorante,€,,,,,Lunedì 11:45 - 23:00 | Martedì 11:45 - 23:00 | Mercoledì 11:45 - 23:00 | Giovedì 11:45 - 23:00 | Venerdì 11:45 - 23:00 | Sabato 11:45 - 23:00 | Domenica 11:45 - 23:00,False,https://www.mycia.it/menu/milano/cirispaccio-EPXo1HL6I,2026-05-30T17:22:34.008374+00:00
19e3969928f3,Clamour Noodle House,Clamour Noodle House,mycia,"Via Luigi Canonica, 67, 20154 Milano, Milano MI, Italia",Milano,45.4799265,9.1717747,Ristorante,€€,,,,,Lunedì 12:00 - 15:00 / 19:00 - 22:30 | Martedì 12:00 - 15:00 / 19:00 - 22:30 | Mercoledì 12:00 - 15:00 / 19:00 - 22:30 | Giovedì 12:00 - 15:00 / 19:00 - 22:30 | Venerdì 12:00 - 15:00 / 19:00 - 22:30 | Sabato 12:00 - 15:00 / 19:00 - 22:30 | Domenica 12:00 - 15:00 / 19:00 - 22:30,False,https://www.mycia.it/menu/milano/clamour-noodle-house-5OwgRbyMz,2026-05-30T17:22:35.557593+00:00
6477841efc81,Classico Trattoria & Cocktail,Classico Trattoria & Cocktail,mycia,"Via Alessio di Tocqueville, 9, Milano, MI, Italia",Milano,45.4826666,9.1865755,PREMIUM COCKTAIL BAR,€€,,,,,Lunedì 07:30 - 00:00 | Martedì 07:30 - 00:00 | Mercoledì 07:30 - 00:00 | Giovedì 07:30 - 00:00 | Venerdì 07:30 - 03:00 | Sabato 08:30 - 03:00 | Domenica 08:30 - 00:00,True,https://www.mycia.it/menu/milano/classico-trattoria-cocktail-u8JjlPh9C,2026-05-30T17:22:37.095552+00:00
32eb0698e259,Clotilde Brera,Clotilde Brera,mycia,"Piazza S. Marco, 6, 20121 Milano, MI, Italia",Milano,45.4728384,9.1882492,"Ristorante, Trattoria",€€€,,,,,Lunedì 18:30 - 23:00 | Martedì 18:30 - 23:00 | Mercoledì 18:30 - 23:00 | Giovedì 18:30 - 23:00 | Venerdì 18:30 - 23:00 | Sabato 18:30 - 23:00 | Domenica 18:30 - 23:00,False,https://www.mycia.it/menu/milano/clotilde-brera-7abccc474,2026-05-30T17:22:38.639922+00:00
3c9af343895a,Clover Burger,Clover Burger,mycia,"Viale Brianza, 35, 20127 Milano MI, Italia",Milano,45.4889007,9.2098358,Hamburgeria,€€,,,,,Lunedì 12:00 - 14:30 / 19:00 - 22:30 | Martedì 12:00 - 14:30 / 19:00 - 22:30 | Mercoledì 12:00 - 14:30 / 19:00 - 22:30 | Giovedì 12:00 - 14:30 / 19:00 - 22:30 | Venerdì 12:00 - 14:30 / 19:00 - 22:30 | Sabato 12:00 - 14:30 / 19:00 - 22:30 | Domenica 12:00 - 14:30 / 19:00 - 22:30,False,https://www.mycia.it/menu/milano/clover-burger-d24c43058,2026-05-30T17:22:40.173993+00:00
dce908fa41c9,Colibrì,Colibrì | Colibr√¨,mycia | direct_website,"Via Laghetto, 9/11, 20122 Milano, Milano MI, Italia",Milano,45.4615099,9.1957632,"Bar, Cafè, PREMIUM COCKTAIL BAR; bar",€€,,,+393494016961,https://www.colibrimilano.it/,Lunedì 08:30 - 22:00 | Martedì 08:30 - 00:00 | Mercoledì 08:30 - 00:00 | Giovedì 08:30 - 00:00 | Venerdì 08:30 - 00:00 | Sabato 16:00 - 00:00 | Domenica Chiuso,True,https://www.mycia.it/menu/milano/colibri-7ZY2remyY,2026-05-30T17:22:41.706540+00:00
85fcd9dc27a7,Come a casa cucina naturale,Come a casa cucina naturale,mycia,"Piazzale Siena, 8, 20146 Milano, MI, Italia",Milano,45.4653364,9.1358928,Gastronomia,€€,,,,,Lunedì Chiuso | Martedì 11:30 - 15:00 / 17:30 - 20:30 | Mercoledì 11:30 - 15:00 / 17:30 - 20:30 | Giovedì 11:30 - 15:00 / 17:30 - 20:30 | Venerdì 11:30 - 15:00 / 17:30 - 20:30 | Sabato 11:00 - 19:00 | Domenica Chiuso,False,https://www.mycia.it/menu/milano/come-a-casa-cucina-naturale-9cmLfPQ1n,2026-05-30T17:22:43.254515+00:00
440adf22f9fd,Convivium,Convivium,mycia,"Via Ponte Vetero, 21, Milano, MI, Italia",Milano,45.4702968,9.184687,Ristorante Pizzeria,€€,,,,,Lunedì 12:00 - 14:45 / 19:00 - 00:45 | Martedì 12:00 - 14:45 / 19:00 - 00:45 | Mercoledì 12:00 - 14:45 / 19:00 - 00:45 | Giovedì 12:00 - 14:45 / 19:00 - 00:45 | Venerdì 12:00 - 14:45 / 19:00 - 00:45 | Sabato 12:00 - 14:45 / 19:00 - 00:45 | Domenica 12:00 - 14:45 / 19:00 - 00:45,False,https://www.mycia.it/menu/milano/convivium-9Ld2jYCMF,2026-05-30T17:22:44.799843+00:00
ca3da09b0722,Cook Window,Cook Window,mycia,"Via Amatore Sciesa, 18, 20135 Milano, MI, Italia",Milano,45.4601944,9.2090481,Ristorante Pizzeria,€€,,,,,Lunedì 11:30 - 14:00 | Martedì 11:30 - 23:00 | Mercoledì 11:30 - 23:00 | Giovedì 11:30 - 23:00 | Venerdì 11:30 - 23:00 | Sabato 19:00 - 23:00 | Domenica 19:00 - 23:00,False,https://www.mycia.it/menu/milano/cook-window-ItMcsnPeH,2026-05-30T17:22:46.357854+00:00
d7fa9c263131,Corey's Soul Chicken,Corey's Soul Chicken,mycia,"Via Paolo Sarpi, 53, 20154 Milano, Italia",Milano,45.4810377,9.1728531,Ristorante,€,,,,,Lunedì Chiuso | Martedì 12:00 - 15:00 / 19:00 - 22:00 | Mercoledì 12:00 - 15:00 / 19:00 - 22:00 | Giovedì 12:00 - 15:00 / 19:00 - 22:00 | Venerdì 12:00 - 15:00 / 19:00 - 23:00 | Sabato 11:30 - 15:00 / 19:00 - 23:00 | Domenica 12:00 - 15:00 / 19:00 - 22:00,False,https://www.mycia.it/menu/milano/corey-s-soul-chicken-HElW9NnOE,2026-05-30T17:22:47.894630+00:00
9f1ef687fd84,Crosta,Crosta,mycia,"Via Felice Bellotti, 13, Milan, Italie",Milano,45.4709023,9.2091665,"Panificio, Pizzeria",€,,,,,Lunedì Chiuso | Martedì 08:00 - 23:00 | Mercoledì 08:00 - 23:00 | Giovedì 08:00 - 23:00 | Venerdì 08:00 - 23:00 | Sabato 08:30 - 23:00 | Domenica 08:30 - 16:00,False,https://www.mycia.it/menu/milano/crosta-0wpzmInlk,2026-05-30T17:22:49.458788+00:00
18a4604b9856,Cucina Come a casa,Cucina Come a casa,mycia,"Piazzale Siena, 8, 20146 Milano MI, Italia",Milano,45.4653364,9.1358928,Ristorante,€€,,,,,Lunedì Chiuso | Martedì 11:30 - 15:00 / 17:30 - 20:30 | Mercoledì 11:30 - 15:00 / 17:30 - 20:30 | Giovedì 11:30 - 15:00 / 17:30 - 20:30 | Venerdì 11:30 - 15:00 / 17:30 - 20:30 | Sabato 11:00 - 15:30 | Domenica Chiuso,False,https://www.mycia.it/menu/milano/cucina-come-a-casa-CPTf24Jzk,2026-05-30T17:22:51.000314+00:00
378e08e5fb59,Cunza,Cunza,mycia,"Viale Monza, 54, 20127 Milano, MI, Italia",Milano,45.4932015,9.2190367,Ristorante,€€,,,,,Lunedì 11:00 - 15:00 | Martedì 11:00 - 15:00 / 19:00 - 23:00 | Mercoledì 11:00 - 15:00 / 19:00 - 23:00 | Giovedì 11:00 - 15:00 / 19:00 - 23:00 | Venerdì 11:00 - 15:00 / 19:00 - 23:00 | Sabato 11:00 - 15:00 / 19:00 - 23:00 | Domenica Chiuso,False,https://www.mycia.it/menu/milano/cunza-r3aEbiEJN,2026-05-30T17:22:52.544080+00:00
48910b5330ca,Curry Twist Ristorante Indiano,Curry Twist Ristorante Indiano,mycia,"Via Carlo Farini, 37, 20159 Milano MI, Italy",Milano,45.4899211,9.183336,,€€,,,,,,False,https://www.mycia.it/menu/milano/curry-twist-ristorante-indiano-2EBWo9T9N,2026-05-30T17:22:54.079030+00:00
8f3b167d3f45,Da Giordano il Bolognese,Da Giordano il Bolognese,mycia,"Corso Genova, 3, 20123 Milano, Milano, Italia",Milano,45.4582214,9.17724,Ristorante,€€,,,,,Lunedì 12:00 - 14:30 / 19:00 - 23:00 | Martedì 12:00 - 14:30 / 19:00 - 23:00 | Mercoledì 12:00 - 14:30 / 19:00 - 23:00 | Giovedì 12:00 - 14:30 / 19:00 - 23:00 | Venerdì 12:00 - 14:30 / 19:00 - 23:00 | Sabato 12:00 - 14:30 / 19:00 - 23:00 | Domenica 12:00 - 14:30 / 19:00 - 23:00,False,https://www.mycia.it/menu/milano/da-giordano-il-bolognese-7QTyI4swi,2026-05-30T17:22:55.624017+00:00
251e5671d464,Da Regina 1985,Da Regina 1985,mycia,"Via Silvio Pellico, 1, 20121 Milano, Milano, Italia",Milano,45.464995,9.189161,Ristorante Pizzeria,€€€,,,,,Lunedì 12:00 - 00:00 | Martedì 12:00 - 00:00 | Mercoledì 12:00 - 00:00 | Giovedì 12:00 - 00:00 | Venerdì 12:00 - 00:00 | Sabato 12:00 - 00:00 | Domenica 12:00 - 00:00,False,https://www.mycia.it/menu/milano/da-regina-1985-nZkzPEGNm,2026-05-30T17:22:57.169063+00:00
48e7242dd59a,Dabass,Dabass,mycia,"Via Piacenza, 13, Milan, Metropolitan City of Milan, Italy",Milano,45.4494508,9.2051315,"PREMIUM COCKTAIL BAR, Ristorante",€€,,,,,Lunedì Chiuso | Martedì 18:00 - 01:00 | Mercoledì 18:00 - 01:00 | Giovedì 18:00 - 01:00 | Venerdì 18:00 - 02:00 | Sabato 18:00 - 02:00 | Domenica 12:00 - 00:00,True,https://www.mycia.it/menu/milano/dabass-wz6Ay0kfg,2026-05-30T17:22:58.709552+00:00
9a6fbbeab764,Dahlia Lab,Dahlia Lab,mycia,"Via Ferdinando Bocconi, 6, Milano, Milano, Italia",Milano,45.4504888,9.1899855,"Bar, Paninoteca, Piadineria",€€,,,,,Lunedì 07:00 - 22:00 | Martedì 07:00 - 22:00 | Mercoledì 07:00 - 22:00 | Giovedì 07:00 - 22:00 | Venerdì 07:00 - 22:00 | Sabato 07:00 - 22:00 | Domenica Chiuso,True,https://www.mycia.it/menu/milano/dahlia-lab-gQFc5azx7,2026-05-30T17:23:00.249517+00:00
6d57f2fb24a7,DanielCanzian Ristorante Milano,DanielCanzian Ristorante Milano,mycia,"Via Castelfidardo, 7, 20121 Milano, MI, Italia",Milano,45.4787367,9.1895416,Ristorante,€€€€,,,,,Lunedì Chiuso | Martedì 19:00 - 23:00 | Mercoledì 12:00 - 15:00 / 19:00 - 23:00 | Giovedì 12:00 - 15:00 / 19:00 - 23:00 | Venerdì 12:00 - 15:00 / 19:00 - 23:00 | Sabato 12:00 - 15:00 / 19:00 - 23:00 | Domenica 12:00 - 15:00,False,https://www.mycia.it/menu/milano/danielcanzian-ristorante-milano-13722049e,2026-05-30T17:23:01.788418+00:00
3360bace0240,Dantò - Il Pizzaiolo di Spaccanapoli,Dantò - Il Pizzaiolo di Spaccanapoli,mycia,"Via Legnone, 65, Milano, MI, Italia",Milano,45.5022848,9.1801961,Pizzeria,€,,,,,Lunedì Chiuso | Martedì 19:00 - 23:30 | Mercoledì 19:00 - 23:30 | Giovedì 19:00 - 23:30 | Venerdì 19:00 - 23:30 | Sabato 19:00 - 23:30 | Domenica 19:00 - 23:30,False,https://www.mycia.it/menu/milano/danto-il-pizzaiolo-di-spaccanapoli-2NKnDW2pu,2026-05-30T17:23:03.327921+00:00
9f46d7284894,De Montel,De Montel,mycia,"Via Achille, 6, Milan, MI, Italy",Milano,45.4806567,9.1231276,Cocktail Bar,€€,,,,,Lunedì 09:30 - 23:00 | Martedì 09:30 - 23:00 | Mercoledì 09:30 - 23:00 | Giovedì 09:30 - 23:00 | Venerdì 08:30 - 23:45 | Sabato 08:30 - 23:45 | Domenica 08:30 - 22:00,True,https://www.mycia.it/menu/milano/de-montel-jcwOGPMbR,2026-05-30T17:23:04.871179+00:00
2de976560f53,De Santis,De Santis,mycia,"Via Santa Radegonda, 1, 20121 Milano, MI, Italia",Milano,45.464883,9.1919414,Ristorante,€€,,,,,Lunedì 09:30 - 00:00 | Martedì 09:30 - 00:00 | Mercoledì 09:30 - 00:00 | Giovedì 09:30 - 00:00 | Venerdì 09:30 - 00:00 | Sabato 09:30 - 00:00 | Domenica 10:00 - 00:00,False,https://www.mycia.it/menu/milano/de-santis-64qW1fEkZ,2026-05-30T17:23:06.415384+00:00
6355477694f5,Dedans Café&Bistrot,Dedans Café&Bistrot,mycia,"Piazza Riccardo Wagner, 3, Milano, MI, Italia",Milano,45.4677717,9.1567343,"Bar, Bistrot, Cafè",€€,,,,,Lunedì 07:30 - 16:00 | Martedì 07:30 - 22:00 | Mercoledì 07:30 - 22:00 | Giovedì 07:30 - 22:00 | Venerdì 07:30 - 22:00 | Sabato 07:30 - 22:00 | Domenica 09:00 - 21:00,True,https://www.mycia.it/menu/milano/dedans-cafe-bistrot-FliWxmLNF,2026-05-30T17:23:07.956257+00:00
7b44f0560d0b,Del Drago,Del Drago,mycia,"Via Agnello, 17, Milano, MI, Italia",Milano,45.4658793,9.1918273,"Pizzeria, Ristorante",€€€,,,,,Lunedì 12:00 - 23:00 | Martedì 12:00 - 23:00 | Mercoledì 12:00 - 23:00 | Giovedì 12:00 - 23:00 | Venerdì 12:00 - 23:00 | Sabato 12:00 - 23:00 | Domenica 12:00 - 23:00,False,https://www.mycia.it/menu/milano/del-drago-UQ6mfDyxK,2026-05-30T17:23:09.512998+00:00
2d2e3bacf8f7,Desco Milano,Desco Milano,mycia,"Via Bassano Porrone, 8, 20121 Milano MI, Italia",Milano,45.4661298,9.1865513,Ristorante,€€,,,,,Lunedì 12:00 - 15:00 / 19:30 - 22:00 | Martedì 12:00 - 15:00 / 19:30 - 22:00 | Mercoledì 12:00 - 15:00 / 19:30 - 22:00 | Giovedì 12:00 - 15:00 / 19:30 - 22:00 | Venerdì 12:00 - 15:00 / 19:30 - 22:00 | Sabato 19:30 - 22:00 | Domenica Chiuso,False,https://www.mycia.it/menu/milano/desco-milano-744e58e4c,2026-05-30T17:23:11.048985+00:00
c4b18b980555,Deseo,Deseo,mycia,"Corso Sempione, 2, Milano, MI, Italia",Milano,45.4781512,9.1698403,PREMIUM COCKTAIL BAR,€€,,,,,Lunedì 17:00 - 02:00 | Martedì 17:00 - 02:00 | Mercoledì 17:00 - 02:00 | Giovedì 17:00 - 02:00 | Venerdì 17:00 - 03:00 | Sabato 17:00 - 03:00 | Domenica 12:00 - 02:00,True,https://www.mycia.it/menu/milano/deseo-jYY2Hrbms,2026-05-30T17:23:12.599783+00:00
48ed6a5be09a,Dillinger,Dillinger,mycia,"Alzaia Naviglio Pavese, 2, 20143 Milano, Italia",Milano,45.4520357,9.1776055,"Bar, Pub",€,,,,,Lunedì Chiuso | Martedì 18:00 - 00:00 | Mercoledì 18:00 - 00:00 | Giovedì 18:00 - 00:00 | Venerdì 18:00 - 00:00 | Sabato 18:00 - 00:00 | Domenica 18:00 - 00:00,True,https://www.mycia.it/menu/milano/dillinger-aLT31wSbH,2026-05-30T17:23:14.145094+00:00
39ef5e0fb106,DOM STATION,DOM STATION,mycia,"Via Casale, 3, Milan, Metropolitan City of Milan, Italy",Milano,45.4525573,9.1702271,CASUAL COCKTAIL BAR,€€,,,,,Lunedì 07:00 - 00:00 | Martedì 07:00 - 00:00 | Mercoledì 07:00 - 00:00 | Giovedì 07:00 - 00:00 | Venerdì 07:00 - 00:00 | Sabato 07:00 - 00:00 | Domenica 07:00 - 00:00,True,https://www.mycia.it/menu/milano/dom-station-F0JmZL6Wd,2026-05-30T17:23:15.701292+00:00
65de3f8033bc,Domino's pizza,Domino's pizza,mycia,"Corso Sempione, 83, 20149 Milano, MI, Italia",Milano,45.4861192,9.1581597,Pizzeria,€,,,,,Lunedì 12:00 - 14:30 / 18:00 - 23:30 | Martedì 12:00 - 14:30 / 18:00 - 23:30 | Mercoledì 12:00 - 14:30 / 18:00 - 23:30 | Giovedì 12:00 - 14:30 / 18:00 - 23:30 | Venerdì 12:00 - 14:30 / 18:00 - 23:00 | Sabato 12:00 - 14:30 / 18:00 - 23:00 | Domenica 12:00 - 14:30 / 18:00 - 23:00,False,https://www.mycia.it/menu/milano/domino-s-pizza-dplugHJfQ,2026-05-30T17:23:17.252975+00:00
62f7b08d30ab,Don Carlos,Don Carlos,mycia,"Via Alessandro Manzoni, 29, 20121 Milano, MI, Italia",Milano,45.4701363,9.1922838,Ristorante,€€€,,,,,Lunedì 19:30 - 00:00 | Martedì 19:30 - 00:00 | Mercoledì 19:30 - 00:00 | Giovedì 19:30 - 00:00 | Venerdì 19:30 - 00:00 | Sabato 19:30 - 00:00 | Domenica 19:30 - 00:00,False,https://www.mycia.it/menu/milano/don-carlos-8ad639dd8,2026-05-30T17:23:18.793210+00:00
b323dc10fb18,Don Juan,Don Juan,mycia,"Via Altaguardia, 2, 20135 Milano, MI, Italia",Milano,45.45074,9.199172,Ristorante,€€€,,,,,Lunedì 12:30 - 14:30 / 19:30 - 00:00 | Martedì 12:30 - 14:30 / 19:30 - 00:00 | Mercoledì 12:30 - 14:30 / 19:30 - 00:00 | Giovedì 12:30 - 14:30 / 19:30 - 00:00 | Venerdì 12:30 - 14:30 / 19:30 - 00:00 | Sabato 12:30 - 14:30 / 19:30 - 00:00 | Domenica 12:30 - 14:30 / 19:30 - 00:00,False,https://www.mycia.it/menu/milano/don-juan-bxwzrXRK8,2026-05-30T17:23:20.342803+00:00
ee8089869a3d,Drinc Cocktail & Conversation,Drinc Cocktail & Conversation,mycia,"Via Plinio, 32, Milan, Metropolitan City of Milan, Italy",Milano,45.4774417,9.2156236,MIXOLOGY COCKTAIL BAR,€€€,,,,,Lunedì 18:00 - 01:00 | Martedì 18:00 - 01:00 | Mercoledì 18:00 - 01:00 | Giovedì 18:00 - 01:00 | Venerdì 18:00 - 02:00 | Sabato 18:00 - 02:00 | Domenica Chiuso,True,https://www.mycia.it/menu/milano/drinc-cocktail-conversation-9L5PAYrVB,2026-05-30T17:23:21.939947+00:00
46de1a1c8cb2,Dry Aged,Dry Aged,mycia,"Via Cesare da Sesto, 1, 20123 Milano MI, Italia",Milano,45.4568373,9.1738286,"Ristorante, Steak House",€€€,,,,,Lunedì Chiuso | Martedì 19:30 - 22:30 | Mercoledì 19:30 - 22:30 | Giovedì 19:30 - 22:30 | Venerdì 19:30 - 23:00 | Sabato 12:30 - 14:30 / 19:30 - 23:00 | Domenica 12:30 - 14:30 / 19:30 - 22:30,False,https://www.mycia.it/menu/milano/dry-aged-295e01103,2026-05-30T17:23:23.483941+00:00
9df5a93d7e8d,Eataly Milano Smeraldo - Food & Pizza Theatre,Eataly Milano Smeraldo - Food & Pizza Theatre,mycia,"Piazza XXV Aprile, 10, 20121 Milano MI, Italia",Milano,45.4809704,9.1870099,"Pizzeria, Ristorante",€€,,,,,Lunedì 11:45 - 15:00 / 18:30 - 22:00 | Martedì 11:45 - 15:00 / 18:30 - 22:00 | Mercoledì 11:45 - 15:00 / 18:30 - 22:00 | Giovedì 11:45 - 15:00 / 18:30 - 22:00 | Venerdì 11:45 - 15:00 / 18:30 - 22:30 | Sabato 11:45 - 15:30 / 18:30 - 22:30 | Domenica 11:45 - 15:30 / 18:30 - 22:00,False,https://www.mycia.it/menu/milano/eataly-milano-smeraldo-food-pizza-theatre-QmAItAIsT,2026-05-30T17:23:25.027698+00:00
527f18b0161e,Eden Wagyu Milano,Eden Wagyu Milano,mycia,"Via Luigi Cagnola, 6, 20154 Milano, Milano MI, Italia",Milano,45.4769617,9.1730152,Ristorante,€€€,,,,,Lunedì 18:00 - 01:00 | Martedì 18:00 - 01:00 | Mercoledì 18:00 - 01:00 | Giovedì 18:00 - 01:00 | Venerdì 18:00 - 01:00 | Sabato 17:00 - 02:00 | Domenica Chiuso,False,https://www.mycia.it/menu/milano/eden-wagyu-milano-ZytTKpDFF,2026-05-30T17:23:26.577252+00:00
9690c6a38717,EIMI SUSHI,EIMI SUSHI,mycia,"Viale Monte Nero, 23, 20135 Milano, Milano, Italia",Milano,45.455738,9.2042728,Sushi,€,,,,,Lunedì 19:00 - 23:30 | Martedì 12:15 - 14:45 / 19:00 - 23:30 | Mercoledì 12:15 - 14:45 / 19:00 - 23:30 | Giovedì 12:15 - 14:45 / 19:00 - 23:30 | Venerdì 12:15 - 14:45 / 19:00 - 23:30 | Sabato 12:15 - 14:45 / 19:00 - 23:30 | Domenica 12:15 - 14:45 / 19:00 - 23:30,False,https://www.mycia.it/menu/milano/eimi-sushi-5PTufpExW,2026-05-30T17:23:28.133230+00:00
1b0f777fbbc0,El Bechee,El Bechee,mycia,"Via Gaudenzio Ferrari, 2, 20123 Milano, MI, Italia",Milano,45.4562666,9.1750396,Steak House,€€,,,,,Lunedì 12:30 - 14:30 / 19:30 - 23:00 | Martedì 12:30 - 14:30 / 19:30 - 23:00 | Mercoledì 12:30 - 14:30 / 19:30 - 00:00 | Giovedì 12:30 - 14:30 / 19:30 - 23:00 | Venerdì 12:30 - 14:30 / 19:30 - 00:00 | Sabato 19:30 - 00:00 | Domenica 19:30 - 23:00,False,https://www.mycia.it/menu/milano/el-bechee-02BJKUdkb,2026-05-30T17:23:29.672361+00:00
b2a62e698e27,El Brellin,El Brellin,mycia,"Alzaia Naviglio Grande, 14, 20144 Milano Milano, Italia",Milano,45.451962,9.1751062,Ristorante,€€€,,,,,Lunedì 12:30 - 15:00 / 19:30 - 01:00 | Martedì 12:30 - 15:00 / 19:30 - 01:00 | Mercoledì 12:30 - 15:00 / 19:30 - 01:00 | Giovedì 12:30 - 15:00 / 19:30 - 01:00 | Venerdì 12:30 - 15:00 / 19:30 - 01:00 | Sabato 12:30 - 15:00 / 19:30 - 01:00 | Domenica 12:30 - 15:00 / 19:30 - 01:00,False,https://www.mycia.it/menu/milano/el-brellin-eD8eVbMcR,2026-05-30T17:23:31.213145+00:00
fb59f259d86f,El Carnicero,El Carnicero,mycia,"Corso Garibaldi, 108, Milano, MI, Italia",Milano,45.4788379,9.1857878,Ristorante,€€€,,,,,Lunedì 19:30 - 00:00 | Martedì 19:30 - 00:00 | Mercoledì 19:30 - 00:00 | Giovedì 19:30 - 00:00 | Venerdì 19:30 - 00:00 | Sabato 19:30 - 00:00 | Domenica 19:30 - 00:00,False,https://www.mycia.it/menu/milano/el-carnicero-fBDDDvoxP,2026-05-30T17:23:32.753999+00:00
a6a6fa808bef,El Carnicero - Spartaco,El Carnicero - Spartaco,mycia,"Via Spartaco, 31, Milano, MI, Italia",Milano,45.4581172,9.2120614,"Ristorante, Steak House",€€€,,,,,Lunedì 19:00 - 00:00 | Martedì Chiuso | Mercoledì 19:00 - 00:00 | Giovedì 19:00 - 00:00 | Venerdì 19:00 - 00:00 | Sabato 19:00 - 00:00 | Domenica Chiuso,False,https://www.mycia.it/menu/milano/el-carnicero-spartaco-DoE5rIc2i,2026-05-30T17:23:34.297638+00:00
c236836aeb12,El Porteño Darsena,El Porteño Darsena,mycia,"Viale Gian Galeazzo, 25, 20136 Milano MI, Italia",Milano,45.4527202,9.1847382,Ristorante,€€€,,,,,Lunedì 18:00 - 23:00 | Martedì 18:00 - 23:00 | Mercoledì 18:00 - 23:00 | Giovedì 18:00 - 23:00 | Venerdì 18:00 - 23:00 | Sabato 18:00 - 23:00 | Domenica 18:00 - 23:00,False,https://www.mycia.it/menu/milano/el-porteno-darsena-114dbb766,2026-05-30T17:23:35.837920+00:00
fe27715bf132,Elettrauto Cadore,Elettrauto Cadore,mycia,"Via Cadore, 17, Milan, Metropolitan City of Milan, Italy",Milano,45.4584786,9.2137359,Cocktail Bar,€€,,,,,Lunedì Chiuso | Martedì 07:00 - 23:30 | Mercoledì 07:00 - 23:30 | Giovedì 07:00 - 23:30 | Venerdì 07:00 - 23:30 | Sabato 07:00 - 23:30 | Domenica 07:00 - 23:30,True,https://www.mycia.it/menu/milano/elettrauto-cadore-XNwGkuOqD,2026-05-30T17:23:37.395637+00:00
8be787f55596,EMPORIUM SMOKE & COFFEE,EMPORIUM SMOKE & COFFEE,mycia,"Viale Monte Grappa, 2, Milano, MI, Italia",Milano,45.4806915,9.1920596,CASUAL COCKTAIL BAR,€€,,,,,Lunedì 06:00 - 00:00 | Martedì 06:00 - 00:00 | Mercoledì 06:00 - 00:00 | Giovedì 06:00 - 00:00 | Venerdì 06:00 - 00:00 | Sabato 06:00 - 00:00 | Domenica Chiuso,True,https://www.mycia.it/menu/milano/emporium-smoke-coffee-vRAbej46x,2026-05-30T17:23:38.944464+00:00
e6764dca3b0c,Enrico Bartolini,Enrico Bartolini,mycia,"Via Tortona, 56, 20144 Milano MI, Italia",Milano,45.4520543,9.1612919,Ristorante,€€,,,,,Lunedì Chiuso | Martedì 12:30 - 14:00 / 19:30 - 22:00 | Mercoledì 12:30 - 14:00 / 19:30 - 22:00 | Giovedì 12:30 - 14:00 / 19:30 - 22:00 | Venerdì 12:30 - 14:00 / 19:30 - 22:00 | Sabato 12:30 - 14:00 / 19:30 - 22:00 | Domenica 12:30 - 14:00,False,https://www.mycia.it/menu/milano/enrico-bartolini-7daa7967b,2026-05-30T17:23:40.489548+00:00
e003488f9dd0,Enrico Rizzi - Milano,Enrico Rizzi - Milano,mycia,"Via Cesare Correnti, 5, 20123 Milan, MI, Lombardy, Italy",Milano,45.4595588,9.1800345,Pasticceria,€€,,,,,Lunedì 10:00 - 20:00 | Martedì 10:00 - 20:00 | Mercoledì 10:00 - 20:00 | Giovedì 10:00 - 20:00 | Venerdì 10:00 - 20:00 | Sabato 10:00 - 20:00 | Domenica 10:00 - 20:00,False,https://www.mycia.it/menu/milano/enrico-rizzi-milano-KE9bFm2gD,2026-05-30T17:23:42.031091+00:00
1e1e10adba1f,Eppol,Eppol,mycia,"Via Marcello Malpighi, 7, Milano, MI, Italia",Milano,45.4748433,9.2074628,PREMIUM COCKTAIL BAR,€€,,,,,Lunedì 07:30 - 01:00 | Martedì 07:30 - 01:00 | Mercoledì 07:30 - 01:00 | Giovedì 07:30 - 01:00 | Venerdì 07:30 - 01:00 | Sabato 08:30 - 01:00 | Domenica 08:30 - 01:00,True,https://www.mycia.it/menu/milano/eppol-gV3iU9sC6,2026-05-30T17:23:43.578824+00:00
63e4387d1d86,Estilo Livre,Estilo Livre,mycia,"Via Lecco, 22, 20124 Milano, Milano MI, Italia",Milano,45.4785924,9.2059872,Bistrot,€€,,,,,Lunedì 12:00 - 14:30 / 18:00 - 00:00 | Martedì 12:00 - 14:30 / 18:00 - 23:30 | Mercoledì 12:00 - 14:30 / 18:00 - 23:30 | Giovedì 12:00 - 14:30 / 18:00 - 23:30 | Venerdì 12:00 - 14:30 / 18:00 - 23:30 | Sabato 12:00 - 14:30 / 18:00 - 23:30 | Domenica Chiuso,False,https://www.mycia.it/menu/milano/estilo-livre-Gs1yT8yar,2026-05-30T17:23:45.204901+00:00
2610c68aa5e4,Eugenio Boer Ristorante Bu:r,Eugenio Boer Ristorante Bu:r,mycia,"Via Giuseppe Mercalli, 22, 20122 Milano MI, Italia",Milano,45.4553556,9.1895245,Ristorante,€€,,,,,Lunedì Chiuso | Martedì 19:30 - 22:30 | Mercoledì 19:30 - 22:30 | Giovedì 19:30 - 22:30 | Venerdì 19:30 - 22:30 | Sabato 19:30 - 22:30 | Domenica 19:30 - 22:30,False,https://www.mycia.it/menu/milano/eugenio-boer-ristorante-bu-r-bea0fb149,2026-05-30T17:23:46.743266+00:00
64c2e7dc822d,Fabbrica del Grano,Fabbrica del Grano,mycia,"Corso Garibaldi, 26, 20121 Milano, MI, Italia",Milano,45.4739576,9.1836804,Ristorante,€€,,,,,Lunedì Chiuso | Martedì 10:00 - 22:00 | Mercoledì 10:00 - 22:00 | Giovedì 10:00 - 22:00 | Venerdì 10:00 - 22:00 | Sabato 10:00 - 22:00 | Domenica 10:00 - 18:00,False,https://www.mycia.it/menu/milano/fabbrica-del-grano-llBQ6zJf8,2026-05-30T17:23:48.281622+00:00
7bff5597c5b7,Fabbrica Pizzeria,Fabbrica Pizzeria,mycia,"Alzaia Naviglio Grande, 70, 20144 Milano, Italia",Milano,45.4509143,9.1692193,Pizzeria,€,,,,,Lunedì 12:00 - 15:00 / 19:00 - 01:00 | Martedì 12:00 - 15:00 / 19:00 - 01:00 | Mercoledì 12:00 - 15:00 / 19:00 - 01:00 | Giovedì 12:00 - 15:00 / 19:00 - 01:00 | Venerdì 12:00 - 15:00 / 19:00 - 01:00 | Sabato 12:00 - 15:00 / 19:00 - 01:00 | Domenica 12:00 - 15:00 / 19:00 - 01:00,False,https://www.mycia.it/menu/milano/fabbrica-pizzeria-o0a6CStJu,2026-05-30T17:23:49.828148+00:00
f2830ca94bea,Fairouz - Buonarroti,Fairouz - Buonarroti,mycia,"Via Michelangelo Buonarroti, 16, Milano, MI, Italia",Milano,45.4690934,9.1558082,Ristorante,€€,,,,,Lunedì 12:00 - 15:00 / 19:00 - 23:30 | Martedì Chiuso | Mercoledì 12:00 - 15:00 / 19:00 - 23:30 | Giovedì 12:00 - 15:00 / 19:00 - 23:30 | Venerdì 12:00 - 15:00 / 19:00 - 23:30 | Sabato 12:00 - 15:00 / 19:00 - 23:30 | Domenica 12:00 - 15:00 / 19:00 - 23:30,False,https://www.mycia.it/menu/milano/fairouz-buonarroti-53Vy8HanS,2026-05-30T17:23:51.369013+00:00
82698ccf7994,Fairouz - Cornalia,Fairouz - Cornalia,mycia,"Via Emilio Cornalia, 12, 20124 Milano, MI, Italia",Milano,45.4829432,9.1972498,Ristorante,€€,,,,,Lunedì Chiuso | Martedì 12:00 - 15:00 / 19:00 - 23:30 | Mercoledì 12:00 - 15:00 / 19:00 - 23:30 | Giovedì 12:00 - 15:00 / 19:00 - 23:30 | Venerdì 12:00 - 15:00 / 19:00 - 23:30 | Sabato 12:00 - 15:00 / 19:00 - 23:30 | Domenica 12:00 - 15:00 / 19:00 - 23:30,False,https://www.mycia.it/menu/milano/fairouz-cornalia-qeXAdAnRc,2026-05-30T17:23:52.912980+00:00
995d57133363,Famoso Fusion dal 1988,Famoso Fusion dal 1988,mycia,"Viale Abruzzi, 76, 20131 Milano, Milano MI, Italia",Milano,45.4830969,9.2173347,"Ristorante, Sushi",€€,,,,,Lunedì Chiuso | Martedì 12:00 - 14:30 / 19:00 - 23:00 | Mercoledì 12:00 - 14:30 / 19:00 - 23:00 | Giovedì 12:00 - 14:30 / 19:00 - 23:00 | Venerdì 12:00 - 14:30 / 19:00 - 23:00 | Sabato 12:00 - 14:30 / 19:00 - 23:00 | Domenica 12:00 - 14:30 / 19:00 - 23:00,False,https://www.mycia.it/menu/milano/famoso-fusion-dal-1988-5QAwmlvfg,2026-05-30T17:23:54.468965+00:00
7e1eeb52c87a,Felice a Testaccio,Felice a Testaccio,mycia,"Via del Torchio, 4, 20123 Milano, Milano MI, Italia",Milano,45.4603697,9.1809017,"Ristorante, Trattoria",€€,,,,,Lunedì 12:30 - 15:00 / 19:15 - 22:15 | Martedì 12:30 - 15:00 / 19:15 - 22:15 | Mercoledì 12:30 - 15:00 / 19:15 - 22:15 | Giovedì 12:30 - 15:00 / 19:15 - 22:15 | Venerdì 12:30 - 15:00 / 19:15 - 22:15 | Sabato 12:30 - 15:00 / 19:15 - 22:15 | Domenica 12:30 - 15:00 / 19:15 - 22:15,False,https://www.mycia.it/menu/milano/felice-a-testaccio-DCrCb8XWJ,2026-05-30T17:23:56.007538+00:00
6fb0b0a828c7,Felix,Felix,mycia,"Via Filippo Argelati, 1, Milano, MI, Italia",Milano,45.4514483,9.1743036,"Cafè, Cocktail Bar, Pub",€€,,,,,Lunedì 08:00 - 02:00 | Martedì 08:00 - 02:00 | Mercoledì 08:00 - 02:00 | Giovedì 08:00 - 02:00 | Venerdì 08:00 - 02:00 | Sabato 08:00 - 02:00 | Domenica 08:00 - 02:00,True,https://www.mycia.it/menu/milano/felix-0fzQK2uNG,2026-05-30T17:23:57.545421+00:00
fc2c9f6dad01,FìGod Save The Food Duomo,FìGod Save The Food Duomo,mycia,"Piazza del Duomo, 20122 Milano MI, Italia",Milano,45.4646927,9.1889986,"Cocktail Bar, Ristorante",€€,,,,,Lunedì 09:30 - 22:00 | Martedì 09:30 - 22:00 | Mercoledì 09:30 - 22:00 | Giovedì 09:30 - 22:00 | Venerdì 09:30 - 22:00 | Sabato 09:30 - 22:00 | Domenica 10:00 - 22:00,True,https://www.mycia.it/menu/milano/figod-save-the-food-duomo-gfbFV9YZM,2026-05-30T17:23:59.084670+00:00
3e6cad0c4188,Finger's Garden,Finger's Garden,mycia,"Via Giovanni Keplero, 2, 20124 Milano, MI, Italia",Milano,45.4927728,9.1988059,Sushi,€€€€,,,,,Lunedì 20:00 - 23:00 | Martedì 20:00 - 23:00 | Mercoledì 20:00 - 23:00 | Giovedì 20:00 - 23:00 | Venerdì 20:00 - 23:00 | Sabato 20:00 - 00:00 | Domenica 20:00 - 23:45,False,https://www.mycia.it/menu/milano/finger-s-garden-oYOYIhF3O,2026-05-30T17:24:00.633326+00:00
9fc36aa6b011,FininFondo,FininFondo,mycia,"Ripa di Porta Ticinese, 69, 20143 Milano, MI, Italia",Milano,45.4504031,9.1693498,"Cocktail Bar, Ristorante",€€,,,,,Lunedì 12:00 - 15:00 / 17:30 - 00:00 | Martedì 12:00 - 15:00 / 17:30 - 00:00 | Mercoledì 12:00 - 15:00 / 17:30 - 00:00 | Giovedì 12:00 - 15:00 / 17:30 - 00:00 | Venerdì 12:00 - 15:00 / 17:30 - 00:00 | Sabato 19:00 - 00:00 | Domenica 12:00 - 00:00,True,https://www.mycia.it/menu/milano/fininfondo-d10d74ee3,2026-05-30T17:24:02.172187+00:00
79a6b8b0b1ed,Fiore Di Mare,Fiore Di Mare,mycia,"Via Sardegna, 26, 20146 Milano, MI, Italia",Milano,45.463086,9.1516443,"Pizzeria, Ristorante, Steak House",€€,,,,,Lunedì 12:00 - 15:00 / 19:00 - 23:00 | Martedì 12:00 - 15:00 / 19:00 - 23:00 | Mercoledì 12:00 - 15:00 / 19:00 - 23:00 | Giovedì 12:00 - 15:00 / 19:00 - 23:00 | Venerdì 12:00 - 15:00 / 19:00 - 23:00 | Sabato 12:00 - 15:00 / 19:00 - 23:00 | Domenica 12:00 - 15:00 / 19:00 - 23:00,False,https://www.mycia.it/menu/milano/fiore-di-mare-tRWyTLkkq,2026-05-30T17:24:03.723173+00:00
108c2e495d43,Fishbar de Milan,Fishbar de Milan,mycia,"Via Montebello, 7, Milano, MI, Italia",Milano,45.4752888,9.1891169,Ristorante,€€€€,,,,,Lunedì 12:00 - 15:00 / 20:00 - 00:00 | Martedì 12:00 - 15:00 / 20:00 - 00:00 | Mercoledì 12:00 - 15:00 / 20:00 - 00:00 | Giovedì 12:00 - 15:00 / 20:00 - 00:00 | Venerdì 12:00 - 15:00 / 20:00 - 00:00 | Sabato 12:00 - 15:00 / 20:00 - 00:00 | Domenica 12:00 - 15:00 / 20:00 - 00:00,False,https://www.mycia.it/menu/milano/fishbar-de-milan-YlYoNk2UD,2026-05-30T17:24:05.263361+00:00
a1e37d6cba91,MyCIA,MyCIA,mycia,,Milano,,,,,,,,,,False,https://www.mycia.it/menu/milano/flagship-W2qImknXS,2026-05-30T17:24:06.793081+00:00
9b1040a0357f,Flow Milano,Flow Milano,mycia,"Piazza Borromeo, 5, Milan, Metropolitan City of Milan, Italy",Milano,45.463152,9.1828192,"Bar, Cocktail Bar, Ristorante",€€,,,,,Lunedì 08:00 - 01:00 | Martedì 08:00 - 01:00 | Mercoledì 08:00 - 01:00 | Giovedì 08:00 - 01:00 | Venerdì 08:00 - 02:00 | Sabato 09:00 - 02:00 | Domenica 09:00 - 01:00,True,https://www.mycia.it/menu/milano/flow-milano-AFJlGsF1t,2026-05-30T17:24:08.330565+00:00
0f78606f66a1,FloWine,FloWine,mycia,"Piazza Borromeo, 5, Milano, MI, Italia",Milano,45.4631787,9.1827878,Enoteca,€€,,,,,Lunedì 12:00 - 15:00 / 17:00 - 01:00 | Martedì 12:00 - 15:00 / 17:00 - 01:00 | Mercoledì 12:00 - 15:00 / 17:00 - 01:00 | Giovedì 12:00 - 15:00 / 17:00 - 01:00 | Venerdì 12:00 - 15:00 / 17:00 - 01:00 | Sabato 12:00 - 15:00 / 17:00 - 01:00 | Domenica 12:00 - 15:00 / 17:00 - 01:00,True,https://www.mycia.it/menu/milano/flowine-JnsoKEb1X,2026-05-30T17:24:09.878332+00:00
81fc119d4c6a,Focus - Bracerie Italiane,Focus - Bracerie Italiane,mycia,"Piazzale Segrino, 5, 20159 Milano, Milano MI, Italia",Milano,45.4906234,9.1887933,Ristorante,€€,,,,,Lunedì 12:00 - 15:00 / 19:00 - 01:00 | Martedì 12:00 - 15:00 / 18:00 - 01:00 | Mercoledì 12:00 - 15:00 / 18:00 - 01:00 | Giovedì 12:00 - 15:00 / 18:00 - 01:00 | Venerdì 12:00 - 15:00 / 18:00 - 01:00 | Sabato 12:00 - 15:00 / 18:00 - 01:00 | Domenica 12:00 - 15:00 / 18:00 - 01:00,False,https://www.mycia.it/menu/milano/focus-bracerie-italiane-7FibI8GYY,2026-05-30T17:24:11.456952+00:00
b0934e799a94,FOFÒ,FOFÒ,mycia,"Via Paolo Sarpi, 53, Milano, Italia",Milano,45.4810377,9.1728531,Ristorante,€€,,,,,Lunedì 12:00 - 23:00 | Martedì 12:00 - 23:00 | Mercoledì 12:00 - 23:00 | Giovedì 12:00 - 23:00 | Venerdì 12:00 - 23:00 | Sabato 12:00 - 23:30 | Domenica 12:00 - 23:30,False,https://www.mycia.it/menu/milano/fofo-6ubRbWM8o,2026-05-30T17:24:12.993880+00:00
a7a6be661d81,Frank Pummarola,Frank Pummarola,mycia,"Via Scoglio di Quarto, 3, Milano, MI, Italia",Milano,45.4518989,9.1785895,"Bar, Ristorante Pizzeria, Steak House",€€,,,,,Lunedì Chiuso | Martedì 19:00 - 01:00 | Mercoledì 12:00 - 15:00 / 19:00 - 01:00 | Giovedì 12:00 - 15:00 / 19:00 - 01:00 | Venerdì 12:00 - 15:00 / 19:00 - 01:00 | Sabato 12:00 - 15:00 / 19:00 - 01:00 | Domenica 12:00 - 15:00 / 19:00 - 01:00,True,https://www.mycia.it/menu/milano/frank-pummarola-F9Lfz922B,2026-05-30T17:24:14.538441+00:00
5a643dbfe7c4,Fred,Fred,mycia,"Via Francesco Ingegnoli, 2, Milano, MI, Italia",Milano,45.4863002,9.2317916,PREMIUM COCKTAIL BAR,€€,,,,,Lunedì 17:00 - 01:00 | Martedì 09:00 - 01:00 | Mercoledì 09:00 - 01:00 | Giovedì 09:00 - 01:00 | Venerdì 09:00 - 02:00 | Sabato 09:00 - 02:00 | Domenica 09:00 - 00:00,True,https://www.mycia.it/menu/milano/fred-YbJ3BDLEw,2026-05-30T17:24:16.086836+00:00
6b33a0500f87,Fresco & Cimmino,Fresco & Cimmino,mycia,"Via Ugo Foscolo, 4, Milano, MI, Italia",Milano,45.4652687,9.1910422,"Pizzeria, Trattoria",€€€,,,,,Lunedì 12:00 - 00:00 | Martedì 12:00 - 00:00 | Mercoledì 12:00 - 00:00 | Giovedì 12:00 - 00:00 | Venerdì 12:00 - 00:00 | Sabato 12:00 - 00:00 | Domenica 12:00 - 00:00,False,https://www.mycia.it/menu/milano/fresco-cimmino-xn4G4Hjlz,2026-05-30T17:24:17.631896+00:00
4a15fc8f305e,Fresco Trattoria,Fresco Trattoria,mycia,"Via Dante, 16, 20121 Milano Milano, Italia",Milano,45.46781,9.1834326,"Pizzeria, Trattoria",€,,,,,Lunedì 10:00 - 23:00 | Martedì 10:00 - 23:00 | Mercoledì 10:00 - 23:00 | Giovedì 10:00 - 23:00 | Venerdì 10:00 - 23:00 | Sabato 10:00 - 23:00 | Domenica 10:00 - 23:00,False,https://www.mycia.it/menu/milano/fresco-trattoria-VQ0ayuns3,2026-05-30T17:24:19.171967+00:00
74e6c0dcf6e8,Fu Asian Restaurant,Fu Asian Restaurant,mycia,"Viale Abruzzi, 51, 20129 Milano Milano, Italia",Milano,45.4809363,9.2168252,Sushi,€€€,,,,,Lunedì Chiuso | Martedì 10:00 - 15:00 / 17:00 - 00:00 | Mercoledì 10:00 - 15:00 / 17:00 - 00:00 | Giovedì 10:00 - 15:00 / 17:00 - 00:00 | Venerdì 10:00 - 15:00 / 17:00 - 00:00 | Sabato 10:00 - 15:00 / 17:00 - 00:00 | Domenica 10:00 - 15:00 / 17:00 - 00:00,False,https://www.mycia.it/menu/milano/fu-asian-restaurant-BWVg7nnDh,2026-05-30T17:24:20.721236+00:00
14ba646c8393,Fuel,Fuel,mycia,"Via Festa del Perdono, 8, Milan, Metropolitan City of Milan, Italy",Milano,45.46133,9.1946089,Cocktail Bar,€€,,,,,Lunedì 07:30 - 00:00 | Martedì 07:30 - 00:00 | Mercoledì 07:30 - 00:00 | Giovedì 07:30 - 00:00 | Venerdì 07:30 - 00:00 | Sabato 07:30 - 00:00 | Domenica Chiuso,True,https://www.mycia.it/menu/milano/fuel-dfJe0bfI1,2026-05-30T17:24:22.257916+00:00
363822e46e34,FUN Food United Nations,FUN Food United Nations,mycia,"Corso di Porta Romana, 85, 20122 Milano, MI, Italia",Milano,45.4555212,9.1969396,"Bistrot, Ristorante",€,,,,,Lunedì 00:00 - 00:00 / 12:00 - 15:00 | Martedì 12:00 - 15:00 / 19:00 - 22:00 | Mercoledì 12:00 - 15:00 / 19:00 - 22:00 | Giovedì 12:00 - 15:00 / 19:00 - 22:00 | Venerdì 12:00 - 15:00 / 19:00 - 23:00 | Sabato 12:00 - 15:00 / 19:00 - 23:00 | Domenica Chiuso,False,https://www.mycia.it/menu/milano/fun-food-united-nations-vPQjqVPuD,2026-05-30T17:24:23.805907+00:00
6585cb872904,Galli Pizza &amp; More,Galli Pizza &amp; More,mycia,"Corso Magenta, 78, 20123 Milano MI, Italy",Milano,45.4659071,9.1689936,,€€,,,,,,False,https://www.mycia.it/menu/milano/galli-pizza-amp-more-GT5mwGBzs,2026-05-30T17:24:25.349750+00:00
e7549742db64,Garage Pizza & Co,Garage Pizza & Co | Garage pizza & Co,mycia,"Corso Sempione, 42, Milano, MI, Italia",Milano,45.4818573,9.1650984,Pizzeria,€€,,,,,Lunedì 12:30 - 14:30 / 19:30 - 00:00 | Martedì 12:30 - 14:30 / 19:30 - 00:00 | Mercoledì 12:30 - 14:30 / 19:30 - 00:00 | Giovedì 12:30 - 14:30 / 19:30 - 00:00 | Venerdì 12:30 - 14:30 / 19:30 - 00:00 | Sabato 19:30 - 01:00 | Domenica 19:30 - 00:00,False,https://www.mycia.it/menu/milano/garage-pizza-co-3fk5k0u8f,2026-05-30T17:24:26.894463+00:00
c9289b82cf14,Gattò Robe e Cucina,Gattò Robe e Cucina,mycia,"Via Castel Morrone, 10, 20129 Milano, MI, Italia",Milano,45.4698049,9.2150741,Ristorante,€€€,,,,,Lunedì 12:45 - 14:30 / 18:30 - 22:30 | Martedì 12:45 - 14:30 / 18:30 - 22:30 | Mercoledì 12:45 - 14:30 / 18:30 - 22:30 | Giovedì 12:45 - 14:30 / 18:30 - 22:30 | Venerdì 12:45 - 14:30 / 18:30 - 22:30 | Sabato 12:45 - 14:30 / 18:30 - 22:30 | Domenica Chiuso,False,https://www.mycia.it/menu/milano/gatto-robe-e-cucina-FCSYm1Qor,2026-05-30T17:24:29.988702+00:00
02d2a2342279,Gennarì,Gennarì,mycia,"Viale Umbria, 101, Milan, Italie",Milano,45.4574562,9.2169337,Pizzeria,€,,,,,Lunedì 19:00 - 22:30 / 19:00 - 22:30 | Martedì 19:00 - 22:30 / 19:00 - 22:30 | Mercoledì 19:00 - 22:30 / 19:00 - 22:30 | Giovedì 19:00 - 22:30 / 19:00 - 22:30 | Venerdì 19:00 - 22:30 / 19:00 - 22:30 | Sabato 19:00 - 22:30 / 19:00 - 22:30 | Domenica 19:00 - 22:30,False,https://www.mycia.it/menu/milano/gennari-tQctlMo3l,2026-05-30T17:24:31.847891+00:00
dfc7e8be1421,Gerico,Gerico,mycia,"Via Pio IV, 3, Milan, Metropolitan City of Milan, Italy",Milano,45.4586783,9.1817474,Cocktail Bar,€€,,,,,Lunedì Chiuso | Martedì 16:00 - 02:00 | Mercoledì 16:00 - 02:00 | Giovedì 16:00 - 02:00 | Venerdì 16:00 - 02:00 | Sabato 16:00 - 02:00 | Domenica 16:00 - 02:00,True,https://www.mycia.it/menu/milano/gerico-GOeSPAYKH,2026-05-30T17:24:33.387997+00:00
855d7ee4f0b4,Gesto,Gesto,mycia,"Via Giuseppe Sirtori, 15, Milano, MI, Italia",Milano,45.4732801,9.2077526,MIXOLOGY COCKTAIL BAR,€€,,,,,Lunedì Chiuso | Martedì 19:00 - 02:00 | Mercoledì 19:00 - 02:00 | Giovedì 19:00 - 02:00 | Venerdì 19:00 - 02:00 | Sabato 19:00 - 02:00 | Domenica 19:00 - 02:00,True,https://www.mycia.it/menu/milano/gesto-3AeuL0beV,2026-05-30T17:24:34.932792+00:00
409b5b22edf2,Giappugliese,Giappugliese,mycia,"Viale Papiniano, 16, Milano, MI, Italia",Milano,45.4598743,9.1659517,"Ristorante, Sushi",€€€,,,,,Lunedì 00:00 - 00:00 / 19:30 - 23:30 | Martedì 00:00 - 00:00 / 19:30 - 23:30 | Mercoledì 12:30 - 14:30 / 19:30 - 23:30 | Giovedì 12:30 - 14:30 / 19:30 - 23:30 | Venerdì 12:30 - 14:30 / 19:30 - 23:30 | Sabato 12:30 - 14:30 / 19:30 - 23:30 | Domenica 12:30 - 14:30 / 19:30 - 23:30,False,https://www.mycia.it/menu/milano/giappugliese-Tn6GPqq6l,2026-05-30T17:24:36.486353+00:00
b39ba5fd9875,Giardino di Giada,Giardino di Giada,mycia,"Via Palazzo Reale, 5, 20122 Milano, MI, Italia",Milano,45.4622951,9.1927739,Ristorante,€€,,,,,Lunedì Chiuso | Martedì 12:00 - 14:45 / 19:00 - 23:45 | Mercoledì 12:00 - 14:45 / 19:00 - 23:45 | Giovedì 12:00 - 14:45 / 19:00 - 23:45 | Venerdì 12:00 - 14:45 / 19:00 - 23:45 | Sabato 12:00 - 14:45 / 19:00 - 23:45 | Domenica 12:00 - 14:45 / 19:00 - 23:45,False,https://www.mycia.it/menu/milano/giardino-di-giada-Ovul1wgCD,2026-05-30T17:24:38.030119+00:00
01e68f68f65c,Gino Sorbillo - Gourmand Milano,Gino Sorbillo - Gourmand Milano,mycia,"Via Ugo Foscolo, 1, 20121 Milano, MI, Italia",Milano,45.4651638,9.1906349,Ristorante Pizzeria,€€,,,,,Lunedì 12:00 - 23:00 | Martedì 12:00 - 23:00 | Mercoledì 12:00 - 23:00 | Giovedì 12:00 - 23:00 | Venerdì 12:00 - 23:00 | Sabato 12:00 - 23:30 | Domenica 12:00 - 23:00,False,https://www.mycia.it/menu/milano/gino-sorbillo-gourmand-milano-249bb0151,2026-05-30T17:24:39.569469+00:00
8bdac532526d,Gino Sorbillo Olio a Crudo,Gino Sorbillo Olio a Crudo,mycia,"Via Montevideo, 4, 20144 Milano, MI, Italia",Milano,45.4552598,9.1667657,Ristorante Pizzeria,€€,,,,,Lunedì 12:00 - 15:00 / 19:00 - 23:00 | Martedì 12:00 - 15:00 / 19:00 - 23:00 | Mercoledì 12:00 - 15:00 / 19:00 - 23:00 | Giovedì 12:00 - 15:00 / 19:00 - 23:00 | Venerdì 19:00 - 23:30 | Sabato 19:00 - 23:30 | Domenica 12:00 - 15:00 / 19:00 - 23:00,False,https://www.mycia.it/menu/milano/gino-sorbillo-olio-a-crudo-fb30fcc7c,2026-05-30T17:24:41.111116+00:00
0206baba35b5,Gio Docet,Gio Docet,mycia,"Viale Bligny, 24, 20136 Milano, Italia",Milano,45.4508693,9.1900731,"Bar, Fast-Food",€,,,,,Lunedì 07:00 - 20:30 | Martedì 07:00 - 20:30 | Mercoledì 07:00 - 20:30 | Giovedì 07:00 - 20:30 | Venerdì 07:00 - 20:30 | Sabato 08:00 - 20:30 | Domenica 09:00 - 17:00,True,https://www.mycia.it/menu/milano/gio-docet-LDbu3S9V1,2026-05-30T17:24:42.652655+00:00
15849cd578a0,Giulio Pane e Ojo,Giulio Pane e Ojo,mycia,"Via Lodovico Muratori, 10, Milano, MI, Italia",Milano,45.4519156,9.2047626,"Enoteca, Osteria",€€,,,,,Lunedì 12:00 - 15:00 / 19:15 - 00:00 | Martedì 12:00 - 15:00 / 19:15 - 00:00 | Mercoledì 12:00 - 15:00 / 19:15 - 00:00 | Giovedì 12:00 - 15:00 / 19:15 - 00:00 | Venerdì 12:00 - 15:00 / 19:15 - 00:00 | Sabato 12:00 - 15:00 / 19:15 - 00:00 | Domenica 12:00 - 15:00 / 19:15 - 00:00,True,https://www.mycia.it/menu/milano/giulio-pane-e-ojo-eh11vl0iZ,2026-05-30T17:24:44.199695+00:00
